%time,field.header.seq,field.header.stamp,field.header.frame_id,field.pose.position.x,field.pose.position.y,field.pose.position.z,field.pose.orientation.x,field.pose.orientation.y,field.pose.orientation.z,field.pose.orientation.w
1681292354616358019,26906,1681292354615800752,j2s6s300_link_base,0.2115229368209839,-0.6341800093650818,0.2429191917181015,-0.1355414092540741,0.7250933647155762,-0.19066792726516724,0.6476989984512329
1681292354717123211,26907,1681292354716799651,j2s6s300_link_base,0.2115229368209839,-0.6341800093650818,0.2429191917181015,-0.1355414092540741,0.7250933647155762,-0.19066792726516724,0.6476989984512329
1681292354817181280,26908,1681292354816784168,j2s6s300_link_base,0.2115229368209839,-0.6341800093650818,0.2429191917181015,-0.1355414092540741,0.7250933647155762,-0.19066792726516724,0.6476989984512329
1681292354917190854,26909,1681292354916785929,j2s6s300_link_base,0.2115229368209839,-0.6341800093650818,0.2429191917181015,-0.1355414092540741,0.7250933647155762,-0.19066792726516724,0.6476989984512329
1681292355017184815,26910,1681292355016784389,j2s6s300_link_base,0.2115229368209839,-0.6341800093650818,0.2429191917181015,-0.1355414092540741,0.7250933647155762,-0.19066792726516724,0.6476989984512329
1681292355118378900,26911,1681292355117891482,j2s6s300_link_base,0.2115229368209839,-0.6341800093650818,0.2429191917181015,-0.1355414092540741,0.7250933647155762,-0.19066792726516724,0.6476989984512329
1681292355214947024,26912,1681292355214736385,j2s6s300_link_base,0.211521714925766,-0.6341804265975952,0.2429191917181015,-0.13554073870182037,0.725093424320221,-0.19066856801509857,0.647698700428009
1681292355317228955,26913,1681292355316791733,j2s6s300_link_base,0.21150782704353333,-0.6341850757598877,0.2429191917181015,-0.13553278148174286,0.7250949144363403,-0.19067564606666565,0.6476966738700867
1681292355417176995,26914,1681292355416783832,j2s6s300_link_base,0.21149633824825287,-0.6341888904571533,0.2429191917181015,-0.13552621006965637,0.7250961661338806,-0.19068148732185364,0.6476949453353882
1681292355518175608,26915,1681292355517799056,j2s6s300_link_base,0.2115190327167511,-0.6341813206672668,0.2429191917181015,-0.13553914427757263,0.7250937819480896,-0.1906699687242508,0.6476982831954956
1681292355617170597,26916,1681292355616789219,j2s6s300_link_base,0.21151137351989746,-0.6341850161552429,0.24292251467704773,-0.13553695380687714,0.7250936031341553,-0.19067521393299103,0.6476973295211792
1681292355717150289,26917,1681292355716796568,j2s6s300_link_base,0.21156401932239532,-0.6341734528541565,0.24293242394924164,-0.13557924330234528,0.7250851988792419,-0.19065964221954346,0.6477025747299194
1681292355818350230,26918,1681292355817927636,j2s6s300_link_base,0.2114599049091339,-0.6342092752456665,0.24293455481529236,-0.13552193343639374,0.7250958681106567,-0.19071508944034576,0.6476863026618958
1681292355917127067,26919,1681292355916783090,j2s6s300_link_base,0.2114344835281372,-0.6342179775238037,0.24293579161167145,-0.13550907373428345,0.7250977158546448,-0.19072866439819336,0.6476828455924988
1681292356015867525,26920,1681292356015735504,j2s6s300_link_base,0.21106170117855072,-0.6343442797660828,0.24294143915176392,-0.13530179858207703,0.7251359224319458,-0.19092392921447754,0.6476259231567383
1681292356117188330,26921,1681292356116799146,j2s6s300_link_base,0.2101789116859436,-0.6346459984779358,0.24295832216739655,-0.13481588661670685,0.7252258062362671,-0.19139203429222107,0.647488534450531
1681292356217173480,26922,1681292356216800735,j2s6s300_link_base,0.20933976769447327,-0.634952962398529,0.2430160790681839,-0.1344204545021057,0.7252951264381409,-0.19187670946121216,0.6473496556282043
1681292356317243685,26923,1681292356316783543,j2s6s300_link_base,0.20628423988819122,-0.634911298751831,0.24354451894760132,-0.13495002686977386,0.72504061460495,-0.19217300415039062,0.6474365592002869
1681292356417180181,26924,1681292356416763457,j2s6s300_link_base,0.19902998208999634,-0.6344884634017944,0.2444550096988678,-0.1359461396932602,0.7246358394622803,-0.19203124940395355,0.6477233171463013
1681292356517193523,26925,1681292356516771127,j2s6s300_link_base,0.19005827605724335,-0.6342978477478027,0.2446606159210205,-0.13658899068832397,0.7247114181518555,-0.1918703317642212,0.6475511193275452
1681292356617194670,26926,1681292356616753194,j2s6s300_link_base,0.1805371642112732,-0.6341464519500732,0.2450549304485321,-0.13708163797855377,0.7250027656555176,-0.1921006739139557,0.6470525860786438
1681292356717226274,26927,1681292356716776888,j2s6s300_link_base,0.17199194431304932,-0.6344901323318481,0.24434760212898254,-0.13601936399936676,0.7272754311561584,-0.19290435314178467,0.6444820165634155
1681292356815897687,26928,1681292356815711006,j2s6s300_link_base,0.16467025876045227,-0.6346834301948547,0.2439786195755005,-0.13508543372154236,0.7305188179016113,-0.19383108615875244,0.6407212018966675
1681292356917186393,26929,1681292356916752158,j2s6s300_link_base,0.15698182582855225,-0.6350083947181702,0.2438020557165146,-0.13365426659584045,0.7334946393966675,-0.1949818730354309,0.6372630596160889
1681292357017132474,26930,1681292357016767602,j2s6s300_link_base,0.14768309891223907,-0.6349018216133118,0.24331992864608765,-0.13225804269313812,0.7358236908912659,-0.1948583424091339,0.6349027156829834
1681292357117082700,26931,1681292357116748173,j2s6s300_link_base,0.13772156834602356,-0.6348591446876526,0.24378728866577148,-0.13156577944755554,0.7373840808868408,-0.19509145617485046,0.633162260055542
1681292357217231130,26932,1681292357216749820,j2s6s300_link_base,0.12810596823692322,-0.6344736814498901,0.24472001194953918,-0.13191451132297516,0.7380210757255554,-0.19511976838111877,0.6323383450508118
1681292357317238225,26933,1681292357316792095,j2s6s300_link_base,0.11877040565013885,-0.6341912746429443,0.24502354860305786,-0.1321992427110672,0.7388330698013306,-0.19486269354820251,0.6314092874526978
1681292357417265966,26934,1681292357416795761,j2s6s300_link_base,0.10955321788787842,-0.6336960792541504,0.24449582397937775,-0.1323501318693161,0.739342451095581,-0.1941269487142563,0.631007969379425
1681292357518150016,26935,1681292357517714783,j2s6s300_link_base,0.10193921625614166,-0.6338027119636536,0.2447742074728012,-0.13266372680664062,0.7399244904518127,-0.1948332041501999,0.6300413608551025
1681292357615108134,26936,1681292357614859017,j2s6s300_link_base,0.09495624899864197,-0.6338440179824829,0.24366335570812225,-0.13083940744400024,0.7426731586456299,-0.19547557830810547,0.6269823908805847
1681292357718225023,26937,1681292357717800742,j2s6s300_link_base,0.08874085545539856,-0.6337750554084778,0.24338634312152863,-0.12892836332321167,0.745197057723999,-0.197000652551651,0.6238986849784851
1681292357817245008,26938,1681292357816799794,j2s6s300_link_base,0.08026295900344849,-0.634133517742157,0.2442316710948944,-0.12629494071006775,0.7473854422569275,-0.20053771138191223,0.6206845045089722
1681292357917183536,26939,1681292357916791782,j2s6s300_link_base,0.07057642936706543,-0.6347072720527649,0.24366913735866547,-0.12299694120883942,0.7498587965965271,-0.2035287618637085,0.61738121509552
1681292358017227753,26940,1681292358016794930,j2s6s300_link_base,0.06071542203426361,-0.6351500749588013,0.24438059329986572,-0.12098623812198639,0.7516402006149292,-0.2058320939540863,0.614843487739563
1681292358117179282,26941,1681292358116795065,j2s6s300_link_base,0.050355374813079834,-0.6352809071540833,0.24456661939620972,-0.11949408054351807,0.7527253031730652,-0.20728281140327454,0.6133186221122742
1681292358217274255,26942,1681292358216794573,j2s6s300_link_base,0.040312230587005615,-0.6350553035736084,0.24464750289916992,-0.1184316873550415,0.7531408667564392,-0.20780062675476074,0.6128389835357666
1681292358317182598,26943,1681292358316793255,j2s6s300_link_base,0.030418813228607178,-0.6352514028549194,0.2448253631591797,-0.11790585517883301,0.7535373568534851,-0.20916984975337982,0.6119865775108337
1681292358415131728,26944,1681292358414916646,j2s6s300_link_base,0.02026607096195221,-0.6352035999298096,0.24490636587142944,-0.11724080890417099,0.7534662485122681,-0.2106318175792694,0.6117003560066223
1681292358517179858,26945,1681292358516795235,j2s6s300_link_base,0.010242640972137451,-0.6352894902229309,0.24505439400672913,-0.11499470472335815,0.7531889081001282,-0.21297556161880493,0.611656904220581
1681292358617242457,26946,1681292358616788910,j2s6s300_link_base,0.0005785822868347168,-0.6348311305046082,0.24465985596179962,-0.11265526711940765,0.7525908350944519,-0.21504426002502441,0.6121042966842651
1681292358717269575,26947,1681292358716802439,j2s6s300_link_base,-0.00867617130279541,-0.6341956853866577,0.24420484900474548,-0.11027728021144867,0.7517369389533997,-0.21715641021728516,0.6128405928611755
1681292358817244708,26948,1681292358816794456,j2s6s300_link_base,-0.01821589469909668,-0.6340068578720093,0.24376481771469116,-0.1041208803653717,0.751295268535614,-0.22340010106563568,0.6122145652770996
1681292358916219508,26949,1681292358915795583,j2s6s300_link_base,-0.027640461921691895,-0.6346085071563721,0.2428925633430481,-0.09144911170005798,0.7532029151916504,-0.23771721124649048,0.6064757108688354
1681292359017252561,26950,1681292359016797696,j2s6s300_link_base,-0.03585332632064819,-0.6352516412734985,0.24236099421977997,-0.0752900093793869,0.7588198781013489,-0.2548811435699463,0.5946085453033447
1681292359116208194,26951,1681292359115800650,j2s6s300_link_base,-0.04436613619327545,-0.6350609660148621,0.24179114401340485,-0.059977173805236816,0.7638092041015625,-0.26896947622299194,0.5836553573608398
1681292359216029834,26952,1681292359215805425,j2s6s300_link_base,-0.05351513624191284,-0.6344971060752869,0.24183668196201324,-0.04857438802719116,0.7670858502388,-0.27886804938316345,0.5757191181182861
1681292359317215490,26953,1681292359316794681,j2s6s300_link_base,-0.06345319747924805,-0.6343361139297485,0.24164268374443054,-0.03945505619049072,0.7695068120956421,-0.2860395312309265,0.5696347951889038
1681292359418154369,26954,1681292359417783881,j2s6s300_link_base,-0.07330437004566193,-0.6342639327049255,0.24171610176563263,-0.033190563321113586,0.7708204984664917,-0.2916969656944275,0.5653733015060425
1681292359517255821,26955,1681292359516800045,j2s6s300_link_base,-0.08290708065032959,-0.6343755722045898,0.24273166060447693,-0.029357433319091797,0.771278440952301,-0.2974075973033905,0.5619755387306213
1681292359617148039,26956,1681292359616791013,j2s6s300_link_base,-0.09203226864337921,-0.6351556181907654,0.2422734797000885,-0.022251054644584656,0.7726874947547913,-0.3036178648471832,0.5570235252380371
1681292359717222516,26957,1681292359716796456,j2s6s300_link_base,-0.09981486201286316,-0.6372226476669312,0.24169325828552246,-0.009234800934791565,0.775825023651123,-0.31727534532546997,0.5452950596809387
1681292359817247786,26958,1681292359816796429,j2s6s300_link_base,-0.10579425096511841,-0.6389535665512085,0.2413245588541031,0.007051870226860046,0.7781829237937927,-0.33338263630867004,0.5322007536888123
1681292359917265859,26959,1681292359916796465,j2s6s300_link_base,-0.1122267097234726,-0.6407718062400818,0.2421106994152069,0.02154935896396637,0.7786490321159363,-0.34786325693130493,0.521759033203125
1681292360016138846,26960,1681292360015918432,j2s6s300_link_base,-0.12046022713184357,-0.6432753801345825,0.24315145611763,0.032821863889694214,0.7792216539382935,-0.3585413694381714,0.51301509141922
1681292360117174291,26961,1681292360116796857,j2s6s300_link_base,-0.12900760769844055,-0.6465820074081421,0.24236449599266052,0.046569764614105225,0.7843563556671143,-0.3667604923248291,0.498099684715271
1681292360217189929,26962,1681292360216752485,j2s6s300_link_base,-0.13657522201538086,-0.6496420502662659,0.2416200339794159,0.06168520450592041,0.7903180718421936,-0.37543463706970215,0.4802510142326355
1681292360317258970,26963,1681292360316798904,j2s6s300_link_base,-0.14438794553279877,-0.6519172191619873,0.24153289198875427,0.07349103689193726,0.7935250997543335,-0.38395512104034424,0.46636414527893066
1681292360414956383,26964,1681292360414743497,j2s6s300_link_base,-0.15333129465579987,-0.6538065671920776,0.24195653200149536,0.08382223546504974,0.7938933372497559,-0.3931509256362915,0.45622292160987854
1681292360517188681,26965,1681292360516792650,j2s6s300_link_base,-0.1625714749097824,-0.6556199789047241,0.242569237947464,0.09435339272022247,0.7907058596611023,-0.40650850534439087,0.44792014360427856
1681292360617168244,26966,1681292360616754260,j2s6s300_link_base,-0.1710434854030609,-0.6574201583862305,0.2431233674287796,0.10671690106391907,0.7836836576461792,-0.42450276017189026,0.4407367408275604
1681292360718203843,26967,1681292360717791440,j2s6s300_link_base,-0.17887884378433228,-0.6591312885284424,0.24419330060482025,0.11880788207054138,0.7745291590690613,-0.44404855370521545,0.4345228374004364
1681292360817016472,26968,1681292360816808620,j2s6s300_link_base,-0.18605805933475494,-0.6609079241752625,0.2452208250761032,0.1293870508670807,0.7657836675643921,-0.4610476493835449,0.42926621437072754
1681292360918178803,26969,1681292360917792299,j2s6s300_link_base,-0.1920819729566574,-0.6624941229820251,0.24608317017555237,0.1380188912153244,0.757966935634613,-0.4753142297267914,0.42486876249313354
1681292361018235944,26970,1681292361017794608,j2s6s300_link_base,-0.19553910195827484,-0.6633923649787903,0.24602076411247253,0.14378339052200317,0.7519466876983643,-0.485177218914032,0.42249906063079834
1681292361118223822,26971,1681292361117794129,j2s6s300_link_base,-0.1975095570087433,-0.664150595664978,0.24516503512859344,0.14790542423725128,0.7477149963378906,-0.4918287992477417,0.42089277505874634
1681292361217223020,26972,1681292361216814540,j2s6s300_link_base,-0.1991783082485199,-0.6647485494613647,0.24494388699531555,0.1513022631406784,0.7444223165512085,-0.49679216742515564,0.41969114542007446
1681292361317189316,26973,1681292361316790851,j2s6s300_link_base,-0.2005186378955841,-0.6653358936309814,0.24466866254806519,0.153657004237175,0.7420639395713806,-0.5005255937576294,0.41857481002807617
1681292361417228188,26974,1681292361416786927,j2s6s300_link_base,-0.2015378773212433,-0.6657402515411377,0.2445630133152008,0.15577197074890137,0.7402687072753906,-0.5030237436294556,0.41797661781311035
1681292361517225036,26975,1681292361516785377,j2s6s300_link_base,-0.20226909220218658,-0.6660528182983398,0.24472713470458984,0.15713739395141602,0.7389506101608276,-0.5049080848693848,0.4175257682800293
1681292361616884614,26976,1681292361616694979,j2s6s300_link_base,-0.20277324318885803,-0.6662658452987671,0.24467767775058746,0.15776950120925903,0.7381470799446106,-0.5063253045082092,0.4169919192790985
1681292361717160396,26977,1681292361716793869,j2s6s300_link_base,-0.20285794138908386,-0.6662606000900269,0.24461014568805695,0.1578853577375412,0.7380217909812927,-0.5065937042236328,0.4168441891670227
1681292361817187664,26978,1681292361816796790,j2s6s300_link_base,-0.20314912497997284,-0.6660907864570618,0.24426105618476868,0.15828490257263184,0.7380282878875732,-0.5065063238143921,0.41678717732429504
1681292361917163015,26979,1681292361916746663,j2s6s300_link_base,-0.20441652834415436,-0.6658744215965271,0.2442585676908493,0.1594686508178711,0.737604022026062,-0.5070809721946716,0.41638803482055664
1681292362017238565,26980,1681292362016789435,j2s6s300_link_base,-0.20557594299316406,-0.6659040451049805,0.2446386218070984,0.1606401652097702,0.7368288636207581,-0.5080905556678772,0.41607925295829773
1681292362117255669,26981,1681292362116808330,j2s6s300_link_base,-0.2080112248659134,-0.6662505865097046,0.2454008162021637,0.1643647998571396,0.7327762842178345,-0.5147289037704468,0.41361498832702637
1681292362215150810,26982,1681292362214918807,j2s6s300_link_base,-0.21204575896263123,-0.6657342910766602,0.24509543180465698,0.17349369823932648,0.7242066860198975,-0.5283221006393433,0.4077993631362915
1681292362317161431,26983,1681292362316791196,j2s6s300_link_base,-0.21557053923606873,-0.6646808385848999,0.2460862696170807,0.18033328652381897,0.7144235968589783,-0.5421221852302551,0.4039582312107086
1681292362416265599,26984,1681292362415793471,j2s6s300_link_base,-0.22178338468074799,-0.6633552312850952,0.24686270952224731,0.18620198965072632,0.707181990146637,-0.5519566535949707,0.40070709586143494
1681292362517246736,26985,1681292362516786782,j2s6s300_link_base,-0.22830861806869507,-0.6609259843826294,0.24624498188495636,0.19601207971572876,0.7032277584075928,-0.5576236844062805,0.39510223269462585
1681292362617243546,26986,1681292362616792197,j2s6s300_link_base,-0.23489466309547424,-0.6571297645568848,0.24566982686519623,0.20492017269134521,0.7009961009025574,-0.5622757077217102,0.3878895044326782
1681292362717190510,26987,1681292362716792544,j2s6s300_link_base,-0.24301345646381378,-0.6520384550094604,0.24506379663944244,0.21397465467453003,0.6970244646072388,-0.5694127082824707,0.37965863943099976
1681292362817252475,26988,1681292362816788216,j2s6s300_link_base,-0.2514858841896057,-0.6464910507202148,0.2449280321598053,0.22533711791038513,0.6867275238037109,-0.5832650661468506,0.3707161247730255
1681292362917236834,26989,1681292362916789281,j2s6s300_link_base,-0.2581877112388611,-0.6411319971084595,0.2471817135810852,0.2338460385799408,0.6728776097297668,-0.6007664799690247,0.3628104627132416
1681292363017176643,26990,1681292363016800161,j2s6s300_link_base,-0.26277977228164673,-0.6369582414627075,0.24829283356666565,0.2413794994354248,0.6604889631271362,-0.6152068972587585,0.3563859164714813
1681292363117180063,26991,1681292363116791944,j2s6s300_link_base,-0.266177237033844,-0.633713960647583,0.24808171391487122,0.24791155755519867,0.6513115763664246,-0.6249657869338989,0.3517822325229645
1681292363217193411,26992,1681292363216787797,j2s6s300_link_base,-0.2685315012931824,-0.6312756538391113,0.2465788722038269,0.2535911202430725,0.6450023651123047,-0.6309850811958313,0.34859904646873474
1681292363316238636,26993,1681292363315793592,j2s6s300_link_base,-0.2705903649330139,-0.6296136379241943,0.24625900387763977,0.2572259306907654,0.640017569065094,-0.6361206769943237,0.3457784056663513
1681292363417094363,26994,1681292363416751622,j2s6s300_link_base,-0.2721325159072876,-0.6283892393112183,0.24576161801815033,0.26060014963150024,0.6364107131958008,-0.639248788356781,0.34413647651672363
1681292363517138168,26995,1681292363516757092,j2s6s300_link_base,-0.2733076214790344,-0.6275544166564941,0.24576516449451447,0.2622433304786682,0.6337513327598572,-0.642103374004364,0.3424779176712036
1681292363617192419,26996,1681292363616793663,j2s6s300_link_base,-0.27420803904533386,-0.6269367337226868,0.24601663649082184,0.26312023401260376,0.63169926404953,-0.6443379521369934,0.34139764308929443
1681292363717177414,26997,1681292363716781919,j2s6s300_link_base,-0.27629920840263367,-0.6258049011230469,0.2456873655319214,0.2652992606163025,0.6300352811813354,-0.645904004573822,0.3398233652114868
1681292363817235848,26998,1681292363816807882,j2s6s300_link_base,-0.27733397483825684,-0.6242372989654541,0.2450515627861023,0.2670133411884308,0.6292864680290222,-0.6464153528213501,0.3388946056365967
1681292363917225145,26999,1681292363916790539,j2s6s300_link_base,-0.2771376073360443,-0.6190512180328369,0.2424677610397339,0.2710634171962738,0.6305494904518127,-0.6445003747940063,0.33697354793548584
1681292364017224972,27000,1681292364016789593,j2s6s300_link_base,-0.2776468098163605,-0.6100245714187622,0.24268634617328644,0.27904829382896423,0.6328521370887756,-0.6427714824676514,0.3293554484844208
1681292364117161298,27001,1681292364116788679,j2s6s300_link_base,-0.2781735956668854,-0.599951982498169,0.24275021255016327,0.28811103105545044,0.6360741257667542,-0.639690101146698,0.3212449550628662
1681292364216218034,27002,1681292364215778165,j2s6s300_link_base,-0.27758660912513733,-0.5900624990463257,0.24141651391983032,0.29454562067985535,0.6392421722412109,-0.6366865038871765,0.3150279223918915
1681292364318208720,27003,1681292364317790150,j2s6s300_link_base,-0.27847611904144287,-0.5804656744003296,0.2389349490404129,0.3008023798465729,0.6400460600852966,-0.6361802220344543,0.3084374964237213
1681292364417136812,27004,1681292364416757148,j2s6s300_link_base,-0.27847743034362793,-0.5713587999343872,0.23607312142848969,0.30392026901245117,0.6397305130958557,-0.6369017958641052,0.3045216500759125
1681292364517221890,27005,1681292364516788169,j2s6s300_link_base,-0.27845218777656555,-0.5623092651367188,0.23420946300029755,0.30570071935653687,0.6385449767112732,-0.6384479999542236,0.30197954177856445
1681292364617234384,27006,1681292364616789380,j2s6s300_link_base,-0.2790313959121704,-0.5527398586273193,0.23213152587413788,0.3081539571285248,0.63755202293396,-0.639154314994812,0.30008378624916077
1681292364717187958,27007,1681292364716787569,j2s6s300_link_base,-0.2804337739944458,-0.5435497760772705,0.23049935698509216,0.30875158309936523,0.6376484632492065,-0.6393441557884216,0.2988576292991638
1681292364817170241,27008,1681292364816784476,j2s6s300_link_base,-0.2849181592464447,-0.5364998579025269,0.23035958409309387,0.30856600403785706,0.6371651291847229,-0.640053927898407,0.29856085777282715
1681292364917158310,27009,1681292364916790203,j2s6s300_link_base,-0.2907606363296509,-0.5308489799499512,0.23008409142494202,0.3079070448875427,0.6372847557067871,-0.6406662464141846,0.2976711392402649
1681292365018194428,27010,1681292365017754680,j2s6s300_link_base,-0.29654794931411743,-0.5265144109725952,0.2289738953113556,0.30861154198646545,0.6372553110122681,-0.6407939195632935,0.29672831296920776
1681292365116139556,27011,1681292365115746873,j2s6s300_link_base,-0.30131903290748596,-0.5237306356430054,0.22903504967689514,0.3102997839450836,0.6336585283279419,-0.6438449621200562,0.29606521129608154
1681292365217138621,27012,1681292365216743371,j2s6s300_link_base,-0.30491021275520325,-0.52158522605896,0.22838662564754486,0.31243398785591125,0.6296896934509277,-0.6472446322441101,0.2948734760284424
1681292365317224362,27013,1681292365316821604,j2s6s300_link_base,-0.30825623869895935,-0.5202395915985107,0.22872203588485718,0.31487300992012024,0.6237767934799194,-0.6528639197349548,0.2924487888813019
1681292365417113114,27014,1681292365416745195,j2s6s300_link_base,-0.30992650985717773,-0.5191988945007324,0.2282477617263794,0.3165038824081421,0.6197182536125183,-0.6569926738739014,0.290060818195343
1681292365517218646,27015,1681292365516792018,j2s6s300_link_base,-0.3109685778617859,-0.5182974934577942,0.22822028398513794,0.3176468014717102,0.6163634657859802,-0.6602263450622559,0.2886136472225189
1681292365617178458,27016,1681292365616789267,j2s6s300_link_base,-0.31097763776779175,-0.5172216892242432,0.22776436805725098,0.3184219002723694,0.6145194172859192,-0.6618489027023315,0.28797462582588196
1681292365717228905,27017,1681292365716787976,j2s6s300_link_base,-0.3109276294708252,-0.514809250831604,0.22728125751018524,0.3195919096469879,0.6131753325462341,-0.6625794768333435,0.2878636121749878
1681292365817153337,27018,1681292365816791891,j2s6s300_link_base,-0.3112032115459442,-0.5100577473640442,0.22717534005641937,0.3201991021633148,0.6115264296531677,-0.6640610098838806,0.28728222846984863
1681292365917177101,27019,1681292365916793208,j2s6s300_link_base,-0.31130531430244446,-0.5035561323165894,0.22613275051116943,0.320647269487381,0.6114147305488586,-0.6642968058586121,0.2864735722541809
1681292366017180049,27020,1681292366016808444,j2s6s300_link_base,-0.3111543655395508,-0.49755048751831055,0.22427214682102203,0.3210555911064148,0.6108699440956116,-0.6645107865333557,0.28668224811553955
1681292366117190130,27021,1681292366116786532,j2s6s300_link_base,-0.3119610548019409,-0.49280592799186707,0.22123925387859344,0.32093143463134766,0.609813928604126,-0.6658474206924438,0.28596723079681396
1681292366217220815,27022,1681292366216794489,j2s6s300_link_base,-0.31235095858573914,-0.48936909437179565,0.21634356677532196,0.32191166281700134,0.6098230481147766,-0.6656317114830017,0.2853472828865051
1681292366317218618,27023,1681292366316787271,j2s6s300_link_base,-0.3126462399959564,-0.4868234395980835,0.21241772174835205,0.3223952651023865,0.6089833378791809,-0.666095495223999,0.28551244735717773
1681292366417238835,27024,1681292366416790784,j2s6s300_link_base,-0.3134291470050812,-0.4848037660121918,0.20926299691200256,0.3219949007034302,0.6086972951889038,-0.6669620275497437,0.2845495045185089
1681292366517173661,27025,1681292366516775580,j2s6s300_link_base,-0.3137594759464264,-0.4821256399154663,0.20637360215187073,0.32234689593315125,0.6087190508842468,-0.6669348478317261,0.28416821360588074
1681292366617181989,27026,1681292366616742764,j2s6s300_link_base,-0.3126945495605469,-0.4765510559082031,0.20459693670272827,0.3217970132827759,0.608700692653656,-0.666681706905365,0.28542184829711914
1681292366717190821,27027,1681292366716744225,j2s6s300_link_base,-0.311821311712265,-0.4679076671600342,0.20327307283878326,0.32087594270706177,0.6093933582305908,-0.6664707064628601,0.28547370433807373
1681292366817150980,27028,1681292366816744910,j2s6s300_link_base,-0.31162434816360474,-0.4585510492324829,0.2014937847852707,0.32363298535346985,0.6104699373245239,-0.6648238301277161,0.28389671444892883
1681292366917141949,27029,1681292366916745353,j2s6s300_link_base,-0.3118695020675659,-0.44989097118377686,0.19965629279613495,0.329302042722702,0.6121437549591064,-0.662361741065979,0.27949443459510803
1681292367017188339,27030,1681292367016760448,j2s6s300_link_base,-0.3120470345020294,-0.44344452023506165,0.19796627759933472,0.334336519241333,0.6132026314735413,-0.6603838205337524,0.27585309743881226
1681292367117171092,27031,1681292367116744483,j2s6s300_link_base,-0.31269198656082153,-0.4387403130531311,0.19508619606494904,0.3370916545391083,0.6148695349693298,-0.6592850089073181,0.2713816165924072
1681292367215121777,27032,1681292367214884184,j2s6s300_link_base,-0.3127158582210541,-0.43538573384284973,0.18894067406654358,0.33962196111679077,0.6166111826896667,-0.6575263142585754,0.26852691173553467
1681292367316131991,27033,1681292367315725254,j2s6s300_link_base,-0.31294912099838257,-0.432981014251709,0.18268199265003204,0.3409980237483978,0.6171531677246094,-0.6571634411811829,0.26641812920570374
1681292367417181521,27034,1681292367416745047,j2s6s300_link_base,-0.31340306997299194,-0.4309695363044739,0.17736545205116272,0.3424987196922302,0.617107629776001,-0.6570034027099609,0.26498928666114807
1681292367517184712,27035,1681292367516792018,j2s6s300_link_base,-0.3136433959007263,-0.42919304966926575,0.17207732796669006,0.34476417303085327,0.617515504360199,-0.6557393670082092,0.2642311751842499
1681292367617249205,27036,1681292367616788050,j2s6s300_link_base,-0.31361669301986694,-0.4278254806995392,0.16790266335010529,0.3457658290863037,0.6177566051483154,-0.6552868485450745,0.2634805142879486
1681292367717245114,27037,1681292367716786455,j2s6s300_link_base,-0.3134739100933075,-0.4268152713775635,0.16383199393749237,0.34653764963150024,0.6175164580345154,-0.6551734209060669,0.2633111774921417
1681292367817234207,27038,1681292367816785133,j2s6s300_link_base,-0.3134440779685974,-0.42607831954956055,0.1592305451631546,0.34750351309776306,0.6172170639038086,-0.6548676490783691,0.26350101828575134
1681292367917226878,27039,1681292367916752705,j2s6s300_link_base,-0.31331557035446167,-0.42496079206466675,0.15501658618450165,0.34714317321777344,0.6177821755409241,-0.6546429395675659,0.2632097899913788
1681292368017233578,27040,1681292368016787600,j2s6s300_link_base,-0.3126847445964813,-0.42233869433403015,0.15257804095745087,0.34469279646873474,0.6203128695487976,-0.6523204445838928,0.266227126121521
1681292368116025346,27041,1681292368115748720,j2s6s300_link_base,-0.3117959499359131,-0.4169572591781616,0.1487661451101303,0.34043294191360474,0.6292116045951843,-0.6439841389656067,0.27107667922973633
1681292368217234155,27042,1681292368216789658,j2s6s300_link_base,-0.3116050958633423,-0.4105907678604126,0.14553441107273102,0.33679112792015076,0.6377736330032349,-0.635503351688385,0.27559414505958557
1681292368317184494,27043,1681292368316787835,j2s6s300_link_base,-0.31265756487846375,-0.4053301513195038,0.14290307462215424,0.33457571268081665,0.6421650648117065,-0.6312447190284729,0.2778726816177368
1681292368417246482,27044,1681292368416785222,j2s6s300_link_base,-0.31458747386932373,-0.4011601209640503,0.13754680752754211,0.3362770676612854,0.640915036201477,-0.6322734355926514,0.27636173367500305
1681292368517252347,27045,1681292368516785157,j2s6s300_link_base,-0.315143883228302,-0.3982231616973877,0.13036780059337616,0.33785396814346313,0.6379668712615967,-0.6350786685943604,0.2748234272003174
1681292368617236719,27046,1681292368616789114,j2s6s300_link_base,-0.31566596031188965,-0.39595672488212585,0.1240992546081543,0.3388102948665619,0.6351162195205688,-0.6379743814468384,0.2735392153263092
1681292368717253459,27047,1681292368716789462,j2s6s300_link_base,-0.3158159554004669,-0.3943053185939789,0.11859539151191711,0.3397727310657501,0.6336343884468079,-0.6393950581550598,0.2724628150463104
1681292368817168974,27048,1681292368816730763,j2s6s300_link_base,-0.3161213994026184,-0.3930218815803528,0.11459050327539444,0.3406025469303131,0.6322597861289978,-0.6406509876251221,0.27166855335235596
1681292368915961921,27049,1681292368915734447,j2s6s300_link_base,-0.31629160046577454,-0.3922031819820404,0.1117948591709137,0.34157150983810425,0.6308414340019226,-0.641501247882843,0.2717428207397461
1681292369015969391,27050,1681292369015706840,j2s6s300_link_base,-0.3170032501220703,-0.39174824953079224,0.10997173935174942,0.3410394787788391,0.6294018626213074,-0.6434929966926575,0.27103909850120544
1681292369117172781,27051,1681292369116741011,j2s6s300_link_base,-0.3166782557964325,-0.39112403988838196,0.10696794837713242,0.34091678261756897,0.62918621301651,-0.6437594294548035,0.2710612416267395
1681292369217133746,27052,1681292369216742843,j2s6s300_link_base,-0.31684890389442444,-0.3900357782840729,0.10434269905090332,0.34122776985168457,0.6293594241142273,-0.6436308026313782,0.2705729901790619
1681292369317158479,27053,1681292369316742099,j2s6s300_link_base,-0.31713053584098816,-0.38812965154647827,0.10232291370630264,0.3415534198284149,0.6295021772384644,-0.6435694098472595,0.26997533440589905
1681292369417154511,27054,1681292369416729833,j2s6s300_link_base,-0.3170751929283142,-0.38476991653442383,0.10042425990104675,0.34117159247398376,0.6296364068984985,-0.6435396075248718,0.270216166973114
1681292369517150465,27055,1681292369516743135,j2s6s300_link_base,-0.3170579969882965,-0.3807377219200134,0.098687082529068,0.34001827239990234,0.6297894716262817,-0.6440495848655701,0.2700980007648468
1681292369617192087,27056,1681292369616788022,j2s6s300_link_base,-0.3178154528141022,-0.37669309973716736,0.09714563190937042,0.3400806784629822,0.6295381188392639,-0.6446435451507568,0.2691868543624878
1681292369716118542,27057,1681292369715908934,j2s6s300_link_base,-0.31796562671661377,-0.3721616864204407,0.09554865956306458,0.3399716019630432,0.6294538974761963,-0.6447981595993042,0.26915135979652405
1681292369817253249,27058,1681292369816790336,j2s6s300_link_base,-0.31778907775878906,-0.36706119775772095,0.09314047545194626,0.34002915024757385,0.62945556640625,-0.6446577310562134,0.2694109082221985
1681292369918231458,27059,1681292369917788105,j2s6s300_link_base,-0.3173888325691223,-0.3620404601097107,0.08965601772069931,0.3398292064666748,0.6296911239624023,-0.6445199847221375,0.26944249868392944
1681292370017188145,27060,1681292370016787794,j2s6s300_link_base,-0.3170240521430969,-0.3577505350112915,0.08501473069190979,0.34137964248657227,0.6294074058532715,-0.6437484622001648,0.269989013671875
1681292370117238103,27061,1681292370116786996,j2s6s300_link_base,-0.3166954815387726,-0.3546946346759796,0.07986395061016083,0.3415549397468567,0.6296634674072266,-0.6433839797973633,0.27003923058509827
1681292370217166674,27062,1681292370216719984,j2s6s300_link_base,-0.31680524349212646,-0.3523387312889099,0.07546788454055786,0.3408315181732178,0.6296641826629639,-0.6432873606681824,0.2711794972419739
1681292370317237713,27063,1681292370316805126,j2s6s300_link_base,-0.3166429400444031,-0.3498382568359375,0.07031524181365967,0.3377533257007599,0.634051501750946,-0.6396231055259705,0.2734661102294922
1681292370417250437,27064,1681292370416785773,j2s6s300_link_base,-0.3160046637058258,-0.34632542729377747,0.06461384892463684,0.33360356092453003,0.6412033438682556,-0.6332717537879944,0.2766474783420563
1681292370516106314,27065,1681292370515918106,j2s6s300_link_base,-0.3158973455429077,-0.3420976400375366,0.0595315545797348,0.33081480860710144,0.6466743350028992,-0.6279624104499817,0.27935120463371277
1681292370618236961,27066,1681292370617790946,j2s6s300_link_base,-0.31621426343917847,-0.3380160331726074,0.05564271658658981,0.32924091815948486,0.6505310535430908,-0.6242303848266602,0.28061726689338684
1681292370717236903,27067,1681292370716788550,j2s6s300_link_base,-0.31719598174095154,-0.33424901962280273,0.05251780152320862,0.33029407262802124,0.6535259485244751,-0.6209747791290283,0.27964285016059875
1681292370817266084,27068,1681292370816787277,j2s6s300_link_base,-0.31746456027030945,-0.3299952447414398,0.0494033545255661,0.3318289518356323,0.6555888056755066,-0.6178992986679077,0.27980947494506836
1681292370917272287,27069,1681292370916788229,j2s6s300_link_base,-0.3170299232006073,-0.32408154010772705,0.04532422870397568,0.3332130014896393,0.6562299728393555,-0.616185188293457,0.2804410755634308
1681292371017251556,27070,1681292371016788115,j2s6s300_link_base,-0.31730538606643677,-0.31800493597984314,0.04109123721718788,0.3351225256919861,0.6553040146827698,-0.6166709065437317,0.2792606055736542
1681292371117263161,27071,1681292371116786199,j2s6s300_link_base,-0.3180359899997711,-0.31299224495887756,0.03793986886739731,0.33607199788093567,0.6543270945549011,-0.6178483366966248,0.2778041362762451
1681292371217185411,27072,1681292371216779232,j2s6s300_link_base,-0.3181582987308502,-0.30872195959091187,0.03510693460702896,0.33641326427459717,0.6541276574134827,-0.6184236407279968,0.27657797932624817
1681292371315924364,27073,1681292371315754225,j2s6s300_link_base,-0.3181048035621643,-0.30405712127685547,0.032323166728019714,0.3367297947406769,0.6540981531143188,-0.6185568571090698,0.27596378326416016
1681292371418317803,27074,1681292371417816827,j2s6s300_link_base,-0.31768444180488586,-0.2980210781097412,0.02870645932853222,0.33667615056037903,0.6545440554618835,-0.6180955171585083,0.2760057747364044
1681292371518237005,27075,1681292371517787412,j2s6s300_link_base,-0.3174545168876648,-0.2923971116542816,0.025664422661066055,0.3369622528553009,0.6542993783950806,-0.6180481910705566,0.27634260058403015
1681292371617238211,27076,1681292371616785471,j2s6s300_link_base,-0.31787413358688354,-0.2877679765224457,0.02336297743022442,0.3366343080997467,0.6543709635734558,-0.6185564398765564,0.2754339575767517
1681292371717173722,27077,1681292371716786380,j2s6s300_link_base,-0.3192269802093506,-0.2841206192970276,0.021440647542476654,0.33686578273773193,0.6544173359870911,-0.6188936829566956,0.2742809057235718
1681292371817238659,27078,1681292371816788955,j2s6s300_link_base,-0.3215891122817993,-0.2817527651786804,0.019507676362991333,0.3354294002056122,0.6553236842155457,-0.6191986203193665,0.2731870412826538
1681292371917279520,27079,1681292371916788473,j2s6s300_link_base,-0.32449233531951904,-0.27991896867752075,0.017464909702539444,0.3352879285812378,0.6550095081329346,-0.6195720434188843,0.2732672393321991
1681292372017248888,27080,1681292372016736601,j2s6s300_link_base,-0.32655900716781616,-0.2787625789642334,0.01473192684352398,0.33548983931541443,0.6549651026725769,-0.619343101978302,0.2736447751522064
1681292372115967799,27081,1681292372115788736,j2s6s300_link_base,-0.3283085227012634,-0.2778092920780182,0.012213282287120819,0.33587175607681274,0.6548523902893066,-0.6192905902862549,0.2735649347305298
1681292372218187839,27082,1681292372217787422,j2s6s300_link_base,-0.32979220151901245,-0.2768784165382385,0.009842276573181152,0.3364010155200958,0.6547924876213074,-0.619340181350708,0.27294474840164185
1681292372317232627,27083,1681292372316787573,j2s6s300_link_base,-0.3306456208229065,-0.2764231860637665,0.007414402440190315,0.33626341819763184,0.6553075909614563,-0.6189824342727661,0.27268943190574646
1681292372418234609,27084,1681292372417785687,j2s6s300_link_base,-0.33119016885757446,-0.2760328948497772,0.005349315702915192,0.336372435092926,0.6559876203536987,-0.6183701157569885,0.272308886051178
1681292372518246317,27085,1681292372517788911,j2s6s300_link_base,-0.331708699464798,-0.27549055218696594,0.0031394418329000473,0.3396425247192383,0.6577039361000061,-0.6156949996948242,0.27016326785087585
1681292372617248316,27086,1681292372616800760,j2s6s300_link_base,-0.3321613073348999,-0.27459025382995605,0.0011352039873600006,0.3435441255569458,0.6620358228683472,-0.6103575825691223,0.2667388617992401
1681292372717228018,27087,1681292372716787428,j2s6s300_link_base,-0.33242830634117126,-0.2728326618671417,-0.0012555159628391266,0.34413233399391174,0.6704831123352051,-0.6019294857978821,0.26401928067207336
1681292372817227382,27088,1681292372816785961,j2s6s300_link_base,-0.33142873644828796,-0.270874947309494,-0.004494428634643555,0.34506767988204956,0.6790451407432556,-0.590757429599762,0.266142338514328
1681292372916820210,27089,1681292372916676065,j2s6s300_link_base,-0.33066532015800476,-0.2692624032497406,-0.007542673498392105,0.34566715359687805,0.6848970651626587,-0.5828279256820679,0.2678464949131012
1681292373017170354,27090,1681292373016789550,j2s6s300_link_base,-0.33071473240852356,-0.2679632902145386,-0.010695438832044601,0.344918817281723,0.6892887949943542,-0.5779897570610046,0.2680295407772064
1681292373117170985,27091,1681292373116790376,j2s6s300_link_base,-0.3313239812850952,-0.2655305564403534,-0.01370309665799141,0.34433984756469727,0.6928234696388245,-0.574158251285553,0.267895370721817
1681292373217177011,27092,1681292373216784865,j2s6s300_link_base,-0.33168911933898926,-0.2615310251712799,-0.01672591269016266,0.34542116522789,0.696052074432373,-0.5702469944953918,0.2664846181869507
1681292373317161370,27093,1681292373316784719,j2s6s300_link_base,-0.33157670497894287,-0.25680479407310486,-0.020399808883666992,0.35227343440055847,0.7007697820663452,-0.5631272792816162,0.2602168023586273
1681292373418165159,27094,1681292373417781287,j2s6s300_link_base,-0.3318684995174408,-0.2515183389186859,-0.022070221602916718,0.3586353063583374,0.7055889368057251,-0.5573384165763855,0.2507966458797455
1681292373518185496,27095,1681292373517787034,j2s6s300_link_base,-0.3321710526943207,-0.24620333313941956,-0.022848956286907196,0.36419937014579773,0.7080698013305664,-0.5533151030540466,0.24461886286735535
1681292373617264026,27096,1681292373616787838,j2s6s300_link_base,-0.3314746916294098,-0.24119636416435242,-0.024224743247032166,0.367533415555954,0.7110739946365356,-0.5494681000709534,0.23953624069690704
1681292373717123388,27097,1681292373716787397,j2s6s300_link_base,-0.3309212923049927,-0.2378770112991333,-0.02530694752931595,0.3697830140590668,0.7126832604408264,-0.5471641421318054,0.23654691874980927
1681292373817269248,27098,1681292373816790829,j2s6s300_link_base,-0.33081793785095215,-0.23509085178375244,-0.02655787765979767,0.3719993531703949,0.7141463160514832,-0.5447628498077393,0.23419010639190674
1681292373917224116,27099,1681292373916788913,j2s6s300_link_base,-0.3313067853450775,-0.23268678784370422,-0.027915731072425842,0.37331628799438477,0.7169654965400696,-0.5410873889923096,0.2319909930229187
1681292374017257203,27100,1681292374016788752,j2s6s300_link_base,-0.3302931487560272,-0.23105217516422272,-0.02881484478712082,0.37237855792045593,0.723239004611969,-0.5321720838546753,0.23463238775730133
1681292374117243492,27101,1681292374116786478,j2s6s300_link_base,-0.32996490597724915,-0.22927100956439972,-0.029247470200061798,0.3715258538722992,0.7302008867263794,-0.5214248299598694,0.2385191172361374
1681292374217253351,27102,1681292374216785075,j2s6s300_link_base,-0.3300410807132721,-0.22821147739887238,-0.0297585129737854,0.3712737560272217,0.7359879612922668,-0.5126822590827942,0.24007155001163483
1681292374317280776,27103,1681292374316804306,j2s6s300_link_base,-0.3311294913291931,-0.22715696692466736,-0.030858829617500305,0.37205424904823303,0.7418304681777954,-0.5049448013305664,0.2372635453939438
1681292374417241923,27104,1681292374416785495,j2s6s300_link_base,-0.3323308825492859,-0.22625815868377686,-0.03263075649738312,0.37617143988609314,0.7466315031051636,-0.4973442256450653,0.23170046508312225
1681292374517268925,27105,1681292374516786818,j2s6s300_link_base,-0.3324199616909027,-0.22595275938510895,-0.036032721400260925,0.37942075729370117,0.7503151297569275,-0.4912292957305908,0.2275097668170929
1681292374617245263,27106,1681292374616788939,j2s6s300_link_base,-0.33240509033203125,-0.22614827752113342,-0.04079537093639374,0.3813614547252655,0.7526289224624634,-0.48790478706359863,0.223745658993721
1681292374717246989,27107,1681292374716787986,j2s6s300_link_base,-0.331735223531723,-0.2263966202735901,-0.04655282199382782,0.38279712200164795,0.7537888884544373,-0.48592960834503174,0.22167783975601196
1681292374817240174,27108,1681292374816783481,j2s6s300_link_base,-0.33252447843551636,-0.22622402012348175,-0.04991082102060318,0.384345680475235,0.7555643916130066,-0.4836488366127014,0.21790964901447296
1681292374917234579,27109,1681292374916785270,j2s6s300_link_base,-0.333015501499176,-0.2251378744840622,-0.05169235169887543,0.38768270611763,0.7642762660980225,-0.4701938331127167,0.21095439791679382
1681292375017239124,27110,1681292375016788494,j2s6s300_link_base,-0.33274006843566895,-0.22233209013938904,-0.050904497504234314,0.3931278586387634,0.777158796787262,-0.4469274580478668,0.20428071916103363
1681292375117264074,27111,1681292375116800833,j2s6s300_link_base,-0.3325536251068115,-0.21919018030166626,-0.049291014671325684,0.397434264421463,0.7875891923904419,-0.4264562726020813,0.19971030950546265
1681292375217121766,27112,1681292375216767403,j2s6s300_link_base,-0.3309461772441864,-0.21672962605953217,-0.04983989894390106,0.3966226279735565,0.7929062247276306,-0.4163735508918762,0.201552152633667
1681292375317229458,27113,1681292375316784171,j2s6s300_link_base,-0.3295802175998688,-0.2143932729959488,-0.05542515218257904,0.39399436116218567,0.7940788269042969,-0.41541168093681335,0.20405974984169006
1681292375417257778,27114,1681292375416788554,j2s6s300_link_base,-0.3290204107761383,-0.21272964775562286,-0.06141647696495056,0.39174696803092957,0.789047122001648,-0.42739132046699524,0.20316407084465027
1681292375517144311,27115,1681292375516785128,j2s6s300_link_base,-0.33212581276893616,-0.2108091115951538,-0.06350703537464142,0.3943803608417511,0.7832496166229248,-0.4411066174507141,0.19081169366836548
1681292375618435673,27116,1681292375617919704,j2s6s300_link_base,-0.3340812921524048,-0.20836447179317474,-0.06298699975013733,0.4021648168563843,0.7822155356407166,-0.442353755235672,0.17528672516345978
1681292375718235417,27117,1681292375717780410,j2s6s300_link_base,-0.3352038562297821,-0.20538343489170074,-0.05991354584693909,0.4112645089626312,0.7871483564376831,-0.42899930477142334,0.1649804264307022
1681292375818225070,27118,1681292375817785612,j2s6s300_link_base,-0.3371869921684265,-0.20369361340999603,-0.0565589964389801,0.41646862030029297,0.7953233122825623,-0.4079768657684326,0.1660410314798355
1681292375917233931,27119,1681292375916782941,j2s6s300_link_base,-0.33977600932121277,-0.2039671242237091,-0.05399632453918457,0.4139595329761505,0.8022411465644836,-0.39294755458831787,0.17503967881202698
1681292376017215389,27120,1681292376016783418,j2s6s300_link_base,-0.34258580207824707,-0.2052249014377594,-0.053880706429481506,0.40741607546806335,0.8068719506263733,-0.3852284550666809,0.18592682480812073
1681292376118223314,27121,1681292376117785947,j2s6s300_link_base,-0.34584444761276245,-0.20583832263946533,-0.054759129881858826,0.40512505173683167,0.8086310029029846,-0.384630411863327,0.184523805975914
1681292376217121483,27122,1681292376216772455,j2s6s300_link_base,-0.3459482789039612,-0.20617276430130005,-0.05651411414146423,0.4073233902454376,0.8095429539680481,-0.3867587149143219,0.17072056233882904
1681292376317255204,27123,1681292376316786620,j2s6s300_link_base,-0.3440810441970825,-0.20565736293792725,-0.05793488025665283,0.41377896070480347,0.8093804121017456,-0.38723763823509216,0.1540694236755371
1681292376417241208,27124,1681292376416783021,j2s6s300_link_base,-0.3420291841030121,-0.20478689670562744,-0.058320075273513794,0.4193250238895416,0.809121310710907,-0.38693779706954956,0.14060020446777344
1681292376517139126,27125,1681292376516746445,j2s6s300_link_base,-0.3405851721763611,-0.2036610096693039,-0.058166563510894775,0.41912248730659485,0.8106037974357605,-0.3840504586696625,0.14058110117912292
1681292376617263933,27126,1681292376616788794,j2s6s300_link_base,-0.34117162227630615,-0.20047995448112488,-0.057668253779411316,0.41764336824417114,0.8159759640693665,-0.37117746472358704,0.14827179908752441
1681292376717220224,27127,1681292376716785239,j2s6s300_link_base,-0.3446890711784363,-0.19504882395267487,-0.05530409514904022,0.4211658239364624,0.8234344720840454,-0.35017991065979004,0.1481519192457199
1681292376817236862,27128,1681292376816780698,j2s6s300_link_base,-0.3468574285507202,-0.19010324776172638,-0.051654815673828125,0.4274744391441345,0.8309040069580078,-0.33003029227256775,0.13395573198795319
1681292376917164261,27129,1681292376916783548,j2s6s300_link_base,-0.3443894386291504,-0.18463118374347687,-0.04804331064224243,0.4348154366016388,0.8366636633872986,-0.3116765022277832,0.11741867661476135
1681292377017184918,27130,1681292377016767036,j2s6s300_link_base,-0.34069591760635376,-0.17700637876987457,-0.04487331211566925,0.43894511461257935,0.842799723148346,-0.2934949994087219,0.10429082810878754
1681292377117258076,27131,1681292377116785935,j2s6s300_link_base,-0.3374663293361664,-0.16911114752292633,-0.04214577376842499,0.43984055519104004,0.8488980531692505,-0.2767609655857086,0.09651848673820496
1681292377217224392,27132,1681292377216782523,j2s6s300_link_base,-0.33539628982543945,-0.16169185936450958,-0.040006205439567566,0.4405868649482727,0.854589581489563,-0.25867700576782227,0.09298413246870041
1681292377317124511,27133,1681292377316744487,j2s6s300_link_base,-0.3344971835613251,-0.15546967089176178,-0.038190752267837524,0.44293028116226196,0.8593943119049072,-0.24053926765918732,0.0859948992729187
1681292377417250703,27134,1681292377416784143,j2s6s300_link_base,-0.33432701230049133,-0.15085960924625397,-0.03655293583869934,0.44834083318710327,0.8620129823684692,-0.22415120899677277,0.07536792755126953
1681292377518410173,27135,1681292377517918166,j2s6s300_link_base,-0.33395376801490784,-0.14802499115467072,-0.0350954532623291,0.45182859897613525,0.8639282584190369,-0.21217156946659088,0.06679870188236237
1681292377617252755,27136,1681292377616782760,j2s6s300_link_base,-0.3335152268409729,-0.14610767364501953,-0.033996567130088806,0.45326194167137146,0.8656913042068481,-0.20363937318325043,0.06052453815937042
1681292377717249585,27137,1681292377716784365,j2s6s300_link_base,-0.33309850096702576,-0.14478464424610138,-0.033136337995529175,0.4534032344818115,0.8672575354576111,-0.19784855842590332,0.05608779937028885
1681292377817190934,27138,1681292377816786454,j2s6s300_link_base,-0.3328048288822174,-0.14361706376075745,-0.03271067142486572,0.4538324475288391,0.868227481842041,-0.19342449307441711,0.052953604608774185
1681292377917158114,27139,1681292377916750396,j2s6s300_link_base,-0.3325834274291992,-0.142754465341568,-0.03233617544174194,0.45451849699020386,0.8686951398849487,-0.19026587903499603,0.05079914629459381
1681292378017183436,27140,1681292378016786480,j2s6s300_link_base,-0.33263784646987915,-0.1422738879919052,-0.03204257786273956,0.4552801549434662,0.8688310384750366,-0.188246488571167,0.049150168895721436
1681292378118223589,27141,1681292378117790877,j2s6s300_link_base,-0.33262938261032104,-0.14189741015434265,-0.03189319372177124,0.45557406544685364,0.8690879344940186,-0.18665875494480133,0.047924820333719254
1681292378217252319,27142,1681292378216785338,j2s6s300_link_base,-0.33261191844940186,-0.14178770780563354,-0.03185950219631195,0.4553191661834717,0.8693557381629944,-0.18613822758197784,0.04751397669315338
1681292378318189168,27143,1681292378317787890,j2s6s300_link_base,-0.3325601816177368,-0.1419137567281723,-0.03185902535915375,0.45500314235687256,0.8695286512374878,-0.18611066043376923,0.04748597368597984
1681292378418247817,27144,1681292378417790777,j2s6s300_link_base,-0.3325081467628479,-0.1420743316411972,-0.0318455845117569,0.45465242862701416,0.8697112798690796,-0.1861170381307602,0.04747522994875908
1681292378517239373,27145,1681292378516783500,j2s6s300_link_base,-0.33249497413635254,-0.14212685823440552,-0.03183358907699585,0.45453882217407227,0.8697699308395386,-0.18612314760684967,0.04746539890766144
1681292378616052611,27146,1681292378615749617,j2s6s300_link_base,-0.33247610926628113,-0.14217489957809448,-0.03182792663574219,0.454464316368103,0.8698084354400635,-0.1861231029033661,0.04747186228632927
1681292378718222790,27147,1681292378717781897,j2s6s300_link_base,-0.3324570953845978,-0.14222997426986694,-0.03182259202003479,0.45438989996910095,0.8698469996452332,-0.18612311780452728,0.04747873172163963
1681292378817248952,27148,1681292378816783264,j2s6s300_link_base,-0.33243077993392944,-0.1422932744026184,-0.03182107210159302,0.45430296659469604,0.8698922991752625,-0.18611973524093628,0.04749360308051109
1681292378917255665,27149,1681292378916782307,j2s6s300_link_base,-0.3324044644832611,-0.14234806597232819,-0.03182055056095123,0.45423027873039246,0.8699305057525635,-0.18611463904380798,0.04750993475317955
1681292379017264379,27150,1681292379016783739,j2s6s300_link_base,-0.332393616437912,-0.1423591673374176,-0.031821414828300476,0.4542144536972046,0.8699392080307007,-0.18611064553260803,0.04751692712306976
1681292379117178287,27151,1681292379116781572,j2s6s300_link_base,-0.3323895037174225,-0.14235997200012207,-0.03182151913642883,0.4542125165462494,0.869940459728241,-0.18610870838165283,0.04751936346292496
1681292379217277640,27152,1681292379216783297,j2s6s300_link_base,-0.3323850631713867,-0.14236034452915192,-0.03182193636894226,0.4542103409767151,0.8699421882629395,-0.18610569834709167,0.04752204939723015
1681292379317246432,27153,1681292379316778750,j2s6s300_link_base,-0.3323821723461151,-0.14236053824424744,-0.03182204067707062,0.4542095959186554,0.8699427247047424,-0.18610432744026184,0.04752371460199356
1681292379414928562,27154,1681292379414722681,j2s6s300_link_base,-0.33237913250923157,-0.1423608660697937,-0.03182215988636017,0.45420756936073303,0.8699439167976379,-0.18610304594039917,0.047525569796562195
1681292379517258152,27155,1681292379516800437,j2s6s300_link_base,-0.33237728476524353,-0.142360657453537,-0.03182224929332733,0.45420703291893005,0.8699443936347961,-0.18610218167304993,0.04752673953771591
1681292379618231713,27156,1681292379617788111,j2s6s300_link_base,-0.3323749899864197,-0.1423611342906952,-0.03182230889797211,0.45420557260513306,0.869945228099823,-0.18610112369060516,0.047528211027383804
1681292379718233096,27157,1681292379717782213,j2s6s300_link_base,-0.33237287402153015,-0.14236155152320862,-0.031822338700294495,0.45420345664024353,0.8699464797973633,-0.18610027432441711,0.04752941429615021
1681292379817249784,27158,1681292379816784622,j2s6s300_link_base,-0.33237215876579285,-0.14236138761043549,-0.031822413206100464,0.45420360565185547,0.8699464201927185,-0.18609990179538727,0.04752971604466438
1681292379917246444,27159,1681292379916783788,j2s6s300_link_base,-0.33237123489379883,-0.14236126840114594,-0.03182244300842285,0.45420289039611816,0.8699469566345215,-0.18609948456287384,0.04753020405769348
1681292380017233029,27160,1681292380016786577,j2s6s300_link_base,-0.33236992359161377,-0.14236187934875488,-0.03182250261306763,0.4542021155357361,0.8699473142623901,-0.18609897792339325,0.047531165182590485
1681292380117176804,27161,1681292380116784118,j2s6s300_link_base,-0.3323690891265869,-0.14236178994178772,-0.03182250261306763,0.4542010724544525,0.8699480295181274,-0.18609850108623505,0.047531452029943466
1681292380216135690,27162,1681292380215906159,j2s6s300_link_base,-0.33236804604530334,-0.14236167073249817,-0.031822577118873596,0.45420125126838684,0.8699479699134827,-0.18609802424907684,0.04753221198916435
1681292380317254969,27163,1681292380316784170,j2s6s300_link_base,-0.33236804604530334,-0.14236167073249817,-0.031822577118873596,0.45420002937316895,0.8699486255645752,-0.18609808385372162,0.04753195494413376
1681292380417221747,27164,1681292380416778302,j2s6s300_link_base,-0.3323670029640198,-0.14236220717430115,-0.031822532415390015,0.4541992247104645,0.8699491024017334,-0.1860976368188858,0.047532737255096436
1681292380518212503,27165,1681292380517780671,j2s6s300_link_base,-0.3323670029640198,-0.14236220717430115,-0.031822532415390015,0.4541983902454376,0.8699495196342468,-0.18609769642353058,0.047532569617033005
1681292380617181150,27166,1681292380616777728,j2s6s300_link_base,-0.33236613869667053,-0.14236202836036682,-0.03182262182235718,0.45419949293136597,0.8699490427970886,-0.18609718978405,0.04753313213586807
1681292380717231534,27167,1681292380716780096,j2s6s300_link_base,-0.33236613869667053,-0.14236202836036682,-0.03182262182235718,0.45419949293136597,0.8699490427970886,-0.18609718978405,0.04753313213586807
1681292380817232519,27168,1681292380816775841,j2s6s300_link_base,-0.3323652148246765,-0.14236190915107727,-0.03182263672351837,0.4541984498500824,0.8699496388435364,-0.18609681725502014,0.04753357917070389
1681292380917259419,27169,1681292380916780368,j2s6s300_link_base,-0.332364946603775,-0.1423625499010086,-0.03182263672351837,0.45419755578041077,0.8699500560760498,-0.1860966980457306,0.047533705830574036
1681292381015993238,27170,1681292381015766565,j2s6s300_link_base,-0.332364022731781,-0.14236244559288025,-0.03182271122932434,0.45419761538505554,0.8699500560760498,-0.18609625101089478,0.04753438010811806
1681292381117216230,27171,1681292381116781130,j2s6s300_link_base,-0.332364022731781,-0.14236244559288025,-0.03182271122932434,0.45419761538505554,0.8699500560760498,-0.18609625101089478,0.04753438010811806
1681292381218373852,27172,1681292381217860317,j2s6s300_link_base,-0.332364022731781,-0.14236244559288025,-0.03182271122932434,0.4541969299316406,0.869950532913208,-0.18609628081321716,0.04753421992063522
1681292381317192807,27173,1681292381316798330,j2s6s300_link_base,-0.33236297965049744,-0.1423623263835907,-0.03182271122932434,0.45419713854789734,0.8699504733085632,-0.18609578907489777,0.04753497242927551
1681292381417251090,27174,1681292381416797217,j2s6s300_link_base,-0.33236297965049744,-0.1423623263835907,-0.03182271122932434,0.45419713854789734,0.8699504733085632,-0.18609578907489777,0.04753497242927551
1681292381517226851,27175,1681292381516781243,j2s6s300_link_base,-0.33236297965049744,-0.1423623263835907,-0.03182271122932434,0.45419713854789734,0.8699504733085632,-0.18609578907489777,0.04753497242927551
1681292381618383602,27176,1681292381617843276,j2s6s300_link_base,-0.33236297965049744,-0.1423623263835907,-0.03182271122932434,0.45419713854789734,0.8699504733085632,-0.18609578907489777,0.04753497242927551
1681292381717253671,27177,1681292381716781062,j2s6s300_link_base,-0.33236297965049744,-0.1423623263835907,-0.03182271122932434,0.45419713854789734,0.8699504733085632,-0.18609578907489777,0.04753497242927551
1681292381815150601,27178,1681292381814909637,j2s6s300_link_base,-0.33236217498779297,-0.14236223697662354,-0.03182275593280792,0.4541960060596466,0.8699511289596558,-0.1860954314470291,0.04753531515598297
