%time,field.header.seq,field.header.stamp,field.header.frame_id,field.pose.position.x,field.pose.position.y,field.pose.position.z,field.pose.orientation.x,field.pose.orientation.y,field.pose.orientation.z,field.pose.orientation.w
1681292651517027127,29875,1681292651516641472,j2s6s300_link_base,0.28154948353767395,-0.22058430314064026,0.2719390094280243,-0.14222225546836853,0.6977355480194092,-0.16093118488788605,0.6834026575088501
1681292651618069850,29876,1681292651617659448,j2s6s300_link_base,0.28154951333999634,-0.22058381140232086,0.27193912863731384,-0.1422227919101715,0.6977353692054749,-0.1609305590391159,0.6834028363227844
1681292651717030714,29877,1681292651716655848,j2s6s300_link_base,0.28154951333999634,-0.22058381140232086,0.2719394564628601,-0.1422232687473297,0.6977351307868958,-0.1609310656785965,0.6834027171134949
1681292651817042909,29878,1681292651816653412,j2s6s300_link_base,0.28154951333999634,-0.22058381140232086,0.2719394564628601,-0.1422232687473297,0.6977351307868958,-0.1609310656785965,0.6834027171134949
1681292651917042296,29879,1681292651916653766,j2s6s300_link_base,0.28154951333999634,-0.22058381140232086,0.2719394564628601,-0.1422232687473297,0.6977351307868958,-0.1609310656785965,0.6834027171134949
1681292652017047627,29880,1681292652016655632,j2s6s300_link_base,0.28154951333999634,-0.22058381140232086,0.2719394564628601,-0.1422232687473297,0.6977351307868958,-0.1609310656785965,0.6834027171134949
1681292652116034109,29881,1681292652115832127,j2s6s300_link_base,0.28154951333999634,-0.22058381140232086,0.2719394564628601,-0.1422232687473297,0.6977351307868958,-0.1609310656785965,0.6834027171134949
1681292652217036606,29882,1681292652216652900,j2s6s300_link_base,0.28154993057250977,-0.2205832600593567,0.2719394564628601,-0.14222395420074463,0.6977349519729614,-0.16093036532402039,0.6834028959274292
1681292652318046968,29883,1681292652317654543,j2s6s300_link_base,0.28154951333999634,-0.22058381140232086,0.2719394564628601,-0.1422232687473297,0.6977351307868958,-0.1609310656785965,0.6834027171134949
1681292652418054998,29884,1681292652417651472,j2s6s300_link_base,0.28154951333999634,-0.22058381140232086,0.2719394564628601,-0.1422232687473297,0.6977351307868958,-0.1609310656785965,0.6834027171134949
1681292652517043887,29885,1681292652516655903,j2s6s300_link_base,0.2815490663051605,-0.22058437764644623,0.2719394564628601,-0.14222264289855957,0.6977353096008301,-0.16093172132968903,0.6834026575088501
1681292652617018618,29886,1681292652616638311,j2s6s300_link_base,0.2815490663051605,-0.22058437764644623,0.2719394564628601,-0.14222264289855957,0.6977353096008301,-0.16093172132968903,0.6834026575088501
1681292652717049883,29887,1681292652716669241,j2s6s300_link_base,0.28154951333999634,-0.22058381140232086,0.2719394564628601,-0.1422232687473297,0.6977351307868958,-0.1609310656785965,0.6834027171134949
1681292652817065415,29888,1681292652816654521,j2s6s300_link_base,0.28154951333999634,-0.22058381140232086,0.2719394564628601,-0.1422232687473297,0.6977351307868958,-0.1609310656785965,0.6834027171134949
1681292652916636295,29889,1681292652916507801,j2s6s300_link_base,0.28154951333999634,-0.22058381140232086,0.2719394564628601,-0.1422232687473297,0.6977351307868958,-0.1609310656785965,0.6834027171134949
1681292653017030056,29890,1681292653016619586,j2s6s300_link_base,0.28154951333999634,-0.22058381140232086,0.2719394564628601,-0.1422232687473297,0.6977351307868958,-0.1609310656785965,0.6834027171134949
1681292653117013811,29891,1681292653116579162,j2s6s300_link_base,0.28154951333999634,-0.22058381140232086,0.2719394564628601,-0.1422232687473297,0.6977351307868958,-0.1609310656785965,0.6834027171134949
1681292653217102783,29892,1681292653216675537,j2s6s300_link_base,0.28154951333999634,-0.22058381140232086,0.2719394564628601,-0.1422232687473297,0.6977351307868958,-0.1609310656785965,0.6834027171134949
1681292653317291567,29893,1681292653316620881,j2s6s300_link_base,0.28154951333999634,-0.22058381140232086,0.2719394564628601,-0.1422232687473297,0.6977351307868958,-0.1609310656785965,0.6834027171134949
1681292653417251266,29894,1681292653416619198,j2s6s300_link_base,0.2815490663051605,-0.22058437764644623,0.2719394564628601,-0.14222264289855957,0.6977353096008301,-0.16093172132968903,0.6834026575088501
1681292653515644871,29895,1681292653515496337,j2s6s300_link_base,0.28154951333999634,-0.22058381140232086,0.2719394564628601,-0.1422232687473297,0.6977351307868958,-0.1609310656785965,0.6834027171134949
1681292653617033703,29896,1681292653616616787,j2s6s300_link_base,0.28154993057250977,-0.2205832600593567,0.2719394564628601,-0.14222395420074463,0.6977349519729614,-0.16093036532402039,0.6834028959274292
1681292653717072081,29897,1681292653716623143,j2s6s300_link_base,0.28154993057250977,-0.22058378159999847,0.27193939685821533,-0.1422245055437088,0.6977348923683167,-0.16093097627162933,0.6834027767181396
1681292653817038268,29898,1681292653816617835,j2s6s300_link_base,0.2815490961074829,-0.2205849587917328,0.27194181084632874,-0.14222672581672668,0.6977341175079346,-0.16093596816062927,0.6834019422531128
1681292653918047955,29899,1681292653917618651,j2s6s300_link_base,0.2815495431423187,-0.22058433294296265,0.2719406187534332,-0.14222563803195953,0.6977344751358032,-0.1609335094690323,0.6834023594856262
1681292654017085199,29900,1681292654016652390,j2s6s300_link_base,0.28154802322387695,-0.22059273719787598,0.2719397246837616,-0.1422286182641983,0.6977336406707764,-0.16094326972961426,0.6834003925323486
1681292654117045066,29901,1681292654116653924,j2s6s300_link_base,0.2815472483634949,-0.22059723734855652,0.2719424068927765,-0.14223535358905792,0.697731614112854,-0.16095322370529175,0.6833986639976501
1681292654218077140,29902,1681292654217668049,j2s6s300_link_base,0.28148153424263,-0.22090639173984528,0.2719689607620239,-0.14243510365486145,0.6976679563522339,-0.16139626502990723,0.6833176016807556
1681292654317095388,29903,1681292654316663668,j2s6s300_link_base,0.2814069390296936,-0.22121907770633698,0.2720296382904053,-0.1426168829202652,0.6976040601730347,-0.161831796169281,0.6832419037818909
1681292654418202021,29904,1681292654417654210,j2s6s300_link_base,0.2812735438346863,-0.22221897542476654,0.27255240082740784,-0.1432187408208847,0.6976128816604614,-0.16078190505504608,0.6833549737930298
1681292654518096601,29905,1681292654517662886,j2s6s300_link_base,0.2808271646499634,-0.22340336441993713,0.27280300855636597,-0.14694133400917053,0.6982948780059814,-0.15645182132720947,0.6828728318214417
1681292654617093820,29906,1681292654616669903,j2s6s300_link_base,0.27955642342567444,-0.22550062835216522,0.27325859665870667,0.15211713314056396,-0.6990660429000854,0.14979971945285797,-0.6824419498443604
1681292654717111799,29907,1681292654716665352,j2s6s300_link_base,0.2768681049346924,-0.2292136698961258,0.27357062697410583,-0.15847085416316986,0.7001461982727051,-0.1433073878288269,0.6812821626663208
1681292654817060816,29908,1681292654816653424,j2s6s300_link_base,0.2717795968055725,-0.23281168937683105,0.27378496527671814,-0.16393060982227325,0.7008742690086365,-0.13801449537277222,0.6803337931632996
1681292654917114989,29909,1681292654916663375,j2s6s300_link_base,0.26453328132629395,-0.23640844225883484,0.27416250109672546,-0.1676844358444214,0.7011957168579102,-0.13455833494663239,0.6797797679901123
1681292655017103998,29910,1681292655016666465,j2s6s300_link_base,0.2568950653076172,-0.2401788830757141,0.2745847702026367,-0.17019498348236084,0.7013635635375977,-0.13208554685115814,0.6794676184654236
1681292655116986151,29911,1681292655116598776,j2s6s300_link_base,0.2502575218677521,-0.2448607087135315,0.27464041113853455,-0.17179752886295319,0.7019560933113098,-0.1309037208557129,0.6786806583404541
1681292655218118803,29912,1681292655217673431,j2s6s300_link_base,0.2447207123041153,-0.2512650191783905,0.2746415436267853,-0.17260056734085083,0.7032346129417419,-0.12993207573890686,0.677338719367981
1681292655317055429,29913,1681292655316641657,j2s6s300_link_base,0.2413521260023117,-0.2577882707118988,0.27598726749420166,-0.17273132503032684,0.7041555643081665,-0.12961789965629578,0.6764081716537476
1681292655417091856,29914,1681292655416669800,j2s6s300_link_base,0.23855184018611908,-0.2656604051589966,0.2801978588104248,-0.17213426530361176,0.7043440341949463,-0.12976785004138947,0.676335334777832
1681292655517116688,29915,1681292655516666651,j2s6s300_link_base,0.23653054237365723,-0.2742253243923187,0.2855924069881439,-0.17233842611312866,0.7046060562133789,-0.1306672990322113,0.6758372187614441
1681292655617107417,29916,1681292655616659620,j2s6s300_link_base,0.234746053814888,-0.2823038399219513,0.29138660430908203,-0.1735093742609024,0.7041109800338745,-0.13143375515937805,0.6759049296379089
1681292655717112796,29917,1681292655716664527,j2s6s300_link_base,0.23143471777439117,-0.2899533808231354,0.29661843180656433,-0.17597003281116486,0.7037949562072754,-0.1332111805677414,0.6752495765686035
1681292655817126456,29918,1681292655816682779,j2s6s300_link_base,0.22624193131923676,-0.2966577410697937,0.3014722168445587,-0.17896631360054016,0.703305721282959,-0.13514851033687592,0.6745865345001221
1681292655917118185,29919,1681292655916680847,j2s6s300_link_base,0.2202097624540329,-0.3031989336013794,0.30648916959762573,-0.1815362423658371,0.7025217413902283,-0.1372532844543457,0.6742916703224182
1681292656018117471,29920,1681292656017666662,j2s6s300_link_base,0.21334408223628998,-0.3101358413696289,0.31133249402046204,-0.18479637801647186,0.7026628255844116,-0.13807670772075653,0.6730899810791016
1681292656118116130,29921,1681292656117664639,j2s6s300_link_base,0.20711153745651245,-0.31613293290138245,0.3160473704338074,-0.1909184753894806,0.7029122114181519,-0.13462871313095093,0.6718181371688843
1681292656218207175,29922,1681292656217696695,j2s6s300_link_base,0.2007848024368286,-0.32248058915138245,0.32027721405029297,-0.19998328387737274,0.7041339874267578,-0.12792648375034332,0.6692060828208923
1681292656317092683,29923,1681292656316658076,j2s6s300_link_base,0.194872185587883,-0.3284180462360382,0.32388466596603394,-0.20864339172840118,0.704427182674408,-0.12376385927200317,0.6670328974723816
1681292656418349310,29924,1681292656417699564,j2s6s300_link_base,0.18757401406764984,-0.33593398332595825,0.32760512828826904,-0.21986506879329681,0.7039833068847656,-0.1233004629611969,0.663975715637207
1681292656518124173,29925,1681292656517664825,j2s6s300_link_base,0.18082718551158905,-0.34297457337379456,0.33026379346847534,-0.2290646731853485,0.7023171782493591,-0.12481650710105896,0.6623448729515076
1681292656618215999,29926,1681292656617730458,j2s6s300_link_base,0.17383062839508057,-0.35028666257858276,0.3322012424468994,-0.23787733912467957,0.700324535369873,-0.12827268242835999,0.6606860160827637
1681292656717087626,29927,1681292656716678652,j2s6s300_link_base,0.1675349324941635,-0.35714539885520935,0.33346134424209595,-0.2446708381175995,0.6983787417411804,-0.13249391317367554,0.6594306826591492
1681292656818161514,29928,1681292656817684816,j2s6s300_link_base,0.1596485674381256,-0.36522915959358215,0.3342743217945099,-0.2517169713973999,0.6961482763290405,-0.13763025403022766,0.6580836176872253
1681292656918112214,29929,1681292656917664784,j2s6s300_link_base,0.1525069922208786,-0.3725034296512604,0.3346363604068756,-0.2550165057182312,0.6942793130874634,-0.14288446307182312,0.6576676964759827
1681292657017111759,29930,1681292657016665683,j2s6s300_link_base,0.1460878551006317,-0.3787028193473816,0.33492374420166016,-0.2553636431694031,0.6923113465309143,-0.14901486039161682,0.6582468152046204
1681292657117070930,29931,1681292657116652773,j2s6s300_link_base,0.1387106031179428,-0.38492119312286377,0.3346242904663086,-0.25465887784957886,0.6901288032531738,-0.15566983819007874,0.6592708826065063
1681292657217065447,29932,1681292657216666651,j2s6s300_link_base,0.1314864456653595,-0.39140474796295166,0.33410000801086426,-0.2530752122402191,0.6886506080627441,-0.16143140196800232,0.6600402593612671
1681292657318101264,29933,1681292657317664858,j2s6s300_link_base,0.12345477938652039,-0.3990841507911682,0.3340783715248108,-0.2522870600223541,0.686558187007904,-0.1679168939590454,0.6609032154083252
1681292657418113520,29934,1681292657417662375,j2s6s300_link_base,0.11610952019691467,-0.4062649607658386,0.3339506983757019,-0.2515225410461426,0.6852469444274902,-0.17260122299194336,0.6613485813140869
1681292657518103023,29935,1681292657517662884,j2s6s300_link_base,0.10889352858066559,-0.41308289766311646,0.33397752046585083,-0.250028133392334,0.6839461326599121,-0.17562638223171234,0.6624643802642822
1681292657617129914,29936,1681292657616674490,j2s6s300_link_base,0.10259276628494263,-0.41905349493026733,0.33379432559013367,-0.24894574284553528,0.6828404068946838,-0.17793309688568115,0.663396418094635
1681292657718243741,29937,1681292657717724448,j2s6s300_link_base,0.09460064768791199,-0.4266258478164673,0.33337005972862244,-0.24848565459251404,0.6817125082015991,-0.18132299184799194,0.6638108491897583
1681292657816199556,29938,1681292657815818479,j2s6s300_link_base,0.08855253458023071,-0.43252941966056824,0.33328020572662354,-0.24921146035194397,0.6803603768348694,-0.18367169797420502,0.6642801761627197
1681292657917107015,29939,1681292657916665307,j2s6s300_link_base,0.08202320337295532,-0.4393256902694702,0.3330782949924469,-0.2502036392688751,0.6791293621063232,-0.18584249913692474,0.6645630598068237
1681292658017064707,29940,1681292658016619001,j2s6s300_link_base,0.07541011273860931,-0.4457095265388489,0.3333064019680023,-0.25227028131484985,0.6771308183670044,-0.18787893652915955,0.6652481555938721
1681292658117061481,29941,1681292658116623836,j2s6s300_link_base,0.06888678669929504,-0.45211872458457947,0.33325567841529846,-0.25437670946121216,0.6754294633865356,-0.18935388326644897,0.6657571792602539
1681292658217052406,29942,1681292658216618563,j2s6s300_link_base,0.0629219263792038,-0.45829665660858154,0.3329634964466095,-0.2556682229042053,0.674157977104187,-0.1885940432548523,0.6667660474777222
1681292658317054557,29943,1681292658316618748,j2s6s300_link_base,0.056948840618133545,-0.46535807847976685,0.3321022093296051,-0.25641679763793945,0.6736934185028076,-0.18903273344039917,0.6668241024017334
1681292658417055436,29944,1681292658416616663,j2s6s300_link_base,0.05196845531463623,-0.4714027941226959,0.3316815495491028,-0.2566664218902588,0.6734607815742493,-0.1900145411491394,0.6666839718818665
1681292658516981566,29945,1681292658516616273,j2s6s300_link_base,0.04803907871246338,-0.4758026897907257,0.3314383924007416,-0.2574155926704407,0.6730124950408936,-0.19168519973754883,0.6663693785667419
1681292658616975997,29946,1681292658616610182,j2s6s300_link_base,0.045663416385650635,-0.47898194193840027,0.33101263642311096,-0.25743216276168823,0.672914981842041,-0.1923157274723053,0.6662798523902893
1681292658716988434,29947,1681292658716615292,j2s6s300_link_base,0.04249155521392822,-0.4815349280834198,0.3305773437023163,-0.25597167015075684,0.6733312606811523,-0.19448146224021912,0.665793240070343
1681292658817069383,29948,1681292658816619120,j2s6s300_link_base,0.03923127055168152,-0.48376524448394775,0.3292244076728821,-0.2525213956832886,0.6730637550354004,-0.19773897528648376,0.6664213538169861
1681292658917029102,29949,1681292658916619641,j2s6s300_link_base,0.033840522170066833,-0.48595982789993286,0.3272230327129364,-0.24894365668296814,0.6725346446037292,-0.2012813687324524,0.6672406196594238
1681292659017006815,29950,1681292659016616377,j2s6s300_link_base,0.028255939483642578,-0.4882575571537018,0.32385730743408203,-0.24132487177848816,0.6698645353317261,-0.2090025544166565,0.670344352722168
1681292659117021339,29951,1681292659116618381,j2s6s300_link_base,0.021274983882904053,-0.4898703396320343,0.3224928379058838,-0.22827091813087463,0.6636907458305359,-0.2253408282995224,0.6757429242134094
1681292659217080352,29952,1681292659216633536,j2s6s300_link_base,0.014419496059417725,-0.49000266194343567,0.3215382695198059,-0.21092966198921204,0.6590567231178284,-0.24219055473804474,0.6800709962844849
1681292659317062382,29953,1681292659316616973,j2s6s300_link_base,0.00859987735748291,-0.49081867933273315,0.31883537769317627,-0.18985962867736816,0.6601601243019104,-0.25875094532966614,0.6791096925735474
1681292659417051808,29954,1681292659416651871,j2s6s300_link_base,0.003092467784881592,-0.49140846729278564,0.3173363208770752,-0.16879194974899292,0.6613986492156982,-0.2761209011077881,0.676622748374939
1681292659517051279,29955,1681292659516664397,j2s6s300_link_base,-0.004295378923416138,-0.49155235290527344,0.3169148564338684,-0.14875176548957825,0.6587966084480286,-0.292646586894989,0.6769179105758667
1681292659617067433,29956,1681292659616629204,j2s6s300_link_base,-0.012175202369689941,-0.49175959825515747,0.318039208650589,-0.13069391250610352,0.6527500152587891,-0.3100768029689789,0.6787407398223877
1681292659718110771,29957,1681292659717663724,j2s6s300_link_base,-0.019695013761520386,-0.49280649423599243,0.3185882568359375,-0.10961228609085083,0.6465348601341248,-0.32977017760276794,0.6791387796401978
1681292659817122498,29958,1681292659816666196,j2s6s300_link_base,-0.025186464190483093,-0.4951659142971039,0.31727924942970276,-0.08924570679664612,0.6465370655059814,-0.34364914894104004,0.6752262115478516
1681292659917125952,29959,1681292659916665829,j2s6s300_link_base,-0.032277777791023254,-0.49968868494033813,0.3169744610786438,-0.0683189332485199,0.6476038694381714,-0.3585364818572998,0.6688747406005859
1681292660017087409,29960,1681292660016663166,j2s6s300_link_base,-0.03945700824260712,-0.5040979385375977,0.3162468671798706,-0.04933932423591614,0.6478121280670166,-0.3722270429134369,0.6628363132476807
1681292660117059111,29961,1681292660116661207,j2s6s300_link_base,-0.04514963924884796,-0.5075790286064148,0.31649065017700195,-0.03511166572570801,0.6469898223876953,-0.38287514448165894,0.6584663391113281
1681292660216028664,29962,1681292660215773122,j2s6s300_link_base,-0.05036306381225586,-0.5106993317604065,0.3168327212333679,-0.02390304207801819,0.646356463432312,-0.3916189670562744,0.6544360518455505
1681292660317070459,29963,1681292660316664696,j2s6s300_link_base,-0.05417591333389282,-0.5130265355110168,0.3149736821651459,-0.012006759643554688,0.6471943855285645,-0.39834991097450256,0.64985591173172
1681292660417065535,29964,1681292660416640834,j2s6s300_link_base,-0.058450475335121155,-0.5159708261489868,0.31479936838150024,0.0015591084957122803,0.6449217200279236,-0.41183698177337646,0.6437886953353882
1681292660518112379,29965,1681292660517667012,j2s6s300_link_base,-0.0622430294752121,-0.5178675651550293,0.3151227831840515,0.011367470026016235,0.6418249607086182,-0.422732949256897,0.6397097110748291
1681292660617160440,29966,1681292660616667474,j2s6s300_link_base,-0.06710954010486603,-0.5197933912277222,0.31492823362350464,0.018392324447631836,0.6401970386505127,-0.4292318522930145,0.6368433237075806
1681292660717066929,29967,1681292660716661515,j2s6s300_link_base,-0.07460559904575348,-0.5231941342353821,0.3140315115451813,0.024372965097427368,0.6387999653816223,-0.43403103947639465,0.6347893476486206
1681292660817111419,29968,1681292660816664163,j2s6s300_link_base,-0.08310484886169434,-0.5286622643470764,0.3133557140827179,0.030689775943756104,0.6365765333175659,-0.43955671787261963,0.6329442262649536
1681292660917135764,29969,1681292660916689360,j2s6s300_link_base,-0.09261848032474518,-0.5340939164161682,0.31288716197013855,0.04287371039390564,0.6303615570068359,-0.4505704343318939,0.630707859992981
1681292661015881464,29970,1681292661015625674,j2s6s300_link_base,-0.103151336312294,-0.538997232913971,0.31251445412635803,0.05997645854949951,0.6205517053604126,-0.4660871624946594,0.6277587413787842
1681292661118084776,29971,1681292661117646219,j2s6s300_link_base,-0.11412353813648224,-0.5422925353050232,0.3120805025100708,0.07963933050632477,0.6089993119239807,-0.48264285922050476,0.6243663430213928
1681292661217086686,29972,1681292661216649788,j2s6s300_link_base,-0.12265148758888245,-0.5436462163925171,0.31175023317337036,0.0976642370223999,0.6015266180038452,-0.4935302436351776,0.6205282211303711
1681292661317076171,29973,1681292661316641637,j2s6s300_link_base,-0.13259686529636383,-0.5448337197303772,0.3098303973674774,0.1199910044670105,0.59747314453125,-0.5037307739257812,0.6122772097587585
1681292661417065085,29974,1681292661416652234,j2s6s300_link_base,-0.14284197986125946,-0.5459510684013367,0.308194100856781,0.1413329392671585,0.5963780879974365,-0.512873649597168,0.6010978817939758
1681292661517073808,29975,1681292661516663437,j2s6s300_link_base,-0.1524754762649536,-0.5465436577796936,0.30805063247680664,0.1557689756155014,0.5954671502113342,-0.5206277370452881,0.5916937589645386
1681292661618406505,29976,1681292661617725773,j2s6s300_link_base,-0.16239723563194275,-0.5491283535957336,0.3079661428928375,0.16772939264774323,0.594748318195343,-0.5266931653022766,0.5837256908416748
1681292661717113187,29977,1681292661716662557,j2s6s300_link_base,-0.16968408226966858,-0.5533809661865234,0.30832943320274353,0.17492470145225525,0.5941160917282104,-0.5300759077072144,0.5791777968406677
1681292661815866322,29978,1681292661815638629,j2s6s300_link_base,-0.17710578441619873,-0.5595531463623047,0.3089662194252014,0.1800396889448166,0.5934268236160278,-0.533093273639679,0.5755361914634705
1681292661917028380,29979,1681292661916649570,j2s6s300_link_base,-0.18386250734329224,-0.5657051801681519,0.3088110685348511,0.1829598844051361,0.5933066010475159,-0.5348271727561951,0.5731255412101746
1681292662017066463,29980,1681292662016662449,j2s6s300_link_base,-0.19156214594841003,-0.5711982250213623,0.30780062079429626,0.1870543211698532,0.5925997495651245,-0.5370694398880005,0.5704320073127747
1681292662117049937,29981,1681292662116651829,j2s6s300_link_base,-0.20138505101203918,-0.5754140615463257,0.3065321147441864,0.19562862813472748,0.5884690880775452,-0.5469610095024109,0.5623764395713806
1681292662217062364,29982,1681292662216649992,j2s6s300_link_base,-0.21106472611427307,-0.5783093571662903,0.30409619212150574,0.19979754090309143,0.5837608575820923,-0.5651348233222961,0.5476556420326233
1681292662317083434,29983,1681292662316662341,j2s6s300_link_base,-0.21951931715011597,-0.5805085897445679,0.29968297481536865,0.1996758133172989,0.5835915207862854,-0.5830056071281433,0.5288242101669312
1681292662417103558,29984,1681292662416658767,j2s6s300_link_base,-0.22856242954730988,-0.5823479294776917,0.294688880443573,0.20248909294605255,0.588898241519928,-0.5958839058876038,0.50706946849823
1681292662517067643,29985,1681292662516661626,j2s6s300_link_base,-0.23752537369728088,-0.5835363864898682,0.2877602279186249,0.21207773685455322,0.598809540271759,-0.6004509329795837,0.4857044816017151
1681292662616018687,29986,1681292662615801361,j2s6s300_link_base,-0.2473641335964203,-0.5842960476875305,0.28385576605796814,0.2251811921596527,0.6078225374221802,-0.6029824614524841,0.46503475308418274
1681292662717044618,29987,1681292662716617922,j2s6s300_link_base,-0.2573102116584778,-0.584648072719574,0.2809629738330841,0.23988863825798035,0.6136607527732849,-0.6067437529563904,0.4446752071380615
1681292662817031646,29988,1681292662816614923,j2s6s300_link_base,-0.2670554220676422,-0.5846985578536987,0.27866753935813904,0.2558976411819458,0.6126644015312195,-0.6145809888839722,0.4259682595729828
1681292662916987076,29989,1681292662916615549,j2s6s300_link_base,-0.2776515483856201,-0.5840083956718445,0.2770606577396393,0.27137964963912964,0.6052732467651367,-0.6268876791000366,0.4086674451828003
1681292663015963067,29990,1681292663015583817,j2s6s300_link_base,-0.28876352310180664,-0.5831890106201172,0.27540111541748047,0.2857500910758972,0.5939281582832336,-0.6412003040313721,0.3930119276046753
1681292663117016813,29991,1681292663116615393,j2s6s300_link_base,-0.29890602827072144,-0.5824843049049377,0.272449791431427,0.29970642924308777,0.5813560485839844,-0.6543323397636414,0.3795395791530609
1681292663217008690,29992,1681292663216608331,j2s6s300_link_base,-0.30713823437690735,-0.5827406048774719,0.2702580392360687,0.3112100660800934,0.5707106590270996,-0.6646650433540344,0.3683179020881653
1681292663317021260,29993,1681292663316613993,j2s6s300_link_base,-0.31377866864204407,-0.5829718112945557,0.2675483226776123,0.3193339407444,0.564448893070221,-0.6700349450111389,0.3612150251865387
1681292663415037547,29994,1681292663414836568,j2s6s300_link_base,-0.3193618953227997,-0.5836446285247803,0.2659699618816376,0.32436683773994446,0.5603613257408142,-0.6731852293014526,0.3572155833244324
1681292663517014657,29995,1681292663516616126,j2s6s300_link_base,-0.3259279429912567,-0.5839673280715942,0.2638510465621948,0.33232471346855164,0.5596312880516052,-0.6737062931060791,0.3499901592731476
1681292663617032769,29996,1681292663616616835,j2s6s300_link_base,-0.33278265595436096,-0.5825545787811279,0.2604926824569702,0.34612858295440674,0.5624329447746277,-0.6702308058738708,0.3386073112487793
1681292663717048758,29997,1681292663716615896,j2s6s300_link_base,-0.336964875459671,-0.578445315361023,0.259868323802948,0.35717499256134033,0.5644769072532654,-0.6672555804252625,0.3294872045516968
1681292663817053923,29998,1681292663816613794,j2s6s300_link_base,-0.338583767414093,-0.5730124711990356,0.2600647807121277,0.36322635412216187,0.5659512877464294,-0.6654872298240662,0.3238711953163147
1681292663918202179,29999,1681292663917682214,j2s6s300_link_base,-0.3405664265155792,-0.5662437081336975,0.25827112793922424,0.36804962158203125,0.5665568709373474,-0.6641729474067688,0.3200424015522003
1681292664017018638,30000,1681292664016614389,j2s6s300_link_base,-0.3408437967300415,-0.5612118244171143,0.25600165128707886,0.37024515867233276,0.5668798685073853,-0.663322925567627,0.31869789958000183
1681292664117026040,30001,1681292664116613320,j2s6s300_link_base,-0.3387547433376312,-0.5561212301254272,0.25382858514785767,0.3709358870983124,0.5667818784713745,-0.6640057563781738,0.31664082407951355
1681292664215974334,30002,1681292664215755853,j2s6s300_link_base,-0.3371829688549042,-0.5515778660774231,0.2529672086238861,0.37055903673171997,0.564317524433136,-0.6666225790977478,0.31598442792892456
1681292664317081354,30003,1681292664316622719,j2s6s300_link_base,-0.33569303154945374,-0.5482997894287109,0.25070151686668396,0.36720848083496094,0.5608680844306946,-0.6706088781356812,0.3175983428955078
1681292664417065010,30004,1681292664416616584,j2s6s300_link_base,-0.33444157242774963,-0.5458056330680847,0.24782401323318481,0.3649544417858124,0.5578670501708984,-0.6731758117675781,0.32004210352897644
1681292664517073778,30005,1681292664516618327,j2s6s300_link_base,-0.33467742800712585,-0.5431044697761536,0.2443341761827469,0.3652244508266449,0.5561458468437195,-0.6740360856056213,0.3209177851676941
1681292664617050672,30006,1681292664616616346,j2s6s300_link_base,-0.3336813449859619,-0.5397708415985107,0.24228401482105255,0.3641344904899597,0.5553544759750366,-0.6747596263885498,0.3220044672489166
1681292664717045075,30007,1681292664716617013,j2s6s300_link_base,-0.3323107361793518,-0.5354728698730469,0.24039708077907562,0.36418455839157104,0.5553346276283264,-0.6742239594459534,0.32310211658477783
1681292664817049746,30008,1681292664816622201,j2s6s300_link_base,-0.33188918232917786,-0.5300266742706299,0.23935364186763763,0.3650754392147064,0.5544328093528748,-0.6740026473999023,0.32410603761672974
1681292664917046254,30009,1681292664916614681,j2s6s300_link_base,-0.33132264018058777,-0.5242701172828674,0.23719027638435364,0.367633581161499,0.5548633337020874,-0.6720690131187439,0.32449260354042053
1681292665015030342,30010,1681292665014826200,j2s6s300_link_base,-0.33100324869155884,-0.5187782049179077,0.2352783977985382,0.3711637556552887,0.5554720163345337,-0.6700239181518555,0.32366079092025757
1681292665117022917,30011,1681292665116607517,j2s6s300_link_base,-0.33132797479629517,-0.5139020681381226,0.23397180438041687,0.3741511404514313,0.5559797286987305,-0.6688020825386047,0.3218717575073242
1681292665217029137,30012,1681292665216613783,j2s6s300_link_base,-0.33118587732315063,-0.5099506378173828,0.23238708078861237,0.3763728141784668,0.5566352605819702,-0.6675936579704285,0.3206546902656555
1681292665315773213,30013,1681292665315569032,j2s6s300_link_base,-0.3307724595069885,-0.5064928531646729,0.23149242997169495,0.37624549865722656,0.5568928718566895,-0.6678770184516907,0.3197652995586395
1681292665416997211,30014,1681292665416613740,j2s6s300_link_base,-0.33071666955947876,-0.5029736757278442,0.22831231355667114,0.37634673714637756,0.5566568374633789,-0.6681453585624695,0.3194968104362488
1681292665517019946,30015,1681292665516604283,j2s6s300_link_base,-0.3303048610687256,-0.4997108578681946,0.222866490483284,0.3764744997024536,0.5570433139801025,-0.6678562164306641,0.31927725672721863
1681292665617055181,30016,1681292665616615147,j2s6s300_link_base,-0.3302139639854431,-0.4967653751373291,0.2171846479177475,0.37626010179519653,0.556955873966217,-0.6681855320930481,0.3189932703971863
1681292665716968974,30017,1681292665716616445,j2s6s300_link_base,-0.330136239528656,-0.4938620626926422,0.21158160269260406,0.37932735681533813,0.5584390163421631,-0.6662126779556274,0.3168872892856598
1681292665817130704,30018,1681292665816658304,j2s6s300_link_base,-0.3300054371356964,-0.4897748827934265,0.20722408592700958,0.38608047366142273,0.560828447341919,-0.662686288356781,0.3118656575679779
1681292665917089903,30019,1681292665916661497,j2s6s300_link_base,-0.3293330669403076,-0.4845989942550659,0.2030368596315384,0.3931170105934143,0.5641257762908936,-0.6580473184585571,0.3069119155406952
1681292666017098468,30020,1681292666016649573,j2s6s300_link_base,-0.32919082045555115,-0.47805410623550415,0.20027026534080505,0.398765504360199,0.565964937210083,-0.6550431847572327,0.3026354908943176
1681292666117106274,30021,1681292666116659256,j2s6s300_link_base,-0.32941657304763794,-0.47116613388061523,0.19726955890655518,0.40280771255493164,0.56830894947052,-0.6524802446365356,0.29839643836021423
1681292666217120295,30022,1681292666216663059,j2s6s300_link_base,-0.32996535301208496,-0.46528464555740356,0.19566026329994202,0.40508967638015747,0.5690972805023193,-0.6517589688301086,0.29536545276641846
1681292666317075104,30023,1681292666316637008,j2s6s300_link_base,-0.32960882782936096,-0.4603840112686157,0.19381095468997955,0.4047532379627228,0.5697364807128906,-0.6520940065383911,0.2938512861728668
1681292666417099142,30024,1681292666416659316,j2s6s300_link_base,-0.3272250294685364,-0.4561757445335388,0.19030515849590302,0.40590837597846985,0.5698994398117065,-0.6518535614013672,0.29247215390205383
1681292666517101018,30025,1681292666516658076,j2s6s300_link_base,-0.32369667291641235,-0.45271599292755127,0.18658719956874847,0.4068467319011688,0.5701610445976257,-0.6515872478485107,0.29124924540519714
1681292666617963527,30026,1681292666617624195,j2s6s300_link_base,-0.3209918439388275,-0.4494422376155853,0.18234239518642426,0.4078448414802551,0.5693656802177429,-0.6520093083381653,0.2904636859893799
1681292666717052516,30027,1681292666716613067,j2s6s300_link_base,-0.31925496459007263,-0.44660601019859314,0.17835906147956848,0.40848949551582336,0.569501519203186,-0.6520565748214722,0.2891823947429657
1681292666817024499,30028,1681292666816614584,j2s6s300_link_base,-0.3176868259906769,-0.4430612325668335,0.17489264905452728,0.4092176854610443,0.5694209337234497,-0.6516591906547546,0.289207398891449
1681292666916992204,30029,1681292666916613740,j2s6s300_link_base,-0.3170110583305359,-0.43935269117355347,0.1721956878900528,0.40971237421035767,0.5696961879730225,-0.6515374779701233,0.2882375121116638
1681292667017020067,30030,1681292667016615393,j2s6s300_link_base,-0.31552955508232117,-0.435691773891449,0.169856995344162,0.40994131565093994,0.5705268383026123,-0.6504577398300171,0.2887073755264282
1681292667118107725,30031,1681292667117660095,j2s6s300_link_base,-0.31473952531814575,-0.4317731261253357,0.1680109202861786,0.4105217456817627,0.5710206627845764,-0.6494362950325012,0.2892053425312042
1681292667217110900,30032,1681292667216660070,j2s6s300_link_base,-0.3146388530731201,-0.4287732243537903,0.1668604463338852,0.41032910346984863,0.5722408294677734,-0.6484555602073669,0.28926777839660645
1681292667317103141,30033,1681292667316657323,j2s6s300_link_base,-0.3137129545211792,-0.4255177974700928,0.16559675335884094,0.4085893929004669,0.5741845965385437,-0.6468248963356018,0.2915209233760834
1681292667417100639,30034,1681292667416661458,j2s6s300_link_base,-0.31317582726478577,-0.4220101833343506,0.16292455792427063,0.4076114892959595,0.5760828256607056,-0.6448885798454285,0.2934281826019287
1681292667517066209,30035,1681292667516659822,j2s6s300_link_base,-0.31292790174484253,-0.4190293848514557,0.15928345918655396,0.4077775478363037,0.5775938034057617,-0.642854630947113,0.2946876287460327
1681292667617081209,30036,1681292667616648030,j2s6s300_link_base,-0.31355783343315125,-0.41656574606895447,0.1568511724472046,0.40803709626197815,0.5786216259002686,-0.6421511173248291,0.29384467005729675
1681292667717047818,30037,1681292667716617070,j2s6s300_link_base,-0.3137582242488861,-0.41417211294174194,0.15482984483242035,0.40954551100730896,0.5801171660423279,-0.6405603885650635,0.2922652065753937
1681292667817066039,30038,1681292667816616037,j2s6s300_link_base,-0.3129863440990448,-0.41048741340637207,0.15176446735858917,0.4113304615020752,0.5824180841445923,-0.6378825902938843,0.2910364270210266
1681292667917074001,30039,1681292667916631723,j2s6s300_link_base,-0.31295228004455566,-0.4053109288215637,0.1474766582250595,0.41333359479904175,0.5841406583786011,-0.6357502341270447,0.28940749168395996
1681292668017027383,30040,1681292668016616439,j2s6s300_link_base,-0.3127014935016632,-0.3997715413570404,0.14239102602005005,0.41458648443222046,0.5863135457038879,-0.6335002183914185,0.28815263509750366
1681292668117018141,30041,1681292668116613177,j2s6s300_link_base,-0.3119596540927887,-0.39517536759376526,0.13701863586902618,0.4159340560436249,0.5915089249610901,-0.6270593404769897,0.2896766662597656
1681292668217056242,30042,1681292668216614636,j2s6s300_link_base,-0.31033211946487427,-0.391085684299469,0.12844204902648926,0.41788262128829956,0.6058194637298584,-0.6114948987960815,0.29056987166404724
1681292668317017375,30043,1681292668316611956,j2s6s300_link_base,-0.3104502260684967,-0.38782215118408203,0.1217433512210846,0.42092427611351013,0.6202130913734436,-0.5949186086654663,0.2902246117591858
1681292668417048568,30044,1681292668416615674,j2s6s300_link_base,-0.3111638128757477,-0.38574597239494324,0.11525684595108032,0.4224708080291748,0.6308821439743042,-0.5832774639129639,0.28860628604888916
1681292668517037368,30045,1681292668516615410,j2s6s300_link_base,-0.31178998947143555,-0.38445430994033813,0.10955683887004852,0.4243112802505493,0.6349239349365234,-0.5784367918968201,0.28677937388420105
1681292668617036799,30046,1681292668616612736,j2s6s300_link_base,-0.3126422166824341,-0.3824416995048523,0.1014023870229721,0.4292342960834503,0.6335793137550354,-0.5802772045135498,0.278592050075531
1681292668717007935,30047,1681292668716611612,j2s6s300_link_base,-0.3134177029132843,-0.3798407316207886,0.0953691378235817,0.4342181086540222,0.6280231475830078,-0.5867792963981628,0.26968804001808167
1681292668817046636,30048,1681292668816612056,j2s6s300_link_base,-0.31220901012420654,-0.3771296441555023,0.09032461047172546,0.4363399147987366,0.6275659203529358,-0.5866540670394897,0.2675921320915222
1681292668917040260,30049,1681292668916613187,j2s6s300_link_base,-0.3105631172657013,-0.37220996618270874,0.0859948992729187,0.43401163816452026,0.6351867914199829,-0.5774615406990051,0.2733308970928192
1681292669017043386,30050,1681292669016614241,j2s6s300_link_base,-0.3105068504810333,-0.3668077290058136,0.08097879588603973,0.4331539273262024,0.6498404145240784,-0.5585289001464844,0.27951857447624207
1681292669117051545,30051,1681292669116663258,j2s6s300_link_base,-0.3135966658592224,-0.3618704378604889,0.07828864455223083,0.43752866983413696,0.662828266620636,-0.5408310294151306,0.277000367641449
1681292669217071156,30052,1681292669216659541,j2s6s300_link_base,-0.31639841198921204,-0.35753846168518066,0.07657089084386826,0.44072967767715454,0.6707285642623901,-0.5309732556343079,0.27193349599838257
1681292669317050869,30053,1681292669316659965,j2s6s300_link_base,-0.3191174268722534,-0.35342472791671753,0.07458522915840149,0.44468894600868225,0.6717553734779358,-0.5301426649093628,0.26447153091430664
1681292669417087354,30054,1681292669416662861,j2s6s300_link_base,-0.3200532793998718,-0.3475172817707062,0.07124392688274384,0.44851189851760864,0.6709832549095154,-0.5319855809211731,0.25614428520202637
1681292669517103620,30055,1681292669516662797,j2s6s300_link_base,-0.3201749324798584,-0.34029582142829895,0.0679779201745987,0.45194563269615173,0.670340359210968,-0.5321487188339233,0.25140923261642456
1681292669617105439,30056,1681292669616660078,j2s6s300_link_base,-0.319490909576416,-0.33351415395736694,0.06603096425533295,0.4513494074344635,0.6733906269073486,-0.5275704860687256,0.25396469235420227
1681292669717085464,30057,1681292669716656280,j2s6s300_link_base,-0.3174890875816345,-0.32778841257095337,0.06220478564500809,0.4495716691017151,0.6811030507087708,-0.515739381313324,0.26076212525367737
1681292669817110700,30058,1681292669816663200,j2s6s300_link_base,-0.31781840324401855,-0.32376497983932495,0.05848497897386551,0.4472651183605194,0.6868183016777039,-0.5078665614128113,0.26515278220176697
1681292669917096932,30059,1681292669916662056,j2s6s300_link_base,-0.3195419907569885,-0.3208163380622864,0.053896091878414154,0.4446159303188324,0.6904664039611816,-0.5047817826271057,0.2660228908061981
1681292670018115222,30060,1681292670017664728,j2s6s300_link_base,-0.3205253779888153,-0.31845277547836304,0.04711182415485382,0.44401684403419495,0.6924598217010498,-0.5017393827438354,0.2675929367542267
1681292670117116810,30061,1681292670116664515,j2s6s300_link_base,-0.32086241245269775,-0.3171274960041046,0.04143091291189194,0.44445374608039856,0.6932519674301147,-0.4993946850299835,0.2691980004310608
1681292670217111242,30062,1681292670216659210,j2s6s300_link_base,-0.32116925716400146,-0.3155687749385834,0.035573363304138184,0.44525986909866333,0.6936360597610474,-0.4973554015159607,0.27064794301986694
1681292670317099067,30063,1681292670316657122,j2s6s300_link_base,-0.3208945095539093,-0.31279808282852173,0.030768252909183502,0.44441941380500793,0.6946726441383362,-0.49602553248405457,0.2718091309070587
1681292670417076537,30064,1681292670416655110,j2s6s300_link_base,-0.3208483159542084,-0.30872219800949097,0.027136892080307007,0.44404053688049316,0.6952794194221497,-0.4951985478401184,0.2723841071128845
1681292670517122794,30065,1681292670516660194,j2s6s300_link_base,-0.3207634687423706,-0.3035399317741394,0.024302124977111816,0.44362586736679077,0.6957212686538696,-0.49461129307746887,0.27299779653549194
1681292670617116546,30066,1681292670616662635,j2s6s300_link_base,-0.320745050907135,-0.29768720269203186,0.022036172449588776,0.44343674182891846,0.6957271695137024,-0.4943420886993408,0.27377623319625854
1681292670716057132,30067,1681292670715643879,j2s6s300_link_base,-0.3212062120437622,-0.2921768128871918,0.01950901746749878,0.44334444403648376,0.696104884147644,-0.4942011833190918,0.2732194662094116
1681292670817101632,30068,1681292670816657623,j2s6s300_link_base,-0.32138991355895996,-0.2879849076271057,0.01661860942840576,0.4434138536453247,0.6966795921325684,-0.49326324462890625,0.2733367383480072
1681292670917109359,30069,1681292670916662727,j2s6s300_link_base,-0.32129937410354614,-0.28509122133255005,0.013354524970054626,0.44281309843063354,0.6977033615112305,-0.4919075071811676,0.27414146065711975
1681292671017116783,30070,1681292671016662017,j2s6s300_link_base,-0.32136043906211853,-0.28260523080825806,0.008724749088287354,0.441941499710083,0.6997484564781189,-0.489333838224411,0.2749403417110443
1681292671117063526,30071,1681292671116612662,j2s6s300_link_base,-0.32131505012512207,-0.2802695333957672,0.0038221925497055054,0.43916261196136475,0.7031220197677612,-0.4860641360282898,0.27658137679100037
1681292671217099406,30072,1681292671216660191,j2s6s300_link_base,-0.321055144071579,-0.2778688073158264,-0.0009004473686218262,0.43677598237991333,0.7085161209106445,-0.47827839851379395,0.2801454961299896
1681292671317056690,30073,1681292671316656502,j2s6s300_link_base,-0.32138511538505554,-0.2750730812549591,-0.005884535610675812,0.43974679708480835,0.7150364518165588,-0.466682493686676,0.27848342061042786
1681292671417049681,30074,1681292671416661777,j2s6s300_link_base,-0.32215580344200134,-0.27220046520233154,-0.009094804525375366,0.4419248402118683,0.7220029830932617,-0.45695269107818604,0.2731457054615021
1681292671517090111,30075,1681292671516652533,j2s6s300_link_base,-0.3221336305141449,-0.26833122968673706,-0.011993810534477234,0.4435417056083679,0.7269518971443176,-0.4495184123516083,0.2697126567363739
1681292671617117698,30076,1681292671616677751,j2s6s300_link_base,-0.3217878043651581,-0.2640478014945984,-0.015067346394062042,0.44501104950904846,0.7301912307739258,-0.4439794719219208,0.26770904660224915
1681292671717122465,30077,1681292671716661086,j2s6s300_link_base,-0.3217751383781433,-0.2603797912597656,-0.017560318112373352,0.4466327726840973,0.7323598265647888,-0.43981093168258667,0.26595962047576904
1681292671817115149,30078,1681292671816658596,j2s6s300_link_base,-0.32170164585113525,-0.25744789838790894,-0.019612595438957214,0.4481027126312256,0.7338573336601257,-0.43655937910079956,0.2647135257720947
1681292671917123271,30079,1681292671916658566,j2s6s300_link_base,-0.32180771231651306,-0.2553359568119049,-0.02116088569164276,0.4493376910686493,0.7345550656318665,-0.4345976412296295,0.2639116048812866
1681292672017123936,30080,1681292672016660140,j2s6s300_link_base,-0.32194963097572327,-0.25358277559280396,-0.022547632455825806,0.4503539204597473,0.7350050806999207,-0.4331766366958618,0.263262003660202
1681292672117097622,30081,1681292672116654872,j2s6s300_link_base,-0.3218248188495636,-0.25152716040611267,-0.02399374544620514,0.4509826600551605,0.7355306148529053,-0.4317973256111145,0.26298367977142334
1681292672217125900,30082,1681292672216663020,j2s6s300_link_base,-0.32187598943710327,-0.24884282052516937,-0.025069162249565125,0.4514254629611969,0.7360162138938904,-0.43087634444236755,0.2623753249645233
1681292672315892048,30083,1681292672315622927,j2s6s300_link_base,-0.3220400810241699,-0.24546188116073608,-0.026037290692329407,0.45129525661468506,0.7369845509529114,-0.42991459369659424,0.2614571750164032
1681292672417067108,30084,1681292672416612257,j2s6s300_link_base,-0.32204583287239075,-0.24068182706832886,-0.027249053120613098,0.45178455114364624,0.7384876608848572,-0.42754146456718445,0.2602595388889313
1681292672517060223,30085,1681292672516613923,j2s6s300_link_base,-0.3223923444747925,-0.2352815866470337,-0.02861630916595459,0.45417851209640503,0.7421890497207642,-0.42193546891212463,0.25465235114097595
1681292672617125578,30086,1681292672616675018,j2s6s300_link_base,-0.32266688346862793,-0.22884154319763184,-0.02918572723865509,0.4575188159942627,0.7456693053245544,-0.41559749841690063,0.24886231124401093
1681292672717127047,30087,1681292672716660305,j2s6s300_link_base,-0.32189685106277466,-0.22167706489562988,-0.029344916343688965,0.45952123403549194,0.7486059665679932,-0.41001036763191223,0.24560287594795227
1681292672817122132,30088,1681292672816661345,j2s6s300_link_base,-0.3213452398777008,-0.21531815826892853,-0.029035910964012146,0.46134060621261597,0.7516246438026428,-0.405127614736557,0.24103298783302307
1681292672917094825,30089,1681292672916656602,j2s6s300_link_base,-0.32210850715637207,-0.20897836983203888,-0.029482021927833557,0.46881043910980225,0.7565197348594666,-0.39545345306396484,0.22696073353290558
1681292673017110266,30090,1681292673016658079,j2s6s300_link_base,-0.32277366518974304,-0.2029656022787094,-0.029781728982925415,0.4767763912677765,0.763074517250061,-0.3811613917350769,0.21240876615047455
1681292673116049041,30091,1681292673115768012,j2s6s300_link_base,-0.3218044638633728,-0.19751934707164764,-0.02994494140148163,0.48009607195854187,0.7729415893554688,-0.3597361445426941,0.20654051005840302
1681292673217039620,30092,1681292673216610646,j2s6s300_link_base,-0.32010528445243835,-0.19286535680294037,-0.029972434043884277,0.48319435119628906,0.782425045967102,-0.3350217342376709,0.20517009496688843
1681292673317062579,30093,1681292673316660255,j2s6s300_link_base,-0.3210970163345337,-0.18910132348537445,-0.030094191431999207,0.4866616725921631,0.7918798327445984,-0.3141580820083618,0.19336865842342377
1681292673416954454,30094,1681292673416615696,j2s6s300_link_base,-0.32133543491363525,-0.18593019247055054,-0.03008963167667389,0.49511614441871643,0.7973809838294983,-0.29717114567756653,0.17530786991119385
1681292673518121794,30095,1681292673517636794,j2s6s300_link_base,-0.3200889825820923,-0.18209843337535858,-0.029829472303390503,0.5018215775489807,0.8032769560813904,-0.2792934775352478,0.15784960985183716
1681292673617065241,30096,1681292673616609332,j2s6s300_link_base,-0.3176511228084564,-0.17762300372123718,-0.02926488220691681,0.502968966960907,0.8118646144866943,-0.2566382884979248,0.1484416425228119
1681292673717120510,30097,1681292673716677496,j2s6s300_link_base,-0.31486836075782776,-0.17327916622161865,-0.028063759207725525,0.5054680109024048,0.8186613917350769,-0.23142556846141815,0.14400608837604523
1681292673817012304,30098,1681292673816613523,j2s6s300_link_base,-0.31512388586997986,-0.16923931241035461,-0.026339054107666016,0.5094974637031555,0.8242259621620178,-0.2103121429681778,0.1297408640384674
1681292673915732263,30099,1681292673915573533,j2s6s300_link_base,-0.31393155455589294,-0.16732890903949738,-0.024431154131889343,0.5142483711242676,0.8262664079666138,-0.19996434450149536,0.11334285140037537
1681292674017074004,30100,1681292674016613162,j2s6s300_link_base,-0.311585396528244,-0.1655314713716507,-0.022809088230133057,0.5168846249580383,0.8279796242713928,-0.19338065385818481,0.09941783547401428
1681292674117110285,30101,1681292674116658074,j2s6s300_link_base,-0.308754563331604,-0.16083994507789612,-0.02005624771118164,0.5212367177009583,0.8301376104354858,-0.1796160638332367,0.08319853246212006
1681292674217047308,30102,1681292674216655762,j2s6s300_link_base,-0.3056575059890747,-0.15495280921459198,-0.01502189040184021,0.5229137539863586,0.8345218896865845,-0.15815486013889313,0.07156462222337723
1681292674315754479,30103,1681292674315604361,j2s6s300_link_base,-0.30378779768943787,-0.15097853541374207,-0.009825676679611206,0.5234090089797974,0.8375917077064514,-0.14227387309074402,0.06512469053268433
1681292674417105023,30104,1681292674416655684,j2s6s300_link_base,-0.3025985658168793,-0.14777936041355133,-0.004997044801712036,0.5241189002990723,0.8393161296844482,-0.13127131760120392,0.06012995168566704
1681292674514796864,30105,1681292674514630305,j2s6s300_link_base,-0.30167847871780396,-0.1443330943584442,0.00010758638381958008,0.5256136059761047,0.839855432510376,-0.12538523972034454,0.051495421677827835
1681292674617071210,30106,1681292674616646145,j2s6s300_link_base,-0.29951784014701843,-0.14209839701652527,0.004254937171936035,0.5250672101974487,0.8406844735145569,-0.12349188327789307,0.04799789935350418
1681292674717088404,30107,1681292674716647482,j2s6s300_link_base,-0.2975621819496155,-0.14106236398220062,0.007403343915939331,0.5232044458389282,0.8419200778007507,-0.12345840781927109,0.04675142467021942
1681292674817131357,30108,1681292674816613592,j2s6s300_link_base,-0.2960977852344513,-0.13991126418113708,0.009504109621047974,0.5221419334411621,0.8426325917243958,-0.12334729731082916,0.04608220234513283
1681292674917049320,30109,1681292674916612143,j2s6s300_link_base,-0.29532602429389954,-0.13857774436473846,0.011056512594223022,0.52190101146698,0.8429192900657654,-0.1228267103433609,0.04494565725326538
1681292675017058230,30110,1681292675016625921,j2s6s300_link_base,-0.2947728633880615,-0.13774368166923523,0.01219874620437622,0.5217322707176208,0.843129575252533,-0.12243056297302246,0.04403003677725792
1681292675117037886,30111,1681292675116610203,j2s6s300_link_base,-0.2943650782108307,-0.13727092742919922,0.012933492660522461,0.5216982960700989,0.8432111740112305,-0.12220332771539688,0.043497633188962936
1681292675217037666,30112,1681292675216612359,j2s6s300_link_base,-0.29412493109703064,-0.13695675134658813,0.01348540186882019,0.5217567682266235,0.8432089686393738,-0.12211490422487259,0.04308599978685379
1681292675317020844,30113,1681292675316611125,j2s6s300_link_base,-0.294150173664093,-0.1367640495300293,0.013970762491226196,0.521718442440033,0.8432563543319702,-0.122141033411026,0.04254494607448578
1681292675417038747,30114,1681292675416611012,j2s6s300_link_base,-0.2940046191215515,-0.13671442866325378,0.01400667428970337,0.5217292308807373,0.8432588577270508,-0.12206030637025833,0.042595356702804565
1681292675515017495,30115,1681292675514774795,j2s6s300_link_base,-0.2939941883087158,-0.13671401143074036,0.014012306928634644,0.521714448928833,0.8432685136795044,-0.12205636501312256,0.04259641468524933
1681292675617030029,30116,1681292675616613042,j2s6s300_link_base,-0.2939976751804352,-0.13671493530273438,0.014023274183273315,0.5217052698135376,0.843273937702179,-0.12206274271011353,0.042584825307130814
1681292675717051467,30117,1681292675716612232,j2s6s300_link_base,-0.29399389028549194,-0.13670805096626282,0.0140208899974823,0.5217037796974182,0.8432764410972595,-0.1220521554350853,0.04258374124765396
1681292675817064177,30118,1681292675816629909,j2s6s300_link_base,-0.2939930558204651,-0.13670161366462708,0.014019280672073364,0.5217044353485107,0.8432770371437073,-0.1220453530550003,0.04258197546005249
1681292675917041254,30119,1681292675916610487,j2s6s300_link_base,-0.2939860224723816,-0.13670086860656738,0.014017254114151001,0.5216996669769287,0.8432806730270386,-0.12203921377658844,0.0425865575671196
1681292676017049954,30120,1681292676016609366,j2s6s300_link_base,-0.29398366808891296,-0.13669916987419128,0.014017343521118164,0.5217000246047974,0.8432807326316833,-0.12203696370124817,0.042587317526340485
1681292676117055424,30121,1681292676116611368,j2s6s300_link_base,-0.293989896774292,-0.13667327165603638,0.014016658067703247,0.5217338800430298,0.8432604074478149,-0.12203364819288254,0.04258418083190918
1681292676216995853,30122,1681292676216612001,j2s6s300_link_base,-0.2939950227737427,-0.13666275143623352,0.014017075300216675,0.5217481255531311,0.843251645565033,-0.1220339685678482,0.04258082062005997
1681292676315017985,30123,1681292676314791449,j2s6s300_link_base,-0.29399773478507996,-0.1366562396287918,0.014016926288604736,0.5217567086219788,0.8432466387748718,-0.12203332036733627,0.04257900267839432
1681292676417037391,30124,1681292676416610941,j2s6s300_link_base,-0.293999046087265,-0.13665269315242767,0.014016777276992798,0.5217610597610474,0.8432440161705017,-0.12203250080347061,0.042577870190143585
1681292676517042506,30125,1681292676516611087,j2s6s300_link_base,-0.29399973154067993,-0.13665029406547546,0.014016598463058472,0.5217612981796265,0.8432441353797913,-0.12203151732683182,0.04257674515247345
1681292676617049510,30126,1681292676616609987,j2s6s300_link_base,-0.2940002381801605,-0.13664907217025757,0.014016598463058472,0.5217630863189697,0.8432431221008301,-0.12203159928321838,0.04257652536034584
1681292676717044200,30127,1681292676716610732,j2s6s300_link_base,-0.2940004765987396,-0.13664792478084564,0.014016419649124146,0.5217639207839966,0.8432427048683167,-0.12203054130077362,0.04257577657699585
1681292676817052399,30128,1681292676816611514,j2s6s300_link_base,-0.2940008044242859,-0.1366472840309143,0.014016419649124146,0.5217647552490234,0.8432421684265137,-0.12203063070774078,0.04257567971944809
1681292676917049658,30129,1681292676916612424,j2s6s300_link_base,-0.2940008044242859,-0.1366472840309143,0.014016419649124146,0.5217647552490234,0.8432421684265137,-0.12203063070774078,0.04257567971944809
1681292677017041310,30130,1681292677016611685,j2s6s300_link_base,-0.2940007448196411,-0.13664662837982178,0.014016270637512207,0.5217640995979309,0.8432427644729614,-0.12202952802181244,0.04257494956254959
1681292677116737722,30131,1681292677116573611,j2s6s300_link_base,-0.2940007448196411,-0.13664662837982178,0.014016270637512207,0.5217640995979309,0.8432427644729614,-0.12202952802181244,0.04257494956254959
1681292677217006418,30132,1681292677216614712,j2s6s300_link_base,-0.2940007448196411,-0.13664662837982178,0.014016270637512207,0.5217640995979309,0.8432427644729614,-0.12202952802181244,0.04257494956254959
1681292677317022566,30133,1681292677316611572,j2s6s300_link_base,-0.2940007448196411,-0.13664662837982178,0.014016270637512207,0.5217640995979309,0.8432427644729614,-0.12202952802181244,0.04257494956254959
1681292677416969841,30134,1681292677416610238,j2s6s300_link_base,-0.2940007448196411,-0.13664662837982178,0.014016270637512207,0.5217640995979309,0.8432427644729614,-0.12202952802181244,0.04257494956254959
1681292677517058841,30135,1681292677516684660,j2s6s300_link_base,-0.2940007448196411,-0.13664662837982178,0.014016270637512207,0.5217640995979309,0.8432427644729614,-0.12202952802181244,0.04257494956254959
1681292677617005227,30136,1681292677616609621,j2s6s300_link_base,-0.2940007150173187,-0.13664594292640686,0.01401609182357788,0.5217642784118652,0.843242883682251,-0.12202838808298111,0.04257434606552124
1681292677717074397,30137,1681292677716661787,j2s6s300_link_base,-0.2940007150173187,-0.13664594292640686,0.01401609182357788,0.5217642784118652,0.843242883682251,-0.12202838808298111,0.04257434606552124
1681292677818001109,30138,1681292677817610286,j2s6s300_link_base,-0.2940009832382202,-0.1366453766822815,0.01401609182357788,0.5217651724815369,0.8432424068450928,-0.12202838063240051,0.04257418215274811
1681292677916973450,30139,1681292677916614906,j2s6s300_link_base,-0.2940009832382202,-0.1366453766822815,0.01401609182357788,0.5217651724815369,0.8432424068450928,-0.12202838063240051,0.04257418215274811
1681292678017008552,30140,1681292678016611887,j2s6s300_link_base,-0.2940009832382202,-0.1366453766822815,0.01401609182357788,0.52176433801651,0.843242883682251,-0.1220284178853035,0.042574066668748856
1681292678117038905,30141,1681292678116657732,j2s6s300_link_base,-0.2940009832382202,-0.1366453766822815,0.01401609182357788,0.52176433801651,0.843242883682251,-0.1220284178853035,0.042574066668748856
1681292678217073608,30142,1681292678216658966,j2s6s300_link_base,-0.2940009832382202,-0.1366453766822815,0.01401609182357788,0.52176433801651,0.843242883682251,-0.1220284178853035,0.042574066668748856
1681292678317051661,30143,1681292678316650898,j2s6s300_link_base,-0.2940009534358978,-0.13664478063583374,0.014015913009643555,0.52176433801651,0.8432430028915405,-0.12202737480401993,0.042573489248752594
1681292678417065765,30144,1681292678416657015,j2s6s300_link_base,-0.2940009534358978,-0.13664478063583374,0.014015913009643555,0.52176433801651,0.8432430028915405,-0.12202737480401993,0.042573489248752594
1681292678517053887,30145,1681292678516656530,j2s6s300_link_base,-0.2940009534358978,-0.13664478063583374,0.014015913009643555,0.52176433801651,0.8432430028915405,-0.12202737480401993,0.042573489248752594
1681292678617074059,30146,1681292678616670302,j2s6s300_link_base,-0.2940009534358978,-0.13664478063583374,0.014015913009643555,0.52176433801651,0.8432430028915405,-0.12202737480401993,0.042573489248752594
1681292678717065635,30147,1681292678716658244,j2s6s300_link_base,-0.2940009534358978,-0.13664478063583374,0.014015913009643555,0.52176433801651,0.8432430028915405,-0.12202737480401993,0.042573489248752594
1681292678815719471,30148,1681292678815520075,j2s6s300_link_base,-0.2940009534358978,-0.13664478063583374,0.014015913009643555,0.52176433801651,0.8432430028915405,-0.12202737480401993,0.042573489248752594
1681292678917137093,30149,1681292678916657025,j2s6s300_link_base,-0.2940009534358978,-0.13664478063583374,0.014015913009643555,0.52176433801651,0.8432430028915405,-0.12202737480401993,0.042573489248752594
1681292679017085772,30150,1681292679016657226,j2s6s300_link_base,-0.2940009534358978,-0.13664478063583374,0.014015913009643555,0.52176433801651,0.8432430028915405,-0.12202737480401993,0.042573489248752594
1681292679118103505,30151,1681292679117653182,j2s6s300_link_base,-0.2940009534358978,-0.13664478063583374,0.014015913009643555,0.52176433801651,0.8432430028915405,-0.12202737480401993,0.042573489248752594
1681292679217089049,30152,1681292679216653813,j2s6s300_link_base,-0.2940009534358978,-0.13664478063583374,0.014015913009643555,0.52176433801651,0.8432430028915405,-0.12202737480401993,0.042573489248752594
1681292679317105458,30153,1681292679316655809,j2s6s300_link_base,-0.2940009534358978,-0.13664478063583374,0.014015913009643555,0.5217627286911011,0.8432440161705017,-0.1220274567604065,0.04257326200604439
1681292679417030586,30154,1681292679416610862,j2s6s300_link_base,-0.2940009534358978,-0.13664478063583374,0.014015913009643555,0.5217627286911011,0.8432440161705017,-0.1220274567604065,0.04257326200604439
1681292679517044569,30155,1681292679516655927,j2s6s300_link_base,-0.29400089383125305,-0.136644184589386,0.014015763998031616,0.5217627882957458,0.843244194984436,-0.12202642112970352,0.04257269203662872
1681292679617047528,30156,1681292679616656664,j2s6s300_link_base,-0.29400089383125305,-0.136644184589386,0.014015763998031616,0.5217627882957458,0.843244194984436,-0.12202642112970352,0.04257269203662872
1681292679714761059,30157,1681292679714594809,j2s6s300_link_base,-0.29400089383125305,-0.136644184589386,0.014015763998031616,0.5217627882957458,0.843244194984436,-0.12202642112970352,0.04257269203662872
1681292679817098590,30158,1681292679816655696,j2s6s300_link_base,-0.29400089383125305,-0.136644184589386,0.014015763998031616,0.5217627882957458,0.843244194984436,-0.12202642112970352,0.04257269203662872
1681292679917084090,30159,1681292679916655645,j2s6s300_link_base,-0.29400089383125305,-0.136644184589386,0.014015763998031616,0.5217627882957458,0.843244194984436,-0.12202642112970352,0.04257269203662872
1681292680018166078,30160,1681292680017683852,j2s6s300_link_base,-0.29400089383125305,-0.136644184589386,0.014015763998031616,0.5217627882957458,0.843244194984436,-0.12202642112970352,0.04257269203662872
1681292680117043627,30161,1681292680116654473,j2s6s300_link_base,-0.29400089383125305,-0.136644184589386,0.014015763998031616,0.5217627882957458,0.843244194984436,-0.12202642112970352,0.04257269203662872
1681292680217111152,30162,1681292680216654395,j2s6s300_link_base,-0.29400089383125305,-0.136644184589386,0.014015763998031616,0.5217627882957458,0.843244194984436,-0.12202642112970352,0.04257269203662872
