%time,field.header.seq,field.header.stamp,field.header.frame_id,field.pose.position.x,field.pose.position.y,field.pose.position.z,field.pose.orientation.x,field.pose.orientation.y,field.pose.orientation.z,field.pose.orientation.w
1681292569618123411,29056,1681292569617693963,j2s6s300_link_base,0.25289079546928406,-0.45150327682495117,-0.004298701882362366,0.17554546892642975,-0.7179277539253235,0.1777162402868271,-0.6497541069984436
1681292569717051597,29057,1681292569716678213,j2s6s300_link_base,0.25289079546928406,-0.45150327682495117,-0.004298701882362366,0.17554546892642975,-0.7179277539253235,0.1777162402868271,-0.6497541069984436
1681292569817031111,29058,1681292569816677283,j2s6s300_link_base,0.25289079546928406,-0.45150327682495117,-0.004298701882362366,0.17554546892642975,-0.7179277539253235,0.1777162402868271,-0.6497541069984436
1681292569917037722,29059,1681292569916681334,j2s6s300_link_base,0.25289079546928406,-0.45150327682495117,-0.004298701882362366,0.17554546892642975,-0.7179277539253235,0.1777162402868271,-0.6497541069984436
1681292570017035066,29060,1681292570016680760,j2s6s300_link_base,0.25289079546928406,-0.45150282979011536,-0.004298755899071693,0.17554499208927155,-0.717927873134613,0.1777157485485077,-0.6497542858123779
1681292570117026806,29061,1681292570116682379,j2s6s300_link_base,0.25289079546928406,-0.45150282979011536,-0.004298755899071693,0.17554499208927155,-0.717927873134613,0.1777157485485077,-0.6497542858123779
1681292570216038020,29062,1681292570215800786,j2s6s300_link_base,0.25289079546928406,-0.45150282979011536,-0.004298755899071693,0.17554499208927155,-0.717927873134613,0.1777157485485077,-0.6497542858123779
1681292570317037370,29063,1681292570316679024,j2s6s300_link_base,0.25289079546928406,-0.45150282979011536,-0.004298755899071693,0.17554499208927155,-0.717927873134613,0.1777157485485077,-0.6497542858123779
1681292570417041185,29064,1681292570416679530,j2s6s300_link_base,0.25289079546928406,-0.45150282979011536,-0.004298755899071693,0.17554499208927155,-0.717927873134613,0.1777157485485077,-0.6497542858123779
1681292570517031395,29065,1681292570516679661,j2s6s300_link_base,0.25289079546928406,-0.45150282979011536,-0.004298755899071693,0.17554499208927155,-0.717927873134613,0.1777157485485077,-0.6497542858123779
1681292570617061935,29066,1681292570616693912,j2s6s300_link_base,0.25289079546928406,-0.45150282979011536,-0.004298755899071693,0.17554499208927155,-0.717927873134613,0.1777157485485077,-0.6497542858123779
1681292570717030920,29067,1681292570716680495,j2s6s300_link_base,0.2528890371322632,-0.4515042304992676,-0.004298701882362366,0.17554405331611633,-0.7179281115531921,0.1777174472808838,-0.649753749370575
1681292570816994974,29068,1681292570816648599,j2s6s300_link_base,0.25288909673690796,-0.451503723859787,-0.004298755899071693,0.17554360628128052,-0.7179282307624817,0.17771697044372559,-0.6497539281845093
1681292570917005478,29069,1681292570916657591,j2s6s300_link_base,0.25288909673690796,-0.451503723859787,-0.004298755899071693,0.17554360628128052,-0.7179282307624817,0.17771697044372559,-0.6497539281845093
1681292571015834105,29070,1681292571015628405,j2s6s300_link_base,0.25288820266723633,-0.45150426030158997,-0.004298755899071693,0.175542950630188,-0.717928409576416,0.17771761119365692,-0.649753749370575
1681292571117037037,29071,1681292571116647377,j2s6s300_link_base,0.2528817653656006,-0.45150747895240784,-0.004299372434616089,0.17553724348545074,-0.7179297804832458,0.17772164940834045,-0.649752676486969
1681292571217065414,29072,1681292571216680842,j2s6s300_link_base,0.25287920236587524,-0.4515089690685272,-0.004299968481063843,0.1755352020263672,-0.7179303765296936,0.17772352695465088,-0.6497521996498108
1681292571317075886,29073,1681292571316641524,j2s6s300_link_base,0.2528727352619171,-0.451513409614563,-0.004298701882362366,0.1755310595035553,-0.7179312705993652,0.17772924900054932,-0.6497505307197571
1681292571417059462,29074,1681292571416666859,j2s6s300_link_base,0.2528653144836426,-0.4515190124511719,-0.004296397790312767,0.17552697658538818,-0.7179323434829712,0.17773638665676117,-0.6497486233711243
1681292571517069971,29075,1681292571516679005,j2s6s300_link_base,0.25282132625579834,-0.45157474279403687,-0.004246136173605919,0.17552924156188965,-0.7179314494132996,0.1778077483177185,-0.6497294902801514
1681292571617034352,29076,1681292571616645884,j2s6s300_link_base,0.2527977526187897,-0.4517839252948761,-0.0039193294942379,0.17575103044509888,-0.71787428855896,0.1780773103237152,-0.6496587991714478
1681292571717036010,29077,1681292571716646836,j2s6s300_link_base,0.25272336602211,-0.4523959457874298,-0.001575743779540062,0.17503602802753448,-0.7189324498176575,0.18001067638397217,-0.6481472253799438
1681292571815836492,29078,1681292571815625683,j2s6s300_link_base,0.2521083950996399,-0.4533349275588989,0.0010348018258810043,0.17225901782512665,-0.7273108959197998,0.18345868587493896,-0.6385049819946289
1681292571917031615,29079,1681292571916680968,j2s6s300_link_base,0.2513880729675293,-0.45392513275146484,0.004604492336511612,0.16835767030715942,-0.7378031611442566,0.18634849786758423,-0.6265591979026794
1681292572017061981,29080,1681292572016681764,j2s6s300_link_base,0.25125566124916077,-0.45402732491493225,0.009664390236139297,0.16547057032585144,-0.7451479434967041,0.1883261799812317,-0.6179864406585693
1681292572117075186,29081,1681292572116678248,j2s6s300_link_base,0.25132420659065247,-0.4540228545665741,0.015819989144802094,0.16427738964557648,-0.7499920129776001,0.18984465301036835,-0.6119509935379028
1681292572217060531,29082,1681292572216681098,j2s6s300_link_base,0.2513844668865204,-0.4541037976741791,0.02288626879453659,0.16467565298080444,-0.7537180781364441,0.19145475327968597,-0.6067422032356262
1681292572318050576,29083,1681292572317648875,j2s6s300_link_base,0.25115206837654114,-0.454298198223114,0.031195655465126038,0.16579332947731018,-0.7564111948013306,0.19273978471755981,-0.6026657223701477
1681292572417106206,29084,1681292572416696414,j2s6s300_link_base,0.25069788098335266,-0.45453402400016785,0.040629301220178604,0.16491901874542236,-0.7576048970222473,0.19267559051513672,-0.6014255285263062
1681292572517105888,29085,1681292572516693987,j2s6s300_link_base,0.24805070459842682,-0.45376527309417725,0.048266440629959106,0.16725707054138184,-0.7558640241622925,0.19003525376319885,-0.603805661201477
1681292572616013515,29086,1681292572615812536,j2s6s300_link_base,0.2439562827348709,-0.45300763845443726,0.05705724656581879,0.16808347404003143,-0.7503570914268494,0.18700796365737915,-0.6113430261611938
1681292572718088835,29087,1681292572717675593,j2s6s300_link_base,0.24068094789981842,-0.45212462544441223,0.06647246330976486,0.1699400544166565,-0.742436945438385,0.18394024670124054,-0.6213482022285461
1681292572817080991,29088,1681292572816692764,j2s6s300_link_base,0.23766040802001953,-0.45251497626304626,0.07607702910900116,0.1715375930070877,-0.736462414264679,0.1821753978729248,-0.628498375415802
1681292572917062371,29089,1681292572916682342,j2s6s300_link_base,0.2355264574289322,-0.4529894292354584,0.08591078966856003,0.17336778342723846,-0.7316551208496094,0.1815730631351471,-0.6337630152702332
1681292573017074927,29090,1681292573016671720,j2s6s300_link_base,0.23440712690353394,-0.45379528403282166,0.09573651850223541,0.1750132441520691,-0.7283072471618652,0.1810353696346283,-0.637310802936554
1681292573117087764,29091,1681292573116664414,j2s6s300_link_base,0.23319657146930695,-0.45470577478408813,0.1059485673904419,0.17558805644512177,-0.7253853678703308,0.18213284015655518,-0.6401660442352295
1681292573217083156,29092,1681292573216693734,j2s6s300_link_base,0.23217672109603882,-0.4554194509983063,0.11594394594430923,0.17441919445991516,-0.7235704660415649,0.1831219643354416,-0.6422538757324219
1681292573317080259,29093,1681292573316690005,j2s6s300_link_base,0.23176968097686768,-0.45545530319213867,0.12571941316127777,0.17421188950538635,-0.7219945192337036,0.18417659401893616,-0.6437803506851196
1681292573414815041,29094,1681292573414635639,j2s6s300_link_base,0.2315739095211029,-0.45507174730300903,0.13538557291030884,0.17338918149471283,-0.7209100127220154,0.1845981478691101,-0.645095705986023
1681292573518046847,29095,1681292573517648212,j2s6s300_link_base,0.2312474548816681,-0.45463404059410095,0.1454603224992752,0.17298759520053864,-0.7198154330253601,0.1856350302696228,-0.646127462387085
1681292573617083313,29096,1681292573616680903,j2s6s300_link_base,0.2307959347963333,-0.45432573556900024,0.1553868055343628,0.17242203652858734,-0.7189601063728333,0.18678487837314606,-0.6468989849090576
1681292573717071061,29097,1681292573716687209,j2s6s300_link_base,0.23035085201263428,-0.4544425904750824,0.1653747409582138,0.17114540934562683,-0.7185760736465454,0.1875278353691101,-0.6474495530128479
1681292573818136972,29098,1681292573817702042,j2s6s300_link_base,0.2299683541059494,-0.4545489251613617,0.1751236468553543,0.17105339467525482,-0.7182816863059998,0.1890725940465927,-0.6473513841629028
1681292573918107746,29099,1681292573917690280,j2s6s300_link_base,0.22963154315948486,-0.4547998011112213,0.18519440293312073,-0.16950026154518127,0.7181963324546814,-0.18918448686599731,0.6478216052055359
1681292574017041921,29100,1681292574016644817,j2s6s300_link_base,0.2293063849210739,-0.45533424615859985,0.1953635960817337,-0.16979622840881348,0.7180699706077576,-0.19084353744983673,0.6473973393440247
1681292574117026052,29101,1681292574116635372,j2s6s300_link_base,0.22899357974529266,-0.4558652341365814,0.2053503394126892,-0.16874465346336365,0.7181961536407471,-0.1911996304988861,0.6474274396896362
1681292574215847159,29102,1681292574215664159,j2s6s300_link_base,0.22796763479709625,-0.45720380544662476,0.21559450030326843,-0.16726960241794586,0.7178282737731934,-0.19196809828281403,0.6479905843734741
1681292574317055161,29103,1681292574316646298,j2s6s300_link_base,0.22675003111362457,-0.4591187536716461,0.2253837287425995,-0.16510845720767975,0.7176896333694458,-0.19192302227020264,0.6487113833427429
1681292574417035199,29104,1681292574416646957,j2s6s300_link_base,0.22474803030490875,-0.4616314470767975,0.23469091951847076,-0.16407302021980286,0.7175784111022949,-0.19174861907958984,0.6491484642028809
1681292574517034460,29105,1681292574516644890,j2s6s300_link_base,0.22097158432006836,-0.4639369249343872,0.2433374524116516,-0.16445422172546387,0.7171827554702759,-0.19114038348197937,0.6496683359146118
1681292574617040423,29106,1681292574616647234,j2s6s300_link_base,0.21590250730514526,-0.4675866961479187,0.2508505880832672,-0.16409078240394592,0.7172918319702148,-0.19133321940898895,0.649583101272583
1681292574717040370,29107,1681292574716646147,j2s6s300_link_base,0.21113915741443634,-0.4731697738170624,0.2580051124095917,-0.16360574960708618,0.7174164056777954,-0.19191256165504456,0.6493970155715942
1681292574817069453,29108,1681292574816642286,j2s6s300_link_base,0.2062544971704483,-0.47913381457328796,0.26418039202690125,-0.16341190040111542,0.717496395111084,-0.19187083840370178,0.6493697762489319
1681292574917086228,29109,1681292574916682203,j2s6s300_link_base,0.2013167142868042,-0.4853084981441498,0.27021774649620056,-0.1630944013595581,0.7173801064491272,-0.19169259071350098,0.6496306657791138
1681292575015899760,29110,1681292575015713072,j2s6s300_link_base,0.1959211230278015,-0.49129143357276917,0.27584108710289,-0.16295810043811798,0.7174679040908813,-0.19162890315055847,0.6495866775512695
1681292575117073012,29111,1681292575116675176,j2s6s300_link_base,0.1897953301668167,-0.4973985254764557,0.2812349796295166,-0.16238829493522644,0.7176823019981384,-0.19196683168411255,0.6493926644325256
1681292575215916979,29112,1681292575215654508,j2s6s300_link_base,0.1840364784002304,-0.5028778910636902,0.286651611328125,-0.1628204584121704,0.717369556427002,-0.19135946035385132,0.6498092412948608
1681292575317095189,29113,1681292575316681370,j2s6s300_link_base,0.17810367047786713,-0.5080947279930115,0.29234325885772705,-0.16547904908657074,0.7122793197631836,-0.18985837697982788,0.6551554799079895
1681292575417086147,29114,1681292575416693571,j2s6s300_link_base,0.1722346395254135,-0.5135862231254578,0.2961174547672272,-0.16883015632629395,0.7042860984802246,-0.1867140233516693,0.6637886762619019
1681292575517083769,29115,1681292575516679936,j2s6s300_link_base,0.16589412093162537,-0.5198498964309692,0.29898419976234436,-0.17111751437187195,0.6976895332336426,-0.18418997526168823,0.670836865901947
1681292575617074285,29116,1681292575616678618,j2s6s300_link_base,0.1586591750383377,-0.5267898440361023,0.30066320300102234,-0.17229092121124268,0.6933258771896362,-0.18277859687805176,0.6754310131072998
1681292575718232299,29117,1681292575717750103,j2s6s300_link_base,0.15173125267028809,-0.5332291126251221,0.3016829788684845,-0.17345952987670898,0.6899381279945374,-0.18119022250175476,0.6790192723274231
1681292575817729965,29118,1681292575817571094,j2s6s300_link_base,0.144741028547287,-0.538442850112915,0.30241918563842773,-0.17509979009628296,0.6872997879981995,-0.1790877878665924,0.6818259358406067
1681292575917106797,29119,1681292575916713514,j2s6s300_link_base,0.13705554604530334,-0.5430461168289185,0.3021741509437561,-0.17497038841247559,0.6858961582183838,-0.1767832636833191,0.6838709712028503
1681292576018301305,29120,1681292576017833470,j2s6s300_link_base,0.131167471408844,-0.5468265414237976,0.3025788366794586,-0.17618384957313538,0.6848059296607971,-0.17618384957313538,0.6848059296607971
1681292576118054995,29121,1681292576117654390,j2s6s300_link_base,0.12604820728302002,-0.5499889850616455,0.3029169738292694,-0.17428696155548096,0.6834109425544739,-0.17798557877540588,0.6862176656723022
1681292576218089035,29122,1681292576217677219,j2s6s300_link_base,0.1232118308544159,-0.5521144866943359,0.30283597111701965,-0.17396633327007294,0.6828835010528564,-0.17819927632808685,0.6867684125900269
1681292576318052011,29123,1681292576317655928,j2s6s300_link_base,0.11987745761871338,-0.553543210029602,0.3035316467285156,-0.17379973828792572,0.6821926236152649,-0.1793738454580307,0.6871913075447083
1681292576418119074,29124,1681292576417703118,j2s6s300_link_base,0.11506462097167969,-0.5554846525192261,0.30365437269210815,-0.1725120097398758,0.6820951700210571,-0.1817542165517807,0.6869869828224182
1681292576518106620,29125,1681292576517680757,j2s6s300_link_base,0.10838662087917328,-0.5568034648895264,0.30422431230545044,-0.1721617579460144,0.6816197633743286,-0.18312281370162964,0.6871832609176636
1681292576618106781,29126,1681292576617689326,j2s6s300_link_base,0.10091826319694519,-0.5580118894577026,0.3039490282535553,-0.16941282153129578,0.6828143000602722,-0.18548539280891418,0.6860460042953491
1681292576718159001,29127,1681292576717694247,j2s6s300_link_base,0.09364935755729675,-0.5583811402320862,0.3032206594944,-0.16081559658050537,0.6860584020614624,-0.19119879603385925,0.6833046078681946
1681292576818065166,29128,1681292576817680800,j2s6s300_link_base,0.08609899878501892,-0.5589001774787903,0.3021664321422577,-0.14766114950180054,0.6909274458885193,-0.20342351496219635,0.677815854549408
1681292576917047254,29129,1681292576916679025,j2s6s300_link_base,0.07711125910282135,-0.5588740706443787,0.3026830852031708,-0.13374078273773193,0.6945760250091553,-0.21654343605041504,0.6728941202163696
1681292577017116070,29130,1681292577016705721,j2s6s300_link_base,0.06745162606239319,-0.55878746509552,0.30349263548851013,-0.12287193536758423,0.6968247890472412,-0.2277824878692627,0.6689191460609436
1681292577117083402,29131,1681292577116698616,j2s6s300_link_base,0.05726894736289978,-0.5585377216339111,0.30332326889038086,-0.1139126718044281,0.6983745694160461,-0.23519493639469147,0.666318416595459
1681292577215873110,29132,1681292577215673749,j2s6s300_link_base,0.04701411724090576,-0.558577299118042,0.30300647020339966,-0.10657033324241638,0.6993696093559265,-0.2413928508758545,0.6642698049545288
1681292577318019920,29133,1681292577317679100,j2s6s300_link_base,0.03676122426986694,-0.5588829517364502,0.30332151055336,-0.09772828221321106,0.6987102031707764,-0.2502294182777405,0.6630524396896362
1681292577418075815,29134,1681292577417713474,j2s6s300_link_base,0.02686333656311035,-0.5590936541557312,0.30317437648773193,-0.08743903040885925,0.6962910294532776,-0.2613121271133423,0.6627587080001831
1681292577518081752,29135,1681292577517690461,j2s6s300_link_base,0.01680232584476471,-0.5594910383224487,0.3041670322418213,-0.0774802565574646,0.6934042572975159,-0.2729228436946869,0.6623446941375732
1681292577617138290,29136,1681292577616690437,j2s6s300_link_base,0.0064424872398376465,-0.5598607659339905,0.3044690489768982,-0.06887385249137878,0.6924717426300049,-0.28099948167800903,0.6608923077583313
1681292577718043115,29137,1681292577717627907,j2s6s300_link_base,-0.0028666555881500244,-0.5605414509773254,0.30484452843666077,-0.06353312730789185,0.6920439600944519,-0.2871275842189789,0.6592394113540649
1681292577817133269,29138,1681292577816692286,j2s6s300_link_base,-0.01039046049118042,-0.5612552762031555,0.304896742105484,-0.06099793314933777,0.6908221244812012,-0.2902432084083557,0.6593958735466003
1681292577917139687,29139,1681292577916691665,j2s6s300_link_base,-0.019125327467918396,-0.5623059272766113,0.3047826290130615,-0.05818605422973633,0.6898585557937622,-0.29247432947158813,0.6596729159355164
1681292578017123290,29140,1681292578016687000,j2s6s300_link_base,-0.02815595269203186,-0.5629187226295471,0.3046214282512665,-0.05647915601730347,0.6891500949859619,-0.29400378465652466,0.6598818302154541
1681292578117066954,29141,1681292578116677523,j2s6s300_link_base,-0.03662644326686859,-0.5631117820739746,0.30401650071144104,-0.05431026220321655,0.6888200044631958,-0.29543596506118774,0.6597689390182495
1681292578217144428,29142,1681292578216693700,j2s6s300_link_base,-0.043852657079696655,-0.564164936542511,0.3032955527305603,-0.051377326250076294,0.6888992786407471,-0.2979596257209778,0.6587854027748108
1681292578317083841,29143,1681292578316678326,j2s6s300_link_base,-0.050575047731399536,-0.5653303861618042,0.30151253938674927,-0.04815438389778137,0.6891703605651855,-0.3005562722682953,0.6575646996498108
1681292578417101015,29144,1681292578416678051,j2s6s300_link_base,-0.05861133337020874,-0.5660033822059631,0.29798921942710876,-0.04491281509399414,0.6871176958084106,-0.30324679613113403,0.6587058305740356
1681292578517101752,29145,1681292578516677659,j2s6s300_link_base,-0.06713390350341797,-0.5669251680374146,0.2941479980945587,-0.036675989627838135,0.6806455850601196,-0.3137834072113037,0.6609964370727539
1681292578617067431,29146,1681292578616679034,j2s6s300_link_base,-0.07526019215583801,-0.5668768882751465,0.291412889957428,-0.021939754486083984,0.6736510396003723,-0.3306814134120941,0.6605775356292725
1681292578718112675,29147,1681292578717691320,j2s6s300_link_base,-0.08244475722312927,-0.5670505166053772,0.2869243323802948,-0.0012396574020385742,0.6732185482978821,-0.34517088532447815,0.6539360284805298
1681292578817134181,29148,1681292578816689305,j2s6s300_link_base,-0.09013977646827698,-0.56706303358078,0.28390932083129883,0.019369661808013916,0.6753530502319336,-0.358181357383728,0.6443827152252197
1681292578917124491,29149,1681292578916690408,j2s6s300_link_base,-0.09897294640541077,-0.5670942664146423,0.28225889801979065,0.037869155406951904,0.6769641637802124,-0.3730980157852173,0.6333115100860596
1681292579017086693,29150,1681292579016678620,j2s6s300_link_base,-0.10871607065200806,-0.5669171214103699,0.28107190132141113,0.052895426750183105,0.6757752895355225,-0.3900553584098816,0.6232067346572876
1681292579117073028,29151,1681292579116666757,j2s6s300_link_base,-0.1186567097902298,-0.5668641924858093,0.2802932560443878,0.0662727952003479,0.671550989151001,-0.4106521010398865,0.6131818890571594
1681292579217097321,29152,1681292579216676980,j2s6s300_link_base,-0.12853044271469116,-0.5669748187065125,0.2792063355445862,0.0809551477432251,0.6692330241203308,-0.4293974041938782,0.60099196434021
1681292579318170592,29153,1681292579317697246,j2s6s300_link_base,-0.13823118805885315,-0.5668544769287109,0.2780606746673584,0.09579330682754517,0.6670795679092407,-0.4469497799873352,0.5882724523544312
1681292579417050426,29154,1681292579416621306,j2s6s300_link_base,-0.14864704012870789,-0.5669218897819519,0.27732929587364197,0.1098918616771698,0.6615394353866577,-0.4676280617713928,0.5758587121963501
1681292579517089664,29155,1681292579516677917,j2s6s300_link_base,-0.1587076336145401,-0.566839337348938,0.27711114287376404,0.11996755003929138,0.6550948619842529,-0.4884754419326782,0.5637820363044739
1681292579617079654,29156,1681292579616644769,j2s6s300_link_base,-0.16963033378124237,-0.5667861700057983,0.2776067852973938,0.12830214202404022,0.6478480696678162,-0.5105265378952026,0.5506305694580078
1681292579717096755,29157,1681292579716688486,j2s6s300_link_base,-0.18000109493732452,-0.5666042566299438,0.27735814452171326,0.13823236525058746,0.6404850482940674,-0.5305911898612976,0.537720799446106
1681292579817072555,29158,1681292579816647019,j2s6s300_link_base,-0.18985596299171448,-0.5666599869728088,0.27642083168029785,0.15078167617321014,0.6341245770454407,-0.5481432676315308,0.5241085886955261
1681292579915944119,29159,1681292579915621388,j2s6s300_link_base,-0.19987592101097107,-0.5664847493171692,0.27430281043052673,0.16471953690052032,0.629609227180481,-0.5635653138160706,0.508776843547821
1681292580017045474,29160,1681292580016642326,j2s6s300_link_base,-0.21076008677482605,-0.566358208656311,0.27301421761512756,0.17508333921432495,0.6237332224845886,-0.5818063616752625,0.4917357563972473
1681292580117032102,29161,1681292580116643158,j2s6s300_link_base,-0.2204589545726776,-0.5662656426429749,0.2700740396976471,0.18572363257408142,0.6175795197486877,-0.5983335375785828,0.4754990339279175
1681292580217053895,29162,1681292580216658780,j2s6s300_link_base,-0.22988435626029968,-0.566101610660553,0.26692867279052734,0.19818562269210815,0.6111869812011719,-0.6133266091346741,0.4593510329723358
1681292580317039127,29163,1681292580316643650,j2s6s300_link_base,-0.23908501863479614,-0.5656618475914001,0.26434698700904846,0.213612362742424,0.6059059500694275,-0.6249023079872131,0.44355911016464233
1681292580417019692,29164,1681292580416644356,j2s6s300_link_base,-0.24850153923034668,-0.5653247833251953,0.259929358959198,0.23304086923599243,0.6035391092300415,-0.6314117908477783,0.42749470472335815
1681292580517083108,29165,1681292580516647976,j2s6s300_link_base,-0.25799086689949036,-0.5648407936096191,0.2559107542037964,0.2524375319480896,0.6028441190719604,-0.6360675692558289,0.4102100729942322
1681292580617124843,29166,1681292580616687183,j2s6s300_link_base,-0.2679520845413208,-0.5641385316848755,0.2520298957824707,0.2715778350830078,0.6000490188598633,-0.6416266560554504,0.3930674195289612
1681292580715873690,29167,1681292580715631882,j2s6s300_link_base,-0.276090145111084,-0.5633261203765869,0.2493109554052353,0.2837073504924774,0.5966065526008606,-0.6478139758110046,0.37935203313827515
1681292580817010270,29168,1681292580816637581,j2s6s300_link_base,-0.28185364603996277,-0.561339259147644,0.24415281414985657,0.2899381220340729,0.5943339467048645,-0.6512764096260071,0.37221238017082214
1681292580917138252,29169,1681292580916685128,j2s6s300_link_base,-0.2875404953956604,-0.5565594434738159,0.24054981768131256,0.29277482628822327,0.591357946395874,-0.6549256443977356,0.36830848455429077
1681292581017146804,29170,1681292581016689465,j2s6s300_link_base,-0.2949927747249603,-0.5502647161483765,0.2376357764005661,0.29807883501052856,0.5889784693717957,-0.6574203372001648,0.36338943243026733
1681292581117073782,29171,1681292581116638848,j2s6s300_link_base,-0.30063727498054504,-0.543353796005249,0.2350730448961258,0.3059547543525696,0.5891399383544922,-0.6567789912223816,0.3576969802379608
1681292581217143828,29172,1681292581216687272,j2s6s300_link_base,-0.3051532506942749,-0.5354151725769043,0.2327607274055481,0.31536367535591125,0.5921244621276855,-0.6540337800979614,0.34953415393829346
1681292581317133414,29173,1681292581316687842,j2s6s300_link_base,-0.30986288189888,-0.5276859998703003,0.23174060881137848,0.32312604784965515,0.5939828753471375,-0.6525949835777283,0.3418971002101898
1681292581417147341,29174,1681292581416689387,j2s6s300_link_base,-0.3132898211479187,-0.5215791463851929,0.23092052340507507,0.328838586807251,0.595399022102356,-0.6512327790260315,0.33654269576072693
1681292581515796151,29175,1681292581515567937,j2s6s300_link_base,-0.31511861085891724,-0.5169681310653687,0.2292511761188507,0.3336039185523987,0.5960588455200195,-0.6503927707672119,0.33228206634521484
1681292581617134138,29176,1681292581616687716,j2s6s300_link_base,-0.31705498695373535,-0.513454258441925,0.22705784440040588,0.3394731283187866,0.59503173828125,-0.650917649269104,0.32711073756217957
1681292581717151392,29177,1681292581716687858,j2s6s300_link_base,-0.31856274604797363,-0.5111425518989563,0.22568729519844055,0.3428846597671509,0.5935350656509399,-0.6528722643852234,0.3223414123058319
1681292581817138194,29178,1681292581816690739,j2s6s300_link_base,-0.31935930252075195,-0.5093830823898315,0.22309379279613495,0.34525564312934875,0.5920320153236389,-0.6542845368385315,0.31970033049583435
1681292581917068024,29179,1681292581916684770,j2s6s300_link_base,-0.31928396224975586,-0.5073690414428711,0.22027312219142914,0.3466182053089142,0.5907589197158813,-0.6551555395126343,0.3187960088253021
1681292582017127742,29180,1681292582016687661,j2s6s300_link_base,-0.3194085955619812,-0.5036548376083374,0.21810397505760193,0.34727537631988525,0.5896512269973755,-0.6565247774124146,0.31731143593788147
1681292582117071576,29181,1681292582116647043,j2s6s300_link_base,-0.31933945417404175,-0.4971718192100525,0.21693098545074463,0.3473254144191742,0.5888758301734924,-0.657475471496582,0.31672751903533936
1681292582217125259,29182,1681292582216681216,j2s6s300_link_base,-0.3188325762748718,-0.48958179354667664,0.21579596400260925,0.34728050231933594,0.5886123776435852,-0.6579458713531494,0.3162895739078522
1681292582315832572,29183,1681292582315639530,j2s6s300_link_base,-0.31850484013557434,-0.4823743402957916,0.21421033143997192,0.3479803800582886,0.5887194871902466,-0.6577258706092834,0.31577813625335693
1681292582416966967,29184,1681292582416623249,j2s6s300_link_base,-0.3180989623069763,-0.4764877259731293,0.21293962001800537,0.34875187277793884,0.5876163840293884,-0.6583852767944336,0.31560713052749634
1681292582517026275,29185,1681292582516633959,j2s6s300_link_base,-0.3182028532028198,-0.47175368666648865,0.21022015810012817,0.3508132994174957,0.5837857127189636,-0.661980390548706,0.3128996193408966
1681292582617096544,29186,1681292582616719961,j2s6s300_link_base,-0.3183954656124115,-0.4684455096721649,0.20624969899654388,0.352168470621109,0.5780320763587952,-0.6675635576248169,0.3101855218410492
1681292582718132398,29187,1681292582717690677,j2s6s300_link_base,-0.31813207268714905,-0.46609699726104736,0.20104408264160156,0.35224369168281555,0.5729922652244568,-0.6719876527786255,0.30989813804626465
1681292582817110974,29188,1681292582816711786,j2s6s300_link_base,-0.3184775114059448,-0.4639570713043213,0.19612950086593628,0.35270291566848755,0.5696291327476501,-0.6749562621116638,0.3091237246990204
1681292582917060956,29189,1681292582916678955,j2s6s300_link_base,-0.31773415207862854,-0.4627021551132202,0.19191254675388336,0.3525264859199524,0.5707259178161621,-0.6729212999343872,0.3117273151874542
1681292583016948986,29190,1681292583016631040,j2s6s300_link_base,-0.3170899748802185,-0.4615987539291382,0.18974703550338745,0.3499187231063843,0.572990357875824,-0.6707150936126709,0.3152461647987366
1681292583115767138,29191,1681292583115648044,j2s6s300_link_base,-0.31704238057136536,-0.4606480002403259,0.18755821883678436,0.3480985760688782,0.5759934782981873,-0.6682049036026001,0.31711360812187195
1681292583217059243,29192,1681292583216679174,j2s6s300_link_base,-0.317254900932312,-0.45986658334732056,0.1858849674463272,0.3469837009906769,0.5781993269920349,-0.6663905382156372,0.31813767552375793
1681292583317076594,29193,1681292583316687711,j2s6s300_link_base,-0.3174607455730438,-0.45915526151657104,0.18474431335926056,0.34612056612968445,0.5796428322792053,-0.6651872396469116,0.3189679682254791
1681292583417083959,29194,1681292583416689876,j2s6s300_link_base,-0.3177660405635834,-0.45832690596580505,0.1826878786087036,0.3461766541004181,0.5804974436759949,-0.6639243960380554,0.31998249888420105
1681292583517076136,29195,1681292583516689031,j2s6s300_link_base,-0.31788644194602966,-0.4570024013519287,0.17821362614631653,0.34659692645072937,0.5818731784820557,-0.6622346639633179,0.32052987813949585
1681292583618098361,29196,1681292583617688476,j2s6s300_link_base,-0.31770750880241394,-0.45463553071022034,0.17181354761123657,0.34624189138412476,0.5838414430618286,-0.6609556078910828,0.3199741840362549
1681292583717106570,29197,1681292583716707171,j2s6s300_link_base,-0.3173735439777374,-0.4511178731918335,0.16543324291706085,0.3459073305130005,0.5847775340080261,-0.6600818037986755,0.3204299211502075
1681292583817077937,29198,1681292583816676497,j2s6s300_link_base,-0.3177340626716614,-0.4465802311897278,0.16060471534729004,0.34521055221557617,0.5853275656700134,-0.6602780222892761,0.31977200508117676
1681292583915840486,29199,1681292583915678562,j2s6s300_link_base,-0.3183254897594452,-0.44107764959335327,0.15714919567108154,0.3455294668674469,0.586128294467926,-0.6600594520568848,0.3184095323085785
1681292584017077212,29200,1681292584016686905,j2s6s300_link_base,-0.31823334097862244,-0.434255987405777,0.15446016192436218,0.3459666073322296,0.5872162580490112,-0.6592927575111389,0.31751748919487
1681292584116965511,29201,1681292584116641708,j2s6s300_link_base,-0.31819653511047363,-0.42727819085121155,0.15260253846645355,0.3476980924606323,0.5884918570518494,-0.6578613519668579,0.31623077392578125
1681292584217085821,29202,1681292584216680726,j2s6s300_link_base,-0.3177759349346161,-0.4212300479412079,0.15059714019298553,0.35075873136520386,0.5912454724311829,-0.6538918614387512,0.31594711542129517
1681292584315971339,29203,1681292584315621826,j2s6s300_link_base,-0.3176003396511078,-0.4163862466812134,0.1485181748867035,0.35301023721694946,0.5964164137840271,-0.6482558250427246,0.31533414125442505
1681292584416996332,29204,1681292584416642078,j2s6s300_link_base,-0.3176231384277344,-0.41280609369277954,0.14651057124137878,0.35391664505004883,0.6012462377548218,-0.6434184312820435,0.3150533139705658
1681292584517032848,29205,1681292584516646285,j2s6s300_link_base,-0.3179488480091095,-0.4100368618965149,0.1440294235944748,0.3543764054775238,0.6050583124160767,-0.6398363709449768,0.3145332336425781
1681292584617028609,29206,1681292584616642145,j2s6s300_link_base,-0.31820616126060486,-0.40760186314582825,0.1411154717206955,0.35445156693458557,0.6076189279556274,-0.6377582550048828,0.3137318789958954
1681292584715927804,29207,1681292584715709864,j2s6s300_link_base,-0.31797492504119873,-0.4050138592720032,0.13627146184444427,0.3547002077102661,0.6094532012939453,-0.6358832716941833,0.313698947429657
1681292584817105280,29208,1681292584816686197,j2s6s300_link_base,-0.31784847378730774,-0.4018671214580536,0.13076560199260712,0.3550177812576294,0.6107507348060608,-0.634305477142334,0.3140104413032532
1681292584917122397,29209,1681292584916684943,j2s6s300_link_base,-0.3180367648601532,-0.39800578355789185,0.12548711895942688,0.3549986481666565,0.6120933890342712,-0.633280336856842,0.3134864866733551
1681292585017126073,29210,1681292585016690061,j2s6s300_link_base,-0.31773486733436584,-0.3938045799732208,0.12085473537445068,0.3548528552055359,0.6161221861839294,-0.6290783882141113,0.31421858072280884
1681292585117101406,29211,1681292585116686823,j2s6s300_link_base,-0.31755882501602173,-0.3893214762210846,0.11546579003334045,0.3560754656791687,0.6257457137107849,-0.6195476055145264,0.31275150179862976
1681292585217122709,29212,1681292585216685313,j2s6s300_link_base,-0.3180457651615143,-0.3840984106063843,0.11155916750431061,0.35798338055610657,0.636167049407959,-0.6094655990600586,0.3093399107456207
1681292585317138766,29213,1681292585316689592,j2s6s300_link_base,-0.3178291916847229,-0.3784053921699524,0.10739820450544357,0.3601701259613037,0.6430995464324951,-0.6014862060546875,0.3080826699733734
1681292585417125235,29214,1681292585416692816,j2s6s300_link_base,-0.318024605512619,-0.3734219968318939,0.10322541743516922,0.3615528643131256,0.6479974985122681,-0.5959838628768921,0.30689099431037903
1681292585517147459,29215,1681292585516688035,j2s6s300_link_base,-0.31836944818496704,-0.3692038953304291,0.09804589301347733,0.36325564980506897,0.6509253978729248,-0.5924556255340576,0.3055124282836914
1681292585617114407,29216,1681292585616684648,j2s6s300_link_base,-0.31864920258522034,-0.3657282590866089,0.09224170446395874,0.36541351675987244,0.6528959274291992,-0.5893401503562927,0.30475914478302
1681292585717120005,29217,1681292585716687058,j2s6s300_link_base,-0.31849369406700134,-0.3618920147418976,0.08589246869087219,0.36570456624031067,0.6550194025039673,-0.5871978998184204,0.30398762226104736
1681292585817131459,29218,1681292585816689993,j2s6s300_link_base,-0.31777873635292053,-0.35695716738700867,0.07933128625154495,0.36542725563049316,0.6569283604621887,-0.5852645635604858,0.30393004417419434
1681292585917076623,29219,1681292585916675285,j2s6s300_link_base,-0.3175078332424164,-0.3513249158859253,0.07460852712392807,0.3655155599117279,0.6580484509468079,-0.5839020609855652,0.3040215075016022
1681292586017119615,29220,1681292586016684947,j2s6s300_link_base,-0.31772586703300476,-0.3458970785140991,0.07114256173372269,0.36563706398010254,0.6588902473449707,-0.5833105444908142,0.3031865060329437
1681292586117111064,29221,1681292586116682560,j2s6s300_link_base,-0.31801122426986694,-0.3405968248844147,0.06895916163921356,0.36568352580070496,0.6589527726173401,-0.5832897424697876,0.3030344843864441
1681292586217107292,29222,1681292586216687726,j2s6s300_link_base,-0.31840750575065613,-0.3352452218532562,0.06714890897274017,0.3659835159778595,0.659089207649231,-0.5829900503158569,0.30295222997665405
1681292586317091584,29223,1681292586316684895,j2s6s300_link_base,-0.3188866376876831,-0.3302214741706848,0.06584189087152481,0.36523985862731934,0.6598583459854126,-0.5830811262130737,0.301998496055603
1681292586417127253,29224,1681292586416686516,j2s6s300_link_base,-0.31921616196632385,-0.32511264085769653,0.06446042656898499,0.36525294184684753,0.6605839133262634,-0.582618772983551,0.3012881875038147
1681292586517135981,29225,1681292586516689813,j2s6s300_link_base,-0.31928256154060364,-0.3193691372871399,0.0634884163737297,0.36509090662002563,0.6608501076698303,-0.5824971199035645,0.3011361360549927
1681292586617130276,29226,1681292586616689379,j2s6s300_link_base,-0.3195623755455017,-0.31292444467544556,0.061925001442432404,0.3651731312274933,0.6611811518669128,-0.582037627696991,0.3011981248855591
1681292586718110293,29227,1681292586717687072,j2s6s300_link_base,-0.32096391916275024,-0.3066718578338623,0.059619735926389694,0.36392611265182495,0.6634705066680908,-0.5796455144882202,0.30228424072265625
1681292586817116444,29228,1681292586816702662,j2s6s300_link_base,-0.32481712102890015,-0.3018483817577362,0.056998662650585175,0.36274421215057373,0.6651243567466736,-0.5779938101768494,0.3032313585281372
1681292586918119318,29229,1681292586917689440,j2s6s300_link_base,-0.3281172215938568,-0.29810452461242676,0.05425625666975975,0.36204755306243896,0.6663836240768433,-0.5767251253128052,0.3037146031856537
1681292587017124240,29230,1681292587016685622,j2s6s300_link_base,-0.3302750289440155,-0.2956501245498657,0.05076903477311134,0.36208656430244446,0.6671445965766907,-0.5752974152565002,0.30470356345176697
1681292587118118215,29231,1681292587117685402,j2s6s300_link_base,-0.33193904161453247,-0.29363006353378296,0.04636841267347336,0.3620830178260803,0.6675931811332703,-0.5744944214820862,0.3052397072315216
1681292587216046271,29232,1681292587215822108,j2s6s300_link_base,-0.3336011469364166,-0.2921029329299927,0.04207481071352959,0.36328446865081787,0.6683916449546814,-0.5734706521034241,0.3039873540401459
1681292587317077538,29233,1681292587316673309,j2s6s300_link_base,-0.33454981446266174,-0.29083913564682007,0.037896573543548584,0.36528536677360535,0.6691578030586243,-0.5718206763267517,0.3030109107494354
1681292587417089720,29234,1681292587416674547,j2s6s300_link_base,-0.3350837528705597,-0.2894524037837982,0.0338141955435276,0.36717844009399414,0.6697589159011841,-0.5702906847000122,0.30227723717689514
1681292587517110208,29235,1681292587516685807,j2s6s300_link_base,-0.33555757999420166,-0.28733694553375244,0.030318673700094223,0.3687616288661957,0.6708258986473083,-0.5689268708229065,0.3005487322807312
1681292587617064269,29236,1681292587616680212,j2s6s300_link_base,-0.33626505732536316,-0.2836521565914154,0.026953499764204025,0.3717465102672577,0.6736469864845276,-0.5660267472267151,0.29600346088409424
1681292587717105524,29237,1681292587716686146,j2s6s300_link_base,-0.3357764482498169,-0.2791751027107239,0.024055734276771545,0.3761402666568756,0.676734983921051,-0.5620869398117065,0.29087212681770325
1681292587817126565,29238,1681292587816687411,j2s6s300_link_base,-0.33584266901016235,-0.2750977873802185,0.021519672125577927,0.3803301453590393,0.6793580055236816,-0.5588528513908386,0.28549110889434814
1681292587917057194,29239,1681292587916658283,j2s6s300_link_base,-0.3364740014076233,-0.2722366750240326,0.019302785396575928,0.3828803598880768,0.6809654235839844,-0.5573463439941406,0.2811650335788727
1681292588017069826,29240,1681292588016675233,j2s6s300_link_base,-0.33614039421081543,-0.2701689600944519,0.015283416956663132,0.3849407434463501,0.6821236610412598,-0.5557475686073303,0.27869823575019836
1681292588117083519,29241,1681292588116686462,j2s6s300_link_base,-0.3355405628681183,-0.2684310972690582,0.009974006563425064,0.38715875148773193,0.6828593015670776,-0.554201602935791,0.27689671516418457
1681292588217096197,29242,1681292588216680878,j2s6s300_link_base,-0.3358541429042816,-0.2668503224849701,0.004302356392145157,0.3888673484325409,0.6835219264030457,-0.5530471205711365,0.2751707434654236
1681292588318050063,29243,1681292588317660149,j2s6s300_link_base,-0.3363701105117798,-0.26553624868392944,-0.0004540979862213135,0.38838717341423035,0.686516284942627,-0.5500831007957458,0.2743343114852905
1681292588417078728,29244,1681292588416687860,j2s6s300_link_base,-0.3359326720237732,-0.2642260491847992,-0.004526056349277496,0.38683685660362244,0.6915927529335022,-0.5438129901885986,0.27626824378967285
1681292588517088177,29245,1681292588516686603,j2s6s300_link_base,-0.3353676497936249,-0.2625073194503784,-0.008122503757476807,0.38623306155204773,0.6971567869186401,-0.5363374352455139,0.2777383625507355
1681292588617081589,29246,1681292588616684947,j2s6s300_link_base,-0.3359389901161194,-0.26051127910614014,-0.010739870369434357,0.38825610280036926,0.7033767700195312,-0.5284114480018616,0.2744078040122986
1681292588717105614,29247,1681292588716701723,j2s6s300_link_base,-0.33670681715011597,-0.258014976978302,-0.01248970627784729,0.3942621946334839,0.7091129422187805,-0.5196666121482849,0.26769915223121643
1681292588817089672,29248,1681292588816684840,j2s6s300_link_base,-0.3361615836620331,-0.2545137405395508,-0.013790041208267212,0.3989490866661072,0.7134153246879578,-0.5125523805618286,0.26299843192100525
1681292588917088174,29249,1681292588916685537,j2s6s300_link_base,-0.3354295790195465,-0.25052404403686523,-0.015514068305492401,0.402355819940567,0.7163590788841248,-0.5074856281280518,0.2596111595630646
1681292589017088046,29250,1681292589016687309,j2s6s300_link_base,-0.33578112721443176,-0.24693740904331207,-0.017348513007164,0.40425005555152893,0.7189445495605469,-0.5043246150016785,0.2556507885456085
1681292589117070078,29251,1681292589116673469,j2s6s300_link_base,-0.33590638637542725,-0.24452276527881622,-0.01891399174928665,0.4055931270122528,0.720843493938446,-0.5017477869987488,0.2532351613044739
1681292589217079394,29252,1681292589216682762,j2s6s300_link_base,-0.3361917734146118,-0.24257256090641022,-0.020111121237277985,0.406399667263031,0.7226523160934448,-0.49928390979766846,0.25165149569511414
1681292589317085846,29253,1681292589316685317,j2s6s300_link_base,-0.3352780044078827,-0.24083003401756287,-0.02166932076215744,0.40539640188217163,0.7270723581314087,-0.49349722266197205,0.25195249915122986
1681292589417099211,29254,1681292589416696747,j2s6s300_link_base,-0.3341703414916992,-0.23909185826778412,-0.023170366883277893,0.40388715267181396,0.7334672808647156,-0.4824114739894867,0.25725504755973816
1681292589517074116,29255,1681292589516686499,j2s6s300_link_base,-0.33452853560447693,-0.23754410445690155,-0.025364361703395844,0.40396103262901306,0.7405726313591003,-0.4704987108707428,0.258840948343277
1681292589616022578,29256,1681292589615671564,j2s6s300_link_base,-0.3352423906326294,-0.23642975091934204,-0.028524868190288544,0.4059872031211853,0.748622715473175,-0.4584461450576782,0.2540974020957947
1681292589717067919,29257,1681292589716673709,j2s6s300_link_base,-0.3371068835258484,-0.2354181408882141,-0.03275412321090698,0.41387900710105896,0.7556392550468445,-0.44568493962287903,0.2430606335401535
1681292589817093841,29258,1681292589816687955,j2s6s300_link_base,-0.33746692538261414,-0.23492108285427094,-0.03802657127380371,0.41990140080451965,0.7612622380256653,-0.4355076849460602,0.23344336450099945
1681292589917087071,29259,1681292589916685281,j2s6s300_link_base,-0.33838558197021484,-0.23511622846126556,-0.043441832065582275,0.42241600155830383,0.7659905552864075,-0.4292169511318207,0.2249354124069214
1681292590017103414,29260,1681292590016683478,j2s6s300_link_base,-0.3377699851989746,-0.23539555072784424,-0.04953494668006897,0.42457932233810425,0.76936274766922,-0.42349839210510254,0.22014214098453522
1681292590118254217,29261,1681292590117750989,j2s6s300_link_base,-0.33716121315956116,-0.23554843664169312,-0.054059773683547974,0.4263029992580414,0.7714903950691223,-0.4194585978984833,0.21707825362682343
1681292590217120957,29262,1681292590216685960,j2s6s300_link_base,-0.3364691436290741,-0.23494574427604675,-0.058092281222343445,0.426606684923172,0.7753970623016357,-0.41245558857917786,0.21597816050052643
1681292590317099882,29263,1681292590316685209,j2s6s300_link_base,-0.3358505964279175,-0.23367619514465332,-0.060754626989364624,0.42600923776626587,0.7796485424041748,-0.4041445255279541,0.21755795180797577
1681292590416078695,29264,1681292590415670250,j2s6s300_link_base,-0.3364575207233429,-0.2308289110660553,-0.06196315586566925,0.42778825759887695,0.7853994965553284,-0.39292111992836,0.21391107141971588
1681292590517111505,29265,1681292590516682005,j2s6s300_link_base,-0.336858332157135,-0.22652184963226318,-0.06281815469264984,0.43418121337890625,0.7916367650032043,-0.3784758448600769,0.20384791493415833
1681292590617104697,29266,1681292590616686225,j2s6s300_link_base,-0.3364548683166504,-0.221679225564003,-0.06220753490924835,0.4380137026309967,0.7967120409011841,-0.3677414655685425,0.19534635543823242
1681292590717080882,29267,1681292590716685178,j2s6s300_link_base,-0.33592405915260315,-0.21589767932891846,-0.060929909348487854,0.43987125158309937,0.8006089329719543,-0.3602144420146942,0.18916745483875275
1681292590817125470,29268,1681292590816682528,j2s6s300_link_base,-0.33610883355140686,-0.20883165299892426,-0.06012439727783203,0.4422452747821808,0.8029526472091675,-0.3547578752040863,0.18393738567829132
1681292590917136652,29269,1681292590916698443,j2s6s300_link_base,-0.3362235426902771,-0.2026498168706894,-0.05933082103729248,0.44369420409202576,0.8050607442855835,-0.3504689931869507,0.17939898371696472
1681292591017098275,29270,1681292591016688163,j2s6s300_link_base,-0.33623114228248596,-0.19668987393379211,-0.05893169343471527,0.4467800259590149,0.8097668290138245,-0.33931973576545715,0.17183545231819153
1681292591117100254,29271,1681292591116699860,j2s6s300_link_base,-0.33724159002304077,-0.19063320755958557,-0.0578751266002655,0.45149505138397217,0.8176981806755066,-0.3186121881008148,0.16127055883407593
1681292591217106345,29272,1681292591216704394,j2s6s300_link_base,-0.33768707513809204,-0.18536989390850067,-0.05568161606788635,0.4564927816390991,0.8252715468406677,-0.29475724697113037,0.15381649136543274
1681292591317089523,29273,1681292591316682684,j2s6s300_link_base,-0.33742067217826843,-0.17977115511894226,-0.053420379757881165,0.45998749136924744,0.8328754901885986,-0.2731258273124695,0.1418881118297577
1681292591417075289,29274,1681292591416685298,j2s6s300_link_base,-0.3370995819568634,-0.1739254891872406,-0.05105967819690704,0.46722522377967834,0.837073028087616,-0.2561536431312561,0.12407544255256653
1681292591517092233,29275,1681292591516684728,j2s6s300_link_base,-0.336007684469223,-0.1687704175710678,-0.04825085401535034,0.47320258617401123,0.8399122357368469,-0.24404297769069672,0.10521288961172104
1681292591617084450,29276,1681292591616684584,j2s6s300_link_base,-0.33386245369911194,-0.16287168860435486,-0.04373699426651001,0.47785383462905884,0.8442224264144897,-0.22576722502708435,0.08929383754730225
1681292591717088005,29277,1681292591716683552,j2s6s300_link_base,-0.3318074345588684,-0.157322496175766,-0.03788793087005615,0.479720801115036,0.8492892980575562,-0.20435303449630737,0.08255688846111298
1681292591818214947,29278,1681292591817745347,j2s6s300_link_base,-0.32927921414375305,-0.15387940406799316,-0.033181145787239075,0.48003074526786804,0.8528985977172852,-0.18811418116092682,0.08214398473501205
1681292591917037964,29279,1681292591916682763,j2s6s300_link_base,-0.3285932242870331,-0.14886775612831116,-0.02823103964328766,0.4829123020172119,0.8558370471000671,-0.16928353905677795,0.0753769651055336
1681292592015868339,29280,1681292592015625320,j2s6s300_link_base,-0.32899633049964905,-0.1433616280555725,-0.023098260164260864,0.48584267497062683,0.8576794862747192,-0.15678979456424713,0.061316728591918945
1681292592117082524,29281,1681292592116681666,j2s6s300_link_base,-0.3279644548892975,-0.13951006531715393,-0.019466891884803772,0.48650166392326355,0.8584344387054443,-0.1544870287179947,0.050399065017700195
1681292592217080554,29282,1681292592216685498,j2s6s300_link_base,-0.3263223469257355,-0.1352623701095581,-0.01664033532142639,0.4852570593357086,0.8597710728645325,-0.15361285209655762,0.041499633342027664
1681292592315061388,29283,1681292592314799897,j2s6s300_link_base,-0.3248249292373657,-0.13042059540748596,-0.013308018445968628,0.48508980870246887,0.8603528141975403,-0.1526722013950348,0.03423777595162392
1681292592417059972,29284,1681292592416671318,j2s6s300_link_base,-0.3234568238258362,-0.12619303166866302,-0.009290486574172974,0.4849206507205963,0.8615525364875793,-0.14690619707107544,0.031589314341545105
1681292592517080550,29285,1681292592516680285,j2s6s300_link_base,-0.3218585252761841,-0.12364024668931961,-0.0062122642993927,0.48610061407089233,0.861923336982727,-0.1404435634613037,0.03271312639117241
1681292592618093626,29286,1681292592617679817,j2s6s300_link_base,-0.3205734193325043,-0.12174317240715027,-0.0034747719764709473,0.48714354634284973,0.8621193170547485,-0.13519030809402466,0.034132640808820724
1681292592717093670,29287,1681292592716685196,j2s6s300_link_base,-0.32118353247642517,-0.12006589770317078,-0.0008210837841033936,0.48735976219177246,0.8624810576438904,-0.13264384865760803,0.03182206302881241
1681292592815883294,29288,1681292592815642632,j2s6s300_link_base,-0.32222700119018555,-0.11960725486278534,0.0014126002788543701,0.4872763752937317,0.8625385165214539,-0.13315346837043762,0.029312435537576675
1681292592918116305,29289,1681292592917681997,j2s6s300_link_base,-0.32226046919822693,-0.11936896294355392,0.0027487874031066895,0.4867810606956482,0.8628126978874207,-0.13342499732971191,0.02821597456932068
1681292593017135288,29290,1681292593016691313,j2s6s300_link_base,-0.3221854865550995,-0.11933931708335876,0.0029240846633911133,0.48649635910987854,0.8629764318466187,-0.13342337310314178,0.028127245604991913
1681292593117069981,29291,1681292593116681637,j2s6s300_link_base,-0.32215461134910583,-0.11933623999357224,0.0029279887676239014,0.48638689517974854,0.8630412817001343,-0.13340041041374207,0.02814250811934471
1681292593217118955,29292,1681292593216685158,j2s6s300_link_base,-0.3221498429775238,-0.11933688819408417,0.0029280483722686768,0.4863605499267578,0.8630566000938416,-0.13339591026306152,0.028145570307970047
1681292593317132001,29293,1681292593316685884,j2s6s300_link_base,-0.32214948534965515,-0.11933593451976776,0.002928823232650757,0.4863585829734802,0.8630580902099609,-0.13339394330978394,0.028145015239715576
1681292593418265305,29294,1681292593417752587,j2s6s300_link_base,-0.32214799523353577,-0.11933521181344986,0.00292852520942688,0.4863607585430145,0.8630570769309998,-0.1333918571472168,0.028146371245384216
1681292593518071171,29295,1681292593517677926,j2s6s300_link_base,-0.3221485912799835,-0.1193353682756424,0.0029285848140716553,0.48636195063591003,0.8630564212799072,-0.13339200615882874,0.028146442025899887
1681292593616046109,29296,1681292593615793673,j2s6s300_link_base,-0.322144091129303,-0.11933419108390808,0.0029276013374328613,0.48636549711227417,0.8630548715591431,-0.1333881914615631,0.02815006673336029
1681292593717135748,29297,1681292593716687247,j2s6s300_link_base,-0.32214343547821045,-0.119334876537323,0.002929508686065674,0.48636695742607117,0.8630541563034058,-0.13338790833950043,0.02814902737736702
1681292593818084446,29298,1681292593817673797,j2s6s300_link_base,-0.3221387267112732,-0.11934307217597961,0.002928793430328369,0.48635682463645935,0.8630599975585938,-0.13338632881641388,0.028152693063020706
1681292593918125514,29299,1681292593917685587,j2s6s300_link_base,-0.32213664054870605,-0.11934423446655273,0.0029280781745910645,0.4863564372062683,0.863060474395752,-0.13338406383991241,0.028154101222753525
1681292594017125651,29300,1681292594016684341,j2s6s300_link_base,-0.322136789560318,-0.11934903264045715,0.0029281973838806152,0.48635226488113403,0.8630626797676086,-0.1333848088979721,0.028154049068689346
1681292594117088536,29301,1681292594116669457,j2s6s300_link_base,-0.322136789560318,-0.11934903264045715,0.0029281973838806152,0.4863547384738922,0.8630613088607788,-0.13338473439216614,0.028154432773590088
1681292594217126779,29302,1681292594216699605,j2s6s300_link_base,-0.3221367299556732,-0.1193484216928482,0.0029280483722686768,0.486355721950531,0.8630609512329102,-0.1333836168050766,0.028154101222753525
1681292594317149640,29303,1681292594316686832,j2s6s300_link_base,-0.32213711738586426,-0.11934847384691238,0.00292852520942688,0.48635637760162354,0.863060474395752,-0.13338401913642883,0.028153665363788605
1681292594415832337,29304,1681292594415641388,j2s6s300_link_base,-0.3221365213394165,-0.11934903264045715,0.0029280483722686768,0.48635733127593994,0.8630600571632385,-0.13338343799114227,0.028154581785202026
1681292594517138804,29305,1681292594516691429,j2s6s300_link_base,-0.3221369981765747,-0.11934772878885269,0.0029280483722686768,0.4863598346710205,0.8630586266517639,-0.13338351249694824,0.028154432773590088
1681292594618276759,29306,1681292594617754699,j2s6s300_link_base,-0.3221367299556732,-0.1193484216928482,0.0029280483722686768,0.48635971546173096,0.8630586862564087,-0.13338348269462585,0.028154723346233368
1681292594718135259,29307,1681292594717685674,j2s6s300_link_base,-0.3221367299556732,-0.1193484216928482,0.0029280483722686768,0.48636096715927124,0.8630580902099609,-0.13338343799114227,0.028154905885457993
1681292594818061346,29308,1681292594817639169,j2s6s300_link_base,-0.3221369981765747,-0.11934772878885269,0.0029280483722686768,0.48636314272880554,0.8630567789077759,-0.1333833932876587,0.028154946863651276
1681292594917057333,29309,1681292594916675028,j2s6s300_link_base,-0.3221369981765747,-0.11934772878885269,0.0029280483722686768,0.48636314272880554,0.8630567789077759,-0.1333833932876587,0.028154946863651276
1681292595017122946,29310,1681292595016684122,j2s6s300_link_base,-0.3221369981765747,-0.11934772878885269,0.0029280483722686768,0.48636409640312195,0.8630563020706177,-0.1333833783864975,0.02815508469939232
1681292595117106414,29311,1681292595116683707,j2s6s300_link_base,-0.3221367299556732,-0.1193484216928482,0.0029280483722686768,0.486363023519516,0.8630568981170654,-0.1333833634853363,0.02815522998571396
1681292595215796436,29312,1681292595215613171,j2s6s300_link_base,-0.32213667035102844,-0.11934781074523926,0.0029278695583343506,0.4863644540309906,0.8630562424659729,-0.13338226079940796,0.028154972940683365
1681292595318038458,29313,1681292595317638941,j2s6s300_link_base,-0.32213667035102844,-0.11934781074523926,0.0029278695583343506,0.4863644540309906,0.8630562424659729,-0.13338226079940796,0.028154972940683365
1681292595417129622,29314,1681292595416684649,j2s6s300_link_base,-0.32213667035102844,-0.11934781074523926,0.0029278695583343506,0.4863644540309906,0.8630562424659729,-0.13338226079940796,0.028154972940683365
1681292595517087738,29315,1681292595516671675,j2s6s300_link_base,-0.32213693857192993,-0.11934712529182434,0.0029278695583343506,0.4863665699958801,0.8630551099777222,-0.13338221609592438,0.028154991567134857
1681292595617135217,29316,1681292595616686884,j2s6s300_link_base,-0.32213693857192993,-0.11934712529182434,0.0029278695583343506,0.4863665699958801,0.8630551099777222,-0.13338221609592438,0.028154991567134857
1681292595717084049,29317,1681292595716663001,j2s6s300_link_base,-0.32213667035102844,-0.11934781074523926,0.0029278695583343506,0.48636654019355774,0.8630550503730774,-0.133382186293602,0.028155289590358734
1681292595818084388,29318,1681292595817684235,j2s6s300_link_base,-0.32213693857192993,-0.11934712529182434,0.0029278695583343506,0.4863673746585846,0.8630545735359192,-0.133382186293602,0.028155121952295303
1681292595917093571,29319,1681292595916685851,j2s6s300_link_base,-0.32213693857192993,-0.11934712529182434,0.0029278695583343506,0.4863673746585846,0.8630545735359192,-0.133382186293602,0.028155121952295303
1681292596015903968,29320,1681292596015686196,j2s6s300_link_base,-0.32213693857192993,-0.11934712529182434,0.0029278695583343506,0.4863673746585846,0.8630545735359192,-0.133382186293602,0.028155121952295303
1681292596117110103,29321,1681292596116681170,j2s6s300_link_base,-0.32213693857192993,-0.11934712529182434,0.0029278695583343506,0.4863686263561249,0.8630539178848267,-0.1333821415901184,0.028155311942100525
1681292596217132778,29322,1681292596216685704,j2s6s300_link_base,-0.32213667035102844,-0.11934781074523926,0.0029278695583343506,0.48636773228645325,0.8630543947219849,-0.1333821415901184,0.028155479580163956
