%time,field.header.seq,field.header.stamp,field.header.frame_id,field.pose.position.x,field.pose.position.y,field.pose.position.z,field.pose.orientation.x,field.pose.orientation.y,field.pose.orientation.z,field.pose.orientation.w
1681293071317132160,34073,1681293071316579416,j2s6s300_link_base,0.2950129508972168,-0.25552839040756226,0.027411893010139465,-0.18948405981063843,0.7189965844154358,-0.1438082754611969,0.6530382633209229
1681293071416984569,34074,1681293071416572463,j2s6s300_link_base,0.2950129508972168,-0.25552839040756226,0.027411893010139465,-0.18948405981063843,0.7189965844154358,-0.1438082754611969,0.6530382633209229
1681293071516956068,34075,1681293071516569847,j2s6s300_link_base,0.2950129508972168,-0.25552839040756226,0.027411893010139465,-0.18948405981063843,0.7189965844154358,-0.1438082754611969,0.6530382633209229
1681293071616910831,34076,1681293071616570187,j2s6s300_link_base,0.2950129508972168,-0.25552839040756226,0.027411893010139465,-0.18948405981063843,0.7189965844154358,-0.1438082754611969,0.6530382633209229
1681293071716855283,34077,1681293071716535039,j2s6s300_link_base,0.2950129508972168,-0.25552839040756226,0.027411893010139465,-0.18948405981063843,0.7189965844154358,-0.1438082754611969,0.6530382633209229
1681293071816938353,34078,1681293071816537235,j2s6s300_link_base,0.2950129508972168,-0.25552839040756226,0.027411893010139465,-0.18948405981063843,0.7189965844154358,-0.1438082754611969,0.6530382633209229
1681293071916919684,34079,1681293071916535803,j2s6s300_link_base,0.2950129508972168,-0.25552839040756226,0.027411893010139465,-0.18948405981063843,0.7189965844154358,-0.1438082754611969,0.6530382633209229
1681293072016925620,34080,1681293072016530352,j2s6s300_link_base,0.2950129508972168,-0.25552839040756226,0.027411893010139465,-0.18948405981063843,0.7189965844154358,-0.1438082754611969,0.6530382633209229
1681293072116935626,34081,1681293072116532251,j2s6s300_link_base,0.2950129508972168,-0.25552839040756226,0.027411893010139465,-0.18948405981063843,0.7189965844154358,-0.1438082754611969,0.6530382633209229
1681293072217946219,34082,1681293072217536255,j2s6s300_link_base,0.2950129508972168,-0.25552839040756226,0.027411893010139465,-0.18948405981063843,0.7189965844154358,-0.1438082754611969,0.6530382633209229
1681293072317928185,34083,1681293072317529353,j2s6s300_link_base,0.2950130105018616,-0.25552889704704285,0.027411675080657005,-0.18948453664779663,0.7189963459968567,-0.14380887150764465,0.6530381441116333
1681293072416925978,34084,1681293072416530025,j2s6s300_link_base,0.29501309990882874,-0.2555299997329712,0.027411241084337234,-0.18948568403720856,0.718995988368988,-0.1438102275133133,0.6530380249023438
1681293072516922208,34085,1681293072516538181,j2s6s300_link_base,0.29501116275787354,-0.25553402304649353,0.02741311304271221,-0.18948489427566528,0.7189961075782776,-0.1438153088092804,0.6530369520187378
1681293072616934026,34086,1681293072616533843,j2s6s300_link_base,0.2950121760368347,-0.25553324818611145,0.027413513511419296,-0.18948665261268616,0.7189955711364746,-0.14381450414657593,0.6530371308326721
1681293072715925721,34087,1681293072715535962,j2s6s300_link_base,0.29501134157180786,-0.2555358111858368,0.02741510234773159,-0.18948718905448914,0.7189953327178955,-0.1438179612159729,0.6530365347862244
1681293072817931307,34088,1681293072817534082,j2s6s300_link_base,0.29501134157180786,-0.2555501461029053,0.027428332716226578,-0.18950216472148895,0.7189905643463135,-0.14383834600448608,0.6530329585075378
1681293072916976775,34089,1681293072916553178,j2s6s300_link_base,0.2950105369091034,-0.25559160113334656,0.027465226128697395,-0.18954333662986755,0.7189773917198181,-0.14389722049236298,0.6530225276947021
1681293073016967438,34090,1681293073016535760,j2s6s300_link_base,0.2950163185596466,-0.25605708360671997,0.02774442918598652,-0.18996965885162354,0.7188968062400818,-0.14391915500164032,0.6529824733734131
1681293073118082269,34091,1681293073117533414,j2s6s300_link_base,0.29482898116111755,-0.25634846091270447,0.028184641152620316,-0.1940147429704666,0.719626784324646,-0.13909544050693512,0.6520339250564575
1681293073216998684,34092,1681293073216568403,j2s6s300_link_base,0.294534832239151,-0.2575647532939911,0.027705788612365723,-0.20140977203845978,0.7219591736793518,-0.12906956672668457,0.6492689251899719
1681293073316995298,34093,1681293073316566100,j2s6s300_link_base,0.2938033938407898,-0.26060256361961365,0.02746780961751938,-0.21049460768699646,0.7242074012756348,-0.11675924062728882,0.6462065577507019
1681293073416967103,34094,1681293073416533295,j2s6s300_link_base,0.2917850911617279,-0.2643011510372162,0.027507394552230835,-0.21849621832370758,0.7251991033554077,-0.1080487072467804,0.6439496278762817
1681293073515804519,34095,1681293073515509375,j2s6s300_link_base,0.28809496760368347,-0.2677220106124878,0.027881111949682236,-0.22469934821128845,0.7254022359848022,-0.1026749312877655,0.642463743686676
1681293073616953215,34096,1681293073616523728,j2s6s300_link_base,0.2841855585575104,-0.2704731225967407,0.028155885636806488,-0.22867389023303986,0.7258681058883667,-0.09890912473201752,0.6411246061325073
1681293073716986897,34097,1681293073716583051,j2s6s300_link_base,0.2813434898853302,-0.272857129573822,0.02841988578438759,-0.2317536324262619,0.7259576320648193,-0.09662558138370514,0.6402649879455566
1681293073818030040,34098,1681293073817575650,j2s6s300_link_base,0.27878865599632263,-0.2767283618450165,0.028815720230340958,-0.23302091658115387,0.7263160943984985,-0.096030592918396,0.6394875049591064
1681293073917009762,34099,1681293073916569462,j2s6s300_link_base,0.27729958295822144,-0.2813517153263092,0.029125235974788666,-0.23310278356075287,0.7265644073486328,-0.09485974907875061,0.6393503546714783
1681293074016992170,34100,1681293074016579643,j2s6s300_link_base,0.27599743008613586,-0.2887676954269409,0.029252801090478897,-0.23347990214824677,0.726813018321991,-0.09307444095611572,0.639192521572113
1681293074117021851,34101,1681293074116582383,j2s6s300_link_base,0.2748618721961975,-0.2980492413043976,0.028855472803115845,-0.23430001735687256,0.7273752093315125,-0.09195633232593536,0.6384143233299255
1681293074216976462,34102,1681293074216571431,j2s6s300_link_base,0.2739216089248657,-0.3070830702781677,0.028132658451795578,-0.2350732535123825,0.7280828952789307,-0.09127436578273773,0.6374205350875854
1681293074315733430,34103,1681293074315525822,j2s6s300_link_base,0.2732458710670471,-0.315094918012619,0.027786117047071457,-0.2348717302083969,0.7283953428268433,-0.09276160597801208,0.6369228363037109
1681293074417040169,34104,1681293074416609565,j2s6s300_link_base,0.2728077173233032,-0.3214264214038849,0.027771979570388794,-0.23379342257976532,0.7282116413116455,-0.09507249295711517,0.6371889114379883
1681293074516998241,34105,1681293074516586116,j2s6s300_link_base,0.27241194248199463,-0.32699209451675415,0.027833689004182816,-0.23298528790473938,0.7281557321548462,-0.09744212031364441,0.6371909379959106
1681293074617039953,34106,1681293074616584443,j2s6s300_link_base,0.2721363306045532,-0.33400264382362366,0.028434976935386658,-0.231394961476326,0.7281727194786072,-0.099217489361763,0.6374768018722534
1681293074717957984,34107,1681293074717572251,j2s6s300_link_base,0.27200815081596375,-0.34407469630241394,0.029776569455862045,-0.23138836026191711,0.7279306650161743,-0.10107482969760895,0.6374639272689819
1681293074816920786,34108,1681293074816573194,j2s6s300_link_base,0.2718753516674042,-0.3523874580860138,0.03144349902868271,-0.2327153980731964,0.7273321747779846,-0.10265669226646423,0.6374111175537109
1681293074917000533,34109,1681293074916599406,j2s6s300_link_base,0.27174216508865356,-0.36156705021858215,0.03453589230775833,-0.23433253169059753,0.7260076403617859,-0.1047123521566391,0.637994110584259
1681293075017020838,34110,1681293075016578348,j2s6s300_link_base,0.2717139720916748,-0.370856910943985,0.03767689689993858,-0.23616524040699005,0.7253519296646118,-0.10666674375534058,0.6377403140068054
1681293075115639784,34111,1681293075115474089,j2s6s300_link_base,0.27167609333992004,-0.3799593150615692,0.041282519698143005,-0.23788481950759888,0.7247843146324158,-0.10828669369220734,0.6374734044075012
1681293075216997768,34112,1681293075216568102,j2s6s300_link_base,0.2717347741127014,-0.38777756690979004,0.0454452782869339,-0.23935376107692719,0.724200963973999,-0.10962602496147156,0.6373577117919922
1681293075317009672,34113,1681293075316569904,j2s6s300_link_base,0.27175474166870117,-0.39438968896865845,0.04979955032467842,-0.24033398926258087,0.7240867018699646,-0.11110936105251312,0.6368616223335266
1681293075417912893,34114,1681293075417568923,j2s6s300_link_base,0.27167952060699463,-0.40115615725517273,0.054742783308029175,-0.24067041277885437,0.7239581346511841,-0.11260545253753662,0.63661789894104
1681293075515735670,34115,1681293075515581755,j2s6s300_link_base,0.27156341075897217,-0.4074435830116272,0.05909671634435654,-0.2408272624015808,0.7233388423919678,-0.11343686282634735,0.6371147632598877
1681293075616993614,34116,1681293075616569750,j2s6s300_link_base,0.271464079618454,-0.4159640371799469,0.06377476453781128,-0.24056504666805267,0.7230832576751709,-0.11365289986133575,0.6374654173851013
1681293075716966195,34117,1681293075716542139,j2s6s300_link_base,0.2713780999183655,-0.4243985712528229,0.06824848055839539,-0.2405543029308319,0.7231296896934509,-0.11346882581710815,0.6374495029449463
1681293075816942181,34118,1681293075816544912,j2s6s300_link_base,0.2713519334793091,-0.43292224407196045,0.0732070803642273,-0.24048961699008942,0.7229965329170227,-0.1135420948266983,0.6376119256019592
1681293075915763281,34119,1681293075915557164,j2s6s300_link_base,0.27124765515327454,-0.44149646162986755,0.07884541153907776,-0.23994749784469604,0.7227387428283691,-0.11463604867458344,0.6379125118255615
1681293076016987501,34120,1681293076016558843,j2s6s300_link_base,0.2713370621204376,-0.4492185413837433,0.08564683794975281,-0.23920227587223053,0.7219029068946838,-0.11573553085327148,0.638939619064331
1681293076116988572,34121,1681293076116579999,j2s6s300_link_base,0.27128398418426514,-0.4565368592739105,0.09265812486410141,-0.23842433094978333,0.7217342853546143,-0.11670546233654022,0.6392441987991333
1681293076217000864,34122,1681293076216572430,j2s6s300_link_base,0.2713649570941925,-0.46358346939086914,0.09997819364070892,-0.23795253038406372,0.7215113043785095,-0.11763034760951996,0.6395023465156555
1681293076316992103,34123,1681293076316569272,j2s6s300_link_base,0.27143001556396484,-0.47035542130470276,0.10731734335422516,-0.23771466314792633,0.7213998436927795,-0.11806012690067291,0.6396372318267822
1681293076416928817,34124,1681293076416534831,j2s6s300_link_base,0.27144932746887207,-0.4774826169013977,0.11483936011791229,-0.23741090297698975,0.7212690114974976,-0.11863750219345093,0.6397907733917236
1681293076516911897,34125,1681293076516533928,j2s6s300_link_base,0.27125704288482666,-0.4845670461654663,0.1221187561750412,-0.23707106709480286,0.7209609746932983,-0.11896683275699615,0.6402026414871216
1681293076616973446,34126,1681293076616535133,j2s6s300_link_base,0.27126556634902954,-0.49158239364624023,0.12908828258514404,-0.23681971430778503,0.7209872007369995,-0.11905941367149353,0.6402490139007568
1681293076715780011,34127,1681293076715566667,j2s6s300_link_base,0.27132201194763184,-0.49846407771110535,0.13615015149116516,-0.23671813309192657,0.7208398580551147,-0.1189199686050415,0.640478253364563
1681293076816980413,34128,1681293076816574128,j2s6s300_link_base,0.2712996304035187,-0.5052922368049622,0.14307838678359985,-0.23702484369277954,0.7211793065071106,-0.1185978502035141,0.6400423645973206
1681293076917000097,34129,1681293076916569437,j2s6s300_link_base,0.27121517062187195,-0.5118371844291687,0.14924588799476624,-0.23703186213970184,0.7221124768257141,-0.11794017255306244,0.639108419418335
1681293077017039073,34130,1681293077016585874,j2s6s300_link_base,0.27119722962379456,-0.5177251100540161,0.15679827332496643,-0.23729920387268066,0.722258985042572,-0.11757734417915344,0.6389105319976807
1681293077117023785,34131,1681293077116583403,j2s6s300_link_base,0.27113765478134155,-0.522535502910614,0.16467544436454773,-0.2374623715877533,0.7226866483688354,-0.11692628264427185,0.6384856104850769
1681293077216994836,34132,1681293077216570015,j2s6s300_link_base,0.27102625370025635,-0.5264078378677368,0.17220330238342285,-0.2375926524400711,0.7234611511230469,-0.1160469651222229,0.6377200484275818
1681293077317992265,34133,1681293077317583908,j2s6s300_link_base,0.27088242769241333,-0.5293698310852051,0.17853416502475739,-0.23803071677684784,0.7242164611816406,-0.11491605639457703,0.6369036436080933
1681293077417009479,34134,1681293077416583906,j2s6s300_link_base,0.2710733711719513,-0.5303859710693359,0.18220853805541992,-0.23803143203258514,0.7244293689727783,-0.1129741221666336,0.6370086073875427
1681293077515767547,34135,1681293077515588884,j2s6s300_link_base,0.27096861600875854,-0.5314111113548279,0.18541908264160156,-0.23839394748210907,0.7243711948394775,-0.11340861022472382,0.63686203956604
1681293077617002986,34136,1681293077616571158,j2s6s300_link_base,0.2711763381958008,-0.5332756042480469,0.19171425700187683,-0.23802900314331055,0.7230029106140137,-0.11890234053134918,0.637550950050354
1681293077717024738,34137,1681293077716581682,j2s6s300_link_base,0.27130529284477234,-0.533793032169342,0.1978074312210083,-0.23783725500106812,0.7236979007720947,-0.12333320081233978,0.6359903216362
1681293077817016901,34138,1681293077816583727,j2s6s300_link_base,0.27104470133781433,-0.5346342921257019,0.20453891158103943,-0.23763735592365265,0.7284010648727417,-0.12473280727863312,0.6303983330726624
1681293077917020112,34139,1681293077916584724,j2s6s300_link_base,0.27063342928886414,-0.5344914793968201,0.2114265263080597,-0.23893119394779205,0.7340401411056519,-0.12139301002025604,0.6239876747131348
1681293078017008401,34140,1681293078016581616,j2s6s300_link_base,0.27049291133880615,-0.5338679552078247,0.21798010170459747,-0.24133318662643433,0.7385597229003906,-0.11599883437156677,0.6187343001365662
1681293078117018494,34141,1681293078116582066,j2s6s300_link_base,0.2709087133407593,-0.534020721912384,0.2245490550994873,-0.24457626044750214,0.741555392742157,-0.11251996457576752,0.6145055890083313
1681293078217024419,34142,1681293078216581592,j2s6s300_link_base,0.2713918387889862,-0.5348689556121826,0.2307506501674652,-0.24765817821025848,0.7442345023155212,-0.11002717912197113,0.6104706525802612
1681293078316829590,34143,1681293078316608273,j2s6s300_link_base,0.27165845036506653,-0.5358978509902954,0.23682735860347748,-0.2507956922054291,0.7474894523620605,-0.10670988261699677,0.6057838797569275
1681293078417988791,34144,1681293078417573860,j2s6s300_link_base,0.2705555558204651,-0.5373213887214661,0.24556273221969604,-0.2532155513763428,0.7507878541946411,-0.10410679876804352,0.601133406162262
1681293078517019148,34145,1681293078516581913,j2s6s300_link_base,0.269318550825119,-0.5382119417190552,0.2536020278930664,-0.254777729511261,0.7531297206878662,-0.10250569880008698,0.5978097915649414
1681293078616959825,34146,1681293078616535822,j2s6s300_link_base,0.26648229360580444,-0.5387795567512512,0.2632409930229187,-0.25691407918930054,0.7543390393257141,-0.10065355896949768,0.5956816077232361
1681293078716863168,34147,1681293078716536614,j2s6s300_link_base,0.26160502433776855,-0.5407012701034546,0.2713488042354584,-0.25847354531288147,0.7554889917373657,-0.09965045750141144,0.5937151908874512
1681293078816970231,34148,1681293078816568444,j2s6s300_link_base,0.2553168535232544,-0.5446429252624512,0.27824366092681885,-0.2587583661079407,0.7564246654510498,-0.09904235601425171,0.5925000905990601
1681293078916999664,34149,1681293078916578317,j2s6s300_link_base,0.24894264340400696,-0.5503143668174744,0.28485703468322754,-0.2587812840938568,0.7574590444564819,-0.09930452704429626,0.5911232233047485
1681293079017026030,34150,1681293079016597719,j2s6s300_link_base,0.24307572841644287,-0.5558097958564758,0.2907674014568329,-0.25918808579444885,0.7578330039978027,-0.09869477152824402,0.5905674695968628
1681293079116653519,34151,1681293079116469673,j2s6s300_link_base,0.23689773678779602,-0.5618246793746948,0.29563555121421814,-0.2591285705566406,0.7583177089691162,-0.09879472851753235,0.5899545550346375
1681293079215937103,34152,1681293079215562869,j2s6s300_link_base,0.22960910201072693,-0.5685869455337524,0.2991190552711487,-0.2560696601867676,0.7584962844848633,-0.10468229651451111,0.590045154094696
1681293079317142316,34153,1681293079316569878,j2s6s300_link_base,0.2224084883928299,-0.574817955493927,0.30274534225463867,-0.24775083363056183,0.7568925619125366,-0.11442030966281891,0.5938358902931213
1681293079417933043,34154,1681293079417551993,j2s6s300_link_base,0.21424591541290283,-0.5816108584403992,0.3071732223033905,-0.23799999058246613,0.7548961639404297,-0.12576110661029816,0.5980568528175354
1681293079517021511,34155,1681293079516582789,j2s6s300_link_base,0.20804837346076965,-0.5875301361083984,0.30992376804351807,-0.23262175917625427,0.7535877823829651,-0.13428115844726562,0.5999675989151001
1681293079617029479,34156,1681293079616579226,j2s6s300_link_base,0.20096823573112488,-0.5947316288948059,0.31248942017555237,-0.22604158520698547,0.7532141804695129,-0.14196455478668213,0.6011818051338196
1681293079716991339,34157,1681293079716578906,j2s6s300_link_base,0.19350901246070862,-0.6010934710502625,0.31522342562675476,-0.21839672327041626,0.7518407106399536,-0.15026329457759857,0.6037046909332275
1681293079816970188,34158,1681293079816536407,j2s6s300_link_base,0.18570275604724884,-0.606289267539978,0.31857356429100037,-0.20851555466651917,0.7486724853515625,-0.16124700009822845,0.608284592628479
1681293079917950449,34159,1681293079917582331,j2s6s300_link_base,0.17636540532112122,-0.6109427213668823,0.3208944499492645,0.19863107800483704,-0.7455075979232788,0.1730596274137497,-0.6122208833694458
1681293080017034014,34160,1681293080016578043,j2s6s300_link_base,0.16825716197490692,-0.614347517490387,0.3227555453777313,0.19252823293209076,-0.7438991665840149,0.18122389912605286,-0.6137627959251404
1681293080116952327,34161,1681293080116567609,j2s6s300_link_base,0.15881943702697754,-0.6181364059448242,0.3229850232601166,0.18538159132003784,-0.7433523535728455,0.18758624792099,-0.614713191986084
1681293080217035757,34162,1681293080216583211,j2s6s300_link_base,0.14914144575595856,-0.6212713718414307,0.32279878854751587,0.1809665709733963,-0.7425134181976318,0.19211143255233765,-0.6156445145606995
1681293080317025509,34163,1681293080316581324,j2s6s300_link_base,0.13975811004638672,-0.6240717172622681,0.3233085870742798,0.1789238005876541,-0.7415784597396851,0.1961100995540619,-0.6161074638366699
1681293080416938677,34164,1681293080416567815,j2s6s300_link_base,0.1303541213274002,-0.6263185739517212,0.3243097960948944,0.17732393741607666,-0.7404431104660034,0.19927304983139038,-0.6169201731681824
1681293080516981404,34165,1681293080516579515,j2s6s300_link_base,0.12041279673576355,-0.6281201243400574,0.3249489665031433,0.17550870776176453,-0.7394115924835205,0.20218460261821747,-0.6177284717559814
1681293080616976956,34166,1681293080616582012,j2s6s300_link_base,0.11028270423412323,-0.6297428607940674,0.3248886466026306,0.17249546945095062,-0.7389251589775085,0.20566856861114502,-0.6180092096328735
1681293080717018281,34167,1681293080716582758,j2s6s300_link_base,0.10015003383159637,-0.6314293742179871,0.3250253200531006,-0.16551443934440613,0.7374183535575867,-0.21286776661872864,0.6192789673805237
1681293080817046233,34168,1681293080816598967,j2s6s300_link_base,0.09028509259223938,-0.6320733428001404,0.3246619701385498,-0.1582922637462616,0.7350577712059021,-0.22091898322105408,0.6211509704589844
1681293080917026406,34169,1681293080916579208,j2s6s300_link_base,0.08095505833625793,-0.6315668821334839,0.3249271512031555,-0.15319550037384033,0.7329260110855103,-0.2261340618133545,0.62306809425354
1681293081016931059,34170,1681293081016559805,j2s6s300_link_base,0.07198366522789001,-0.6309099793434143,0.3250364661216736,-0.15012231469154358,0.7311975955963135,-0.22980669140815735,0.6245015859603882
1681293081117031468,34171,1681293081116575164,j2s6s300_link_base,0.0629139244556427,-0.6302043795585632,0.3238391578197479,-0.14638154208660126,0.72994464635849,-0.23139813542366028,0.6262653470039368
1681293081215932717,34172,1681293081215561048,j2s6s300_link_base,0.0539688766002655,-0.6295158267021179,0.3239213228225708,-0.1448497176170349,0.7282832264900208,-0.23328536748886108,0.6278535723686218
1681293081316991638,34173,1681293081316568038,j2s6s300_link_base,0.04401776194572449,-0.6291175484657288,0.32332080602645874,-0.14058010280132294,0.7281554341316223,-0.23809018731117249,0.6271681785583496
1681293081416970103,34174,1681293081416536252,j2s6s300_link_base,0.033217817544937134,-0.6286856532096863,0.3228873908519745,-0.1339452713727951,0.7272300124168396,-0.24585087597370148,0.6266998052597046
1681293081516996158,34175,1681293081516569051,j2s6s300_link_base,0.022188618779182434,-0.6282309293746948,0.3223041594028473,-0.12621504068374634,0.7256916761398315,-0.2539300322532654,0.6268659234046936
1681293081616975572,34176,1681293081616568654,j2s6s300_link_base,0.011834800243377686,-0.6271304488182068,0.3226548433303833,-0.1160111278295517,0.7207671403884888,-0.26614633202552795,0.6294459700584412
1681293081717000319,34177,1681293081716568495,j2s6s300_link_base,0.0012691318988800049,-0.6266098022460938,0.32335731387138367,-0.10144484043121338,0.714084804058075,-0.28383538126945496,0.6318459510803223
1681293081816966912,34178,1681293081816567507,j2s6s300_link_base,-0.008749306201934814,-0.6262606382369995,0.32403281331062317,-0.08666020631790161,0.7074572443962097,-0.3009432554244995,0.6335829496383667
1681293081918001422,34179,1681293081917569560,j2s6s300_link_base,-0.019609838724136353,-0.6256557106971741,0.3237280547618866,-0.07347801327705383,0.7017574906349182,-0.31457194685935974,0.6349661350250244
1681293082017026828,34180,1681293082016577127,j2s6s300_link_base,-0.028806224465370178,-0.6254884004592896,0.32395508885383606,-0.06498071551322937,0.698643684387207,-0.3229439854621887,0.6351233720779419
1681293082117010370,34181,1681293082116583015,j2s6s300_link_base,-0.03993158042430878,-0.6258378028869629,0.32370704412460327,-0.05703514814376831,0.6966210603713989,-0.3309531807899475,0.6339843273162842
1681293082217963772,34182,1681293082217563983,j2s6s300_link_base,-0.05130314826965332,-0.6257492303848267,0.32254764437675476,-0.050377607345581055,0.6947240829467773,-0.3366848826408386,0.633611798286438
1681293082317004856,34183,1681293082316580905,j2s6s300_link_base,-0.06037589907646179,-0.6255424618721008,0.321899950504303,-0.04635748267173767,0.692624032497406,-0.3412110209465027,0.6337965726852417
1681293082417017449,34184,1681293082416578793,j2s6s300_link_base,-0.07060238718986511,-0.6252765655517578,0.3215298354625702,-0.04140502214431763,0.6897148489952087,-0.34685027599334717,0.6342507600784302
1681293082516989384,34185,1681293082516568056,j2s6s300_link_base,-0.08039967715740204,-0.6253594160079956,0.32095953822135925,-0.03401648998260498,0.6851411461830139,-0.3533972501754761,0.6360304951667786
1681293082617018775,34186,1681293082616572716,j2s6s300_link_base,-0.09048938751220703,-0.6261316537857056,0.3203859329223633,-0.025316715240478516,0.679355263710022,-0.3635967969894409,0.636893093585968
1681293082716977141,34187,1681293082716569677,j2s6s300_link_base,-0.10040609538555145,-0.626549482345581,0.31977978348731995,-0.01551923155784607,0.6727413535118103,-0.37510597705841064,0.6375529766082764
1681293082817014311,34188,1681293082816580328,j2s6s300_link_base,-0.10998253524303436,-0.6267117261886597,0.31935054063796997,-0.004392772912979126,0.6651020050048828,-0.38721227645874023,0.6385034322738647
1681293082916959066,34189,1681293082916545257,j2s6s300_link_base,-0.11982674896717072,-0.6263336539268494,0.3188045918941498,0.010106831789016724,0.655160665512085,-0.40134620666503906,0.6399871706962585
1681293083016951444,34190,1681293083016536408,j2s6s300_link_base,-0.12980996072292328,-0.6257729530334473,0.3191749155521393,0.026636451482772827,0.6433404088020325,-0.4172726571559906,0.6413167715072632
1681293083116944855,34191,1681293083116534359,j2s6s300_link_base,-0.13926489651203156,-0.6250642538070679,0.31929337978363037,0.04441875219345093,0.6317653656005859,-0.4314292073249817,0.6424705386161804
1681293083216933526,34192,1681293083216530315,j2s6s300_link_base,-0.149089515209198,-0.624799370765686,0.31820282340049744,0.06413444876670837,0.621520459651947,-0.4452669322490692,0.6413552165031433
1681293083318026786,34193,1681293083317582178,j2s6s300_link_base,-0.16015879809856415,-0.6245673298835754,0.3160043954849243,0.08708249032497406,0.612533688545227,-0.458787739276886,0.6377562284469604
1681293083417939340,34194,1681293083417531106,j2s6s300_link_base,-0.16963621973991394,-0.6245099306106567,0.31491750478744507,0.10399112105369568,0.6062973141670227,-0.46912169456481934,0.6336514949798584
1681293083516955540,34195,1681293083516534438,j2s6s300_link_base,-0.1780805140733719,-0.624392569065094,0.3143858313560486,0.11659416556358337,0.6024255156517029,-0.47633329033851624,0.6297585964202881
1681293083616959366,34196,1681293083616535356,j2s6s300_link_base,-0.1882781684398651,-0.6243728399276733,0.3143198490142822,0.13039380311965942,0.601171612739563,-0.48383650183677673,0.622488796710968
1681293083716970094,34197,1681293083716527772,j2s6s300_link_base,-0.19676250219345093,-0.6239727735519409,0.3152470588684082,0.1400291472673416,0.6024924516677856,-0.4891637861728668,0.6149092316627502
1681293083818155418,34198,1681293083817529496,j2s6s300_link_base,-0.204347625374794,-0.6238126754760742,0.3150351345539093,0.14893554151058197,0.604285717010498,-0.49061718583106995,0.6098784804344177
1681293083916990240,34199,1681293083916540940,j2s6s300_link_base,-0.21158811450004578,-0.6235363483428955,0.31537342071533203,0.15469539165496826,0.6046280264854431,-0.4921233355998993,0.6068847179412842
1681293084015761718,34200,1681293084015522655,j2s6s300_link_base,-0.21950873732566833,-0.6233482956886292,0.3165544271469116,0.15935033559799194,0.6046814918518066,-0.49383509159088135,0.6042307019233704
1681293084116946853,34201,1681293084116580626,j2s6s300_link_base,-0.22649623453617096,-0.6230888366699219,0.3170519769191742,0.1632470339536667,0.6051846742630005,-0.4956797659397125,0.6011683940887451
1681293084217988966,34202,1681293084217572808,j2s6s300_link_base,-0.2351263016462326,-0.6226828694343567,0.31544795632362366,0.16876278817653656,0.6061791777610779,-0.49859902262687683,0.5962088108062744
1681293084318008136,34203,1681293084317577915,j2s6s300_link_base,-0.24078263342380524,-0.6231638193130493,0.31108665466308594,0.17068900167942047,0.6060726046562195,-0.5000764727592468,0.5945290923118591
1681293084416967702,34204,1681293084416535665,j2s6s300_link_base,-0.24511685967445374,-0.6237568855285645,0.3049476444721222,0.16747871041297913,0.6040730476379395,-0.5077129602432251,0.5909942388534546
1681293084516961318,34205,1681293084516532960,j2s6s300_link_base,-0.2497001737356186,-0.6243069171905518,0.2999221682548523,0.16222167015075684,0.5990524291992188,-0.5276367664337158,0.58001708984375
1681293084617010891,34206,1681293084616583663,j2s6s300_link_base,-0.25298064947128296,-0.6235701441764832,0.29588398337364197,0.16265133023262024,0.5960805416107178,-0.5474868416786194,0.5643496513366699
1681293084716956092,34207,1681293084716533903,j2s6s300_link_base,-0.25559520721435547,-0.6232041120529175,0.28902363777160645,0.17277973890304565,0.5999347567558289,-0.5599855184555054,0.5446481704711914
1681293084815769490,34208,1681293084815529358,j2s6s300_link_base,-0.2584823966026306,-0.6225860118865967,0.2847939133644104,0.18631131947040558,0.6054550409317017,-0.5693811774253845,0.5239440202713013
1681293084916975753,34209,1681293084916534901,j2s6s300_link_base,-0.2628767490386963,-0.621952474117279,0.2821993827819824,0.2008800506591797,0.6089723110198975,-0.5790237188339233,0.5035191178321838
1681293085017019599,34210,1681293085016576932,j2s6s300_link_base,-0.26852843165397644,-0.6220613718032837,0.28060856461524963,0.2140686810016632,0.6107484102249146,-0.5874308943748474,0.48588669300079346
1681293085116954973,34211,1681293085116540151,j2s6s300_link_base,-0.27503639459609985,-0.6224780082702637,0.2781433165073395,0.22491392493247986,0.6119928359985352,-0.5926319360733032,0.472933292388916
1681293085216972799,34212,1681293085216528911,j2s6s300_link_base,-0.2831209599971771,-0.6224477887153625,0.276193231344223,0.23470032215118408,0.6106643080711365,-0.5991439819335938,0.4615532159805298
1681293085316981543,34213,1681293085316534271,j2s6s300_link_base,-0.29146987199783325,-0.6220176219940186,0.27494147419929504,0.24666813015937805,0.6037169098854065,-0.6107213497161865,0.4491104185581207
1681293085416973198,34214,1681293085416545227,j2s6s300_link_base,-0.30048754811286926,-0.620786190032959,0.2729077935218811,0.2633635401725769,0.5943050384521484,-0.6233033537864685,0.4346654415130615
1681293085516980393,34215,1681293085516560015,j2s6s300_link_base,-0.3064764142036438,-0.6199997663497925,0.2697531282901764,0.28311827778816223,0.5905376076698303,-0.6295214295387268,0.4181053638458252
1681293085615801446,34216,1681293085615545930,j2s6s300_link_base,-0.3092068135738373,-0.6191037893295288,0.2680886685848236,0.3012477457523346,0.5911850333213806,-0.6313194036483765,0.40147942304611206
1681293085716968151,34217,1681293085716570518,j2s6s300_link_base,-0.30845746397972107,-0.617896318435669,0.2677891254425049,0.31657674908638,0.591895580291748,-0.6324094533920288,0.38664862513542175
1681293085816975546,34218,1681293085816582932,j2s6s300_link_base,-0.30909204483032227,-0.6158243417739868,0.2676934003829956,0.32985949516296387,0.5916218161582947,-0.633314847946167,0.3742842376232147
1681293085916982461,34219,1681293085916531569,j2s6s300_link_base,-0.3102284371852875,-0.6132959127426147,0.26666635274887085,0.33977052569389343,0.5916485786437988,-0.6337332725524902,0.36454105377197266
1681293086016889737,34220,1681293086016463178,j2s6s300_link_base,-0.31049108505249023,-0.6110541224479675,0.26572874188423157,0.34724265336990356,0.5913320183753967,-0.6334139108657837,0.3585187792778015
1681293086118101617,34221,1681293086117545000,j2s6s300_link_base,-0.30971643328666687,-0.6088498830795288,0.26399242877960205,0.3524634838104248,0.5913254618644714,-0.6333168148994446,0.35357245802879333
1681293086217950320,34222,1681293086217512357,j2s6s300_link_base,-0.3107764422893524,-0.6058887243270874,0.2612095773220062,0.3577459454536438,0.5904322862625122,-0.634173572063446,0.34818318486213684
1681293086317038948,34223,1681293086316580494,j2s6s300_link_base,-0.3099241256713867,-0.6026310920715332,0.25808465480804443,0.36098918318748474,0.5904145836830139,-0.6339287757873535,0.3452996015548706
1681293086415807124,34224,1681293086415561897,j2s6s300_link_base,-0.3087337017059326,-0.5978103280067444,0.2556323707103729,0.3620837330818176,0.5898687243461609,-0.6348514556884766,0.34338608384132385
1681293086518023748,34225,1681293086517587169,j2s6s300_link_base,-0.30872637033462524,-0.5925058126449585,0.2519666254520416,0.3633508086204529,0.5890635251998901,-0.6358439326286316,0.34158870577812195
1681293086617011526,34226,1681293086616582835,j2s6s300_link_base,-0.3080276846885681,-0.5879474878311157,0.2459297925233841,0.36383000016212463,0.5886649489402771,-0.6364261507987976,0.3406805396080017
1681293086716972023,34227,1681293086716534484,j2s6s300_link_base,-0.3087831437587738,-0.5838805437088013,0.23921620845794678,0.3648291826248169,0.5877354145050049,-0.6373741626739502,0.33944201469421387
1681293086817023216,34228,1681293086816579407,j2s6s300_link_base,-0.3091306984424591,-0.5802529454231262,0.23328231275081635,0.3656522333621979,0.5872341394424438,-0.637808084487915,0.3386080265045166
1681293086916996131,34229,1681293086916567068,j2s6s300_link_base,-0.3097032904624939,-0.5769218802452087,0.22911205887794495,0.36671769618988037,0.5863584876060486,-0.6382540464401245,0.3381325602531433
1681293087016969266,34230,1681293087016534583,j2s6s300_link_base,-0.31069281697273254,-0.5731878280639648,0.2276287078857422,0.3666340708732605,0.5849677920341492,-0.6402053236961365,0.33694103360176086
1681293087116962170,34231,1681293087116536151,j2s6s300_link_base,-0.3111470639705658,-0.5675626397132874,0.22507530450820923,0.3687627911567688,0.5852299332618713,-0.6397344470024109,0.33505186438560486
1681293087215892147,34232,1681293087215674198,j2s6s300_link_base,-0.31089118123054504,-0.5595030784606934,0.2223488837480545,0.37432804703712463,0.5875163078308105,-0.6363461017608643,0.3313104510307312
1681293087317018293,34233,1681293087316581720,j2s6s300_link_base,-0.3100714087486267,-0.5501145124435425,0.21833376586437225,0.3825003504753113,0.5918884873390198,-0.6306077241897583,0.32510843873023987
1681293087417000487,34234,1681293087416567178,j2s6s300_link_base,-0.310364305973053,-0.542171061038971,0.21521185338497162,0.38858047127723694,0.5946704745292664,-0.6270952224731445,0.3195681869983673
1681293087514949126,34235,1681293087514714971,j2s6s300_link_base,-0.3110748827457428,-0.5368211269378662,0.21110235154628754,0.3880790174007416,0.5960045456886292,-0.6264009475708008,0.3190535306930542
1681293087616996574,34236,1681293087616568395,j2s6s300_link_base,-0.31155166029930115,-0.5325571298599243,0.20405761897563934,0.3806753158569336,0.5929654836654663,-0.6300821900367737,0.32630473375320435
1681293087717012638,34237,1681293087716566616,j2s6s300_link_base,-0.3136269450187683,-0.5293883085250854,0.19669796526432037,0.37524348497390747,0.5893718004226685,-0.6335962414741516,0.3322485685348511
1681293087816995787,34238,1681293087816555127,j2s6s300_link_base,-0.31650295853614807,-0.5266973972320557,0.19005031883716583,0.3761845529079437,0.589450478553772,-0.6336333155632019,0.3309714198112488
1681293087917001954,34239,1681293087916579136,j2s6s300_link_base,-0.31836313009262085,-0.525080680847168,0.18592853844165802,0.38104739785194397,0.5917938351631165,-0.6311765909194946,0.3258819282054901
1681293088015919314,34240,1681293088015704837,j2s6s300_link_base,-0.3192014992237091,-0.523693323135376,0.18065550923347473,0.38744425773620605,0.5957144498825073,-0.6261897683143616,0.32077667117118835
1681293088117990125,34241,1681293088117567734,j2s6s300_link_base,-0.3202459216117859,-0.5227733850479126,0.1765321046113968,0.3911823332309723,0.5982478260993958,-0.6236484050750732,0.3164466321468353
1681293088216991069,34242,1681293088216571690,j2s6s300_link_base,-0.32048583030700684,-0.5216816663742065,0.16910891234874725,0.39371123909950256,0.6036924123764038,-0.617308497428894,0.31540006399154663
1681293088316978830,34243,1681293088316574216,j2s6s300_link_base,-0.3210391104221344,-0.5204525589942932,0.16140133142471313,0.3935454785823822,0.6094771027565002,-0.6113104224205017,0.31616324186325073
1681293088418035789,34244,1681293088417588203,j2s6s300_link_base,-0.3224596381187439,-0.5190607309341431,0.1541549563407898,0.39439213275909424,0.6131423711776733,-0.6068689823150635,0.316577672958374
1681293088517001269,34245,1681293088516570512,j2s6s300_link_base,-0.3225618302822113,-0.5172485709190369,0.14868704974651337,0.3944936990737915,0.6162208914756775,-0.6031540632247925,0.3175714910030365
1681293088617029668,34246,1681293088616582933,j2s6s300_link_base,-0.32415422797203064,-0.5145524144172668,0.14472214877605438,0.3964889943599701,0.6190962791442871,-0.6001417636871338,0.3151922821998596
1681293088716947392,34247,1681293088716569172,j2s6s300_link_base,-0.32545626163482666,-0.5102915167808533,0.14249297976493835,0.3975350260734558,0.6214136481285095,-0.5984886884689331,0.3124457895755768
1681293088814797719,34248,1681293088814584650,j2s6s300_link_base,-0.32552769780158997,-0.5040593147277832,0.13975803554058075,0.399422287940979,0.6239355206489563,-0.5957031846046448,0.31032902002334595
1681293088916900139,34249,1681293088916583085,j2s6s300_link_base,-0.3259027302265167,-0.4970512092113495,0.13756929337978363,0.4024737477302551,0.6257714629173279,-0.5928894281387329,0.3080699145793915
1681293089016959083,34250,1681293089016570053,j2s6s300_link_base,-0.3263426125049591,-0.489484578371048,0.1357364058494568,0.4051083028316498,0.6277663707733154,-0.5902106761932373,0.30569300055503845
1681293089116985793,34251,1681293089116582845,j2s6s300_link_base,-0.32588285207748413,-0.480935662984848,0.13373111188411713,0.40620213747024536,0.6309381723403931,-0.586724579334259,0.30441907048225403
1681293089216952776,34252,1681293089216572756,j2s6s300_link_base,-0.3254374861717224,-0.47183549404144287,0.13188472390174866,0.4066648483276367,0.6336659789085388,-0.5834623575210571,0.30440554022789
1681293089317033752,34253,1681293089316586485,j2s6s300_link_base,-0.3257344365119934,-0.4630747437477112,0.13043245673179626,0.4067500829696655,0.6356309056282043,-0.581527829170227,0.3038966953754425
1681293089418036189,34254,1681293089417582292,j2s6s300_link_base,-0.32648399472236633,-0.45558083057403564,0.1293066143989563,0.40631088614463806,0.63750821352005,-0.5795847177505493,0.30426350235939026
1681293089517993124,34255,1681293089517542530,j2s6s300_link_base,-0.32720839977264404,-0.4498445987701416,0.12868249416351318,0.40480566024780273,0.6393356919288635,-0.5774888396263123,0.3064129054546356
1681293089616647429,34256,1681293089616485759,j2s6s300_link_base,-0.32808709144592285,-0.44481122493743896,0.1269472986459732,0.40311411023139954,0.641349732875824,-0.5758573412895203,0.3075023591518402
1681293089716997929,34257,1681293089716578473,j2s6s300_link_base,-0.32866325974464417,-0.43910109996795654,0.12240809202194214,0.40287700295448303,0.6435225605964661,-0.5732612609863281,0.30812400579452515
1681293089817023966,34258,1681293089816582508,j2s6s300_link_base,-0.32908159494400024,-0.4333084225654602,0.1166309267282486,0.40286189317703247,0.6458341479301453,-0.5708571076393127,0.3077707886695862
1681293089916974186,34259,1681293089916568298,j2s6s300_link_base,-0.32956811785697937,-0.42808055877685547,0.11136643588542938,0.40274778008461,0.6472042202949524,-0.5694758296012878,0.3076004683971405
1681293090016982930,34260,1681293090016566973,j2s6s300_link_base,-0.3298487663269043,-0.4231407046318054,0.10618670284748077,0.4036600887775421,0.6481104493141174,-0.5673428773880005,0.30843695998191833
1681293090117004364,34261,1681293090116581434,j2s6s300_link_base,-0.3297167420387268,-0.4178906977176666,0.10147739946842194,0.4027833938598633,0.6500234603881836,-0.5647193789482117,0.31036603450775146
1681293090217013612,34262,1681293090216581762,j2s6s300_link_base,-0.3302185833454132,-0.4125667214393616,0.09751544892787933,0.4017733633518219,0.6515923142433167,-0.5628793835639954,0.31172505021095276
1681293090317018416,34263,1681293090316581724,j2s6s300_link_base,-0.3318117558956146,-0.4076076149940491,0.09538379311561584,0.4018310308456421,0.6524007320404053,-0.5624101161956787,0.3108052909374237
1681293090416711114,34264,1681293090416481182,j2s6s300_link_base,-0.3330657184123993,-0.40217310190200806,0.09278441220521927,0.4053112864494324,0.6544415950775146,-0.559461772441864,0.3072970509529114
1681293090516965267,34265,1681293090516565519,j2s6s300_link_base,-0.3329533338546753,-0.3955742418766022,0.09052896499633789,0.40910860896110535,0.6572869420051575,-0.555388867855072,0.3035576045513153
1681293090616981565,34266,1681293090616568342,j2s6s300_link_base,-0.3331102132797241,-0.3883368968963623,0.08884280920028687,0.4116980731487274,0.6598660945892334,-0.5524758100509644,0.2997533082962036
1681293090717012065,34267,1681293090716575714,j2s6s300_link_base,-0.33333495259284973,-0.381369411945343,0.08722995221614838,0.413514107465744,0.6622992753982544,-0.5490450263023376,0.2981868386268616
1681293090816980139,34268,1681293090816578862,j2s6s300_link_base,-0.3340592086315155,-0.37455880641937256,0.08535902947187424,0.414278119802475,0.6647579073905945,-0.545689046382904,0.29781559109687805
1681293090916984102,34269,1681293090916577486,j2s6s300_link_base,-0.3353540003299713,-0.3678838610649109,0.08333072066307068,0.41376882791519165,0.6666737794876099,-0.5443252921104431,0.296734482049942
1681293091017146082,34270,1681293091016578768,j2s6s300_link_base,-0.33603277802467346,-0.36073341965675354,0.07941544055938721,0.41309213638305664,0.6684749126434326,-0.5431389212608337,0.2957976162433624
1681293091116927780,34271,1681293091116533291,j2s6s300_link_base,-0.33643487095832825,-0.35330116748809814,0.07488459348678589,0.41344577074050903,0.6695995330810547,-0.5416662096977234,0.2954605221748352
1681293091217088132,34272,1681293091216518331,j2s6s300_link_base,-0.3368540108203888,-0.3461008071899414,0.07076122611761093,0.4137974977493286,0.6702497601509094,-0.540741503238678,0.2951873242855072
1681293091316941287,34273,1681293091316531549,j2s6s300_link_base,-0.33673804998397827,-0.3386351466178894,0.06714803725481033,0.4134366810321808,0.6715986132621765,-0.539070725440979,0.2956825792789459
1681293091416965165,34274,1681293091416533935,j2s6s300_link_base,-0.3357028365135193,-0.3316380977630615,0.06341163069009781,0.4130527377128601,0.673392117023468,-0.53597491979599,0.29776066541671753
1681293091516953119,34275,1681293091516523198,j2s6s300_link_base,-0.3352367579936981,-0.3261644244194031,0.05906498432159424,0.41313403844833374,0.6745897531509399,-0.5334873199462891,0.29940006136894226
1681293091616929122,34276,1681293091616533442,j2s6s300_link_base,-0.3353760540485382,-0.32197442650794983,0.05427057296037674,0.41321197152137756,0.6753945350646973,-0.5318445563316345,0.30039870738983154
1681293091716952697,34277,1681293091716528227,j2s6s300_link_base,-0.3361261188983917,-0.31880033016204834,0.04957640916109085,0.4125330150127411,0.6767728328704834,-0.530422568321228,0.30074411630630493
1681293091816909088,34278,1681293091816548541,j2s6s300_link_base,-0.33602914214134216,-0.31597957015037537,0.04400300979614258,0.40907564759254456,0.6815277338027954,-0.5263562202453613,0.30187126994132996
1681293091916938390,34279,1681293091916533642,j2s6s300_link_base,-0.33634716272354126,-0.31274691224098206,0.03833525627851486,0.4066963791847229,0.6849053502082825,-0.5227770805358887,0.3036559820175171
1681293092016947620,34280,1681293092016530708,j2s6s300_link_base,-0.33662283420562744,-0.30878588557243347,0.03268088400363922,0.4054785966873169,0.6869339346885681,-0.5199918150901794,0.3054790198802948
1681293092116962540,34281,1681293092116534228,j2s6s300_link_base,-0.33749154210090637,-0.30470559000968933,0.027828939259052277,0.40755897760391235,0.6888889074325562,-0.5164557099342346,0.3043045997619629
1681293092217011217,34282,1681293092216581697,j2s6s300_link_base,-0.33841386437416077,-0.3000872731208801,0.024028845131397247,0.4111364781856537,0.691168487071991,-0.5121908187866211,0.3015187084674835
1681293092316915439,34283,1681293092316536635,j2s6s300_link_base,-0.33906203508377075,-0.29378610849380493,0.021448761224746704,0.4122462272644043,0.693501353263855,-0.5096776485443115,0.2988940477371216
1681293092416966136,34284,1681293092416578906,j2s6s300_link_base,-0.33930736780166626,-0.28671541810035706,0.01916445791721344,0.41288134455680847,0.6954934000968933,-0.5076993107795715,0.2967478632926941
1681293092516961537,34285,1681293092516578156,j2s6s300_link_base,-0.33949121832847595,-0.2799040377140045,0.017024487257003784,0.4137366712093353,0.6968070268630981,-0.5061041116714478,0.29519569873809814
1681293092617014443,34286,1681293092616579664,j2s6s300_link_base,-0.3394012749195099,-0.27446264028549194,0.014927834272384644,0.4143669903278351,0.6974911093711853,-0.5051407217979431,0.29434511065483093
1681293092717003402,34287,1681293092716577787,j2s6s300_link_base,-0.3390098512172699,-0.2701473832130432,0.012072578072547913,0.4161348044872284,0.6972834467887878,-0.5040635466575623,0.29418981075286865
1681293092816996727,34288,1681293092816575519,j2s6s300_link_base,-0.3386111259460449,-0.26715800166130066,0.008614100515842438,0.4173467457294464,0.6970897912979126,-0.5032483339309692,0.29432740807533264
1681293092917019964,34289,1681293092916580063,j2s6s300_link_base,-0.33794185519218445,-0.26525622606277466,0.00522284209728241,0.41724732518196106,0.6976662874221802,-0.5024523138999939,0.29446232318878174
1681293093017002235,34290,1681293093016565171,j2s6s300_link_base,-0.3379566967487335,-0.26374223828315735,0.0025455057621002197,0.4171314537525177,0.6979485750198364,-0.502450704574585,0.2939600944519043
1681293093116999321,34291,1681293093116579932,j2s6s300_link_base,-0.3378193974494934,-0.26267531514167786,0.0003729686141014099,0.41714346408843994,0.6982876062393188,-0.5020886063575745,0.2937563359737396
1681293093218027083,34292,1681293093217586425,j2s6s300_link_base,-0.33761826157569885,-0.26190271973609924,-0.0012127384543418884,0.41696789860725403,0.6986414194107056,-0.5017805099487305,0.29369083046913147
1681293093318021998,34293,1681293093317576286,j2s6s300_link_base,-0.3376396894454956,-0.2612655758857727,-0.0027579516172409058,0.41727516055107117,0.6988463997840881,-0.5013262629508972,0.29354220628738403
1681293093416970474,34294,1681293093416535749,j2s6s300_link_base,-0.33746838569641113,-0.2608005404472351,-0.005251243710517883,0.41713401675224304,0.6992323994636536,-0.5008207559585571,0.2936866581439972
1681293093517023957,34295,1681293093516586704,j2s6s300_link_base,-0.3372375965118408,-0.26030218601226807,-0.008817747235298157,0.41701987385749817,0.6997964382171631,-0.49993106722831726,0.29402098059654236
1681293093617013940,34296,1681293093616581417,j2s6s300_link_base,-0.33733314275741577,-0.2598360478878021,-0.0126117542386055,0.4169028103351593,0.7006113529205322,-0.49900564551353455,0.29381826519966125
1681293093716955748,34297,1681293093716561532,j2s6s300_link_base,-0.33734360337257385,-0.25871118903160095,-0.01692848652601242,0.4196780025959015,0.7048153281211853,-0.49295899271965027,0.289995014667511
1681293093816940740,34298,1681293093816538667,j2s6s300_link_base,-0.3381426930427551,-0.25690415501594543,-0.021346986293792725,0.425527423620224,0.715096116065979,-0.478657066822052,0.2800917625427246
1681293093916955970,34299,1681293093916536970,j2s6s300_link_base,-0.3380730450153351,-0.2546160817146301,-0.024538464844226837,0.4291627109050751,0.7271518707275391,-0.46016064286231995,0.27444830536842346
1681293094016916925,34300,1681293094016533928,j2s6s300_link_base,-0.33665212988853455,-0.25194546580314636,-0.027723588049411774,0.43104952573776245,0.736059308052063,-0.44494181871414185,0.2728366553783417
1681293094116979799,34301,1681293094116543690,j2s6s300_link_base,-0.3335498571395874,-0.24964292347431183,-0.03071647882461548,0.43245744705200195,0.7412700653076172,-0.4378310441970825,0.26796117424964905
1681293094216956965,34302,1681293094216533970,j2s6s300_link_base,-0.32983556389808655,-0.24691396951675415,-0.033232182264328,0.43575993180274963,0.7441340088844299,-0.43488526344299316,0.25933128595352173
1681293094317024736,34303,1681293094316579444,j2s6s300_link_base,-0.32566165924072266,-0.24270251393318176,-0.03566060960292816,0.4370807409286499,0.7475016117095947,-0.42919471859931946,0.2568921744823456
1681293094417022235,34304,1681293094416578752,j2s6s300_link_base,-0.3205667734146118,-0.2381269335746765,-0.037545278668403625,0.43389350175857544,0.753720223903656,-0.41743582487106323,0.26341891288757324
1681293094516983223,34305,1681293094516566605,j2s6s300_link_base,-0.3181709945201874,-0.23430848121643066,-0.03852859139442444,0.43155744671821594,0.7589898705482483,-0.4066518545150757,0.26893624663352966
1681293094617019759,34306,1681293094616585539,j2s6s300_link_base,-0.31922391057014465,-0.23077204823493958,-0.03993169963359833,0.43333423137664795,0.7644285559654236,-0.39681529998779297,0.2653449475765228
1681293094717015037,34307,1681293094716576440,j2s6s300_link_base,-0.3206460475921631,-0.22789603471755981,-0.040794894099235535,0.43485748767852783,0.76941978931427,-0.38928651809692383,0.2595151662826538
1681293094817007743,34308,1681293094816579494,j2s6s300_link_base,-0.3205096423625946,-0.22608530521392822,-0.04237985610961914,0.4366644620895386,0.7724370360374451,-0.3835364580154419,0.25605636835098267
1681293094916971368,34309,1681293094916577366,j2s6s300_link_base,-0.32117295265197754,-0.2248777449131012,-0.04457402229309082,0.4397296607494354,0.7732583284378052,-0.3803245425224304,0.25310590863227844
1681293095016968117,34310,1681293095016551728,j2s6s300_link_base,-0.3206728398799896,-0.22417818009853363,-0.04776735603809357,0.44051387906074524,0.7748076915740967,-0.37769198417663574,0.25093692541122437
1681293095117034544,34311,1681293095116581739,j2s6s300_link_base,-0.3199978768825531,-0.22385470569133759,-0.05041441321372986,0.44086751341819763,0.7757683992385864,-0.3760787546634674,0.24976769089698792
1681293095217017098,34312,1681293095216579713,j2s6s300_link_base,-0.32087719440460205,-0.22297033667564392,-0.05347982048988342,0.4434564709663391,0.777760922908783,-0.37265148758888245,0.24405987560749054
1681293095315971150,34313,1681293095315562263,j2s6s300_link_base,-0.3215329051017761,-0.22126221656799316,-0.056645467877388,0.44967156648635864,0.7818098664283752,-0.364571750164032,0.2316381335258484
1681293095416902335,34314,1681293095416527310,j2s6s300_link_base,-0.32054951786994934,-0.21807457506656647,-0.058245301246643066,0.4526338279247284,0.7884171605110168,-0.3514842092990875,0.22356177866458893
1681293095516944591,34315,1681293095516533019,j2s6s300_link_base,-0.3197394013404846,-0.21319462358951569,-0.058887749910354614,0.4536699950695038,0.796478807926178,-0.334995836019516,0.21813520789146423
1681293095616988852,34316,1681293095616575414,j2s6s300_link_base,-0.32006704807281494,-0.20788374543190002,-0.05859486758708954,0.45919862389564514,0.8042734861373901,-0.31690123677253723,0.204583540558815
1681293095716867942,34317,1681293095716531846,j2s6s300_link_base,-0.32080331444740295,-0.2027796059846878,-0.05745750665664673,0.467427521944046,0.8100730180740356,-0.30055341124534607,0.18697845935821533
1681293095816987693,34318,1681293095816577828,j2s6s300_link_base,-0.3201656639575958,-0.19631487131118774,-0.05589355528354645,0.4708276391029358,0.8175026178359985,-0.2830062806606293,0.17296908795833588
1681293095916943274,34319,1681293095916533308,j2s6s300_link_base,-0.3192617893218994,-0.1895919144153595,-0.05428653955459595,0.47210437059402466,0.8247825503349304,-0.26416364312171936,0.1645260602235794
1681293096016955131,34320,1681293096016531148,j2s6s300_link_base,-0.31961992383003235,-0.18305277824401855,-0.051749929785728455,0.47622057795524597,0.830951452255249,-0.24465209245681763,0.15125803649425507
1681293096115978277,34321,1681293096115705791,j2s6s300_link_base,-0.32012343406677246,-0.17714636027812958,-0.04800044000148773,0.4798388183116913,0.8365144729614258,-0.2272028774023056,0.13556192815303802
1681293096216977520,34322,1681293096216579918,j2s6s300_link_base,-0.31986212730407715,-0.171750009059906,-0.044223934412002563,0.4816475808620453,0.8405897617340088,-0.2144821286201477,0.12418434023857117
1681293096316958655,34323,1681293096316576268,j2s6s300_link_base,-0.3194231390953064,-0.16686557233333588,-0.0406825989484787,0.48260581493377686,0.8436159491539001,-0.2049878090620041,0.11568751931190491
1681293096416943517,34324,1681293096416581829,j2s6s300_link_base,-0.31946349143981934,-0.16274261474609375,-0.03667764365673065,0.4848129451274872,0.8454439640045166,-0.19673781096935272,0.10712189972400665
1681293096516939907,34325,1681293096516577594,j2s6s300_link_base,-0.31993287801742554,-0.15950056910514832,-0.03139355778694153,0.48791906237602234,0.8468124270439148,-0.18853014707565308,0.09643647074699402
1681293096616964816,34326,1681293096616569705,j2s6s300_link_base,-0.320062518119812,-0.1572677344083786,-0.02546793222427368,0.4906473159790039,0.8478451371192932,-0.18124304711818695,0.08703354746103287
1681293096716984404,34327,1681293096716578358,j2s6s300_link_base,-0.3199484944343567,-0.15515200793743134,-0.020490571856498718,0.49229297041893005,0.8487279415130615,-0.17576345801353455,0.08009746670722961
1681293096816935980,34328,1681293096816532215,j2s6s300_link_base,-0.31967175006866455,-0.15302233397960663,-0.016670286655426025,0.4930955767631531,0.84938645362854,-0.17243453860282898,0.07527127861976624
1681293096915614466,34329,1681293096915459026,j2s6s300_link_base,-0.31944382190704346,-0.15098972618579865,-0.013876482844352722,0.49399930238723755,0.8496947884559631,-0.16982361674308777,0.07171829044818878
1681293097016925173,34330,1681293097016535007,j2s6s300_link_base,-0.319208562374115,-0.14955753087997437,-0.011840686202049255,0.49490609765052795,0.8497070670127869,-0.16804622113704681,0.06947194039821625
1681293097117036123,34331,1681293097116586324,j2s6s300_link_base,-0.31900352239608765,-0.14863593876361847,-0.010316357016563416,0.49509647488594055,0.8499317765235901,-0.1669759750366211,0.06792961061000824
1681293097216941140,34332,1681293097216572812,j2s6s300_link_base,-0.318831205368042,-0.1483490914106369,-0.009569317102432251,0.49502429366111755,0.8500979542732239,-0.16659554839134216,0.06730679422616959
1681293097316937539,34333,1681293097316536345,j2s6s300_link_base,-0.3185936510562897,-0.14839720726013184,-0.009483858942985535,0.49493589997291565,0.8501664400100708,-0.16647540032863617,0.06739009916782379
1681293097416975220,34334,1681293097416535397,j2s6s300_link_base,-0.31851157546043396,-0.1484735608100891,-0.009477540850639343,0.49486079812049866,0.8502132296562195,-0.1664392054080963,0.0674404501914978
1681293097516908830,34335,1681293097516487891,j2s6s300_link_base,-0.318513959646225,-0.14846612513065338,-0.009475544095039368,0.4948858320713043,0.8502016067504883,-0.16642670333385468,0.06743382662534714
1681293097616929695,34336,1681293097616529689,j2s6s300_link_base,-0.3185153603553772,-0.14846161007881165,-0.00947616994380951,0.4949031174182892,0.8501935005187988,-0.16641820967197418,0.06743127107620239
1681293097715666188,34337,1681293097715494349,j2s6s300_link_base,-0.3185157775878906,-0.14845865964889526,-0.009476155042648315,0.4949159622192383,0.8501872420310974,-0.16641245782375336,0.06743022799491882
1681293097816975134,34338,1681293097816532060,j2s6s300_link_base,-0.3185160160064697,-0.14845693111419678,-0.009476393461227417,0.49492910504341125,0.8501802086830139,-0.16640853881835938,0.06743069738149643
1681293097916990121,34339,1681293097916537964,j2s6s300_link_base,-0.3185163736343384,-0.1484551876783371,-0.009476423263549805,0.49493780732154846,0.8501757979393005,-0.16640517115592957,0.06743019074201584
1681293098016923786,34340,1681293098016502775,j2s6s300_link_base,-0.3185167610645294,-0.14845408499240875,-0.009476244449615479,0.4949451684951782,0.8501720428466797,-0.16640301048755646,0.06742990761995316
1681293098114732384,34341,1681293098114553582,j2s6s300_link_base,-0.3185166120529175,-0.14845280349254608,-0.009476721286773682,0.4949515163898468,0.8501689434051514,-0.16640014946460724,0.0674300268292427
1681293098216988159,34342,1681293098216601409,j2s6s300_link_base,-0.3185165524482727,-0.14845222234725952,-0.00947694480419159,0.4949561357498169,0.8501665592193604,-0.16639873385429382,0.06743042916059494
1681293098316941940,34343,1681293098316566970,j2s6s300_link_base,-0.31851649284362793,-0.14845164120197296,-0.009477168321609497,0.4949590265750885,0.850165069103241,-0.16639743745326996,0.06743049621582031
1681293098416985406,34344,1681293098416579847,j2s6s300_link_base,-0.3185170590877533,-0.14845174551010132,-0.009476453065872192,0.4949621856212616,0.8501631021499634,-0.1663978397846222,0.06743045896291733
1681293098515730778,34345,1681293098515567145,j2s6s300_link_base,-0.31851696968078613,-0.1484510898590088,-0.009476721286773682,0.49496471881866455,0.8501620292663574,-0.166396364569664,0.06743032485246658
1681293098616971661,34346,1681293098616582021,j2s6s300_link_base,-0.3185173273086548,-0.1484505534172058,-0.009476497769355774,0.49496665596961975,0.8501610159873962,-0.1663956642150879,0.06742973625659943
1681293098716960673,34347,1681293098716595545,j2s6s300_link_base,-0.3185173273086548,-0.1484505534172058,-0.009476497769355774,0.4949686825275421,0.8501598238945007,-0.16639551520347595,0.06743013858795166
1681293098817045622,34348,1681293098816578504,j2s6s300_link_base,-0.31851726770401,-0.14844997227191925,-0.009476721286773682,0.4949708580970764,0.8501588106155396,-0.16639427840709686,0.06743007153272629
1681293098916947619,34349,1681293098916567896,j2s6s300_link_base,-0.31851691007614136,-0.14844998717308044,-0.009476721286773682,0.49497172236442566,0.8501583337783813,-0.16639387607574463,0.06743080914020538
1681293099016972921,34350,1681293099016533722,j2s6s300_link_base,-0.31851691007614136,-0.14844998717308044,-0.009476721286773682,0.49497249722480774,0.8501579165458679,-0.16639383137226105,0.06743096560239792
1681293099116986556,34351,1681293099116549387,j2s6s300_link_base,-0.31851726770401,-0.14844942092895508,-0.009476497769355774,0.49497491121292114,0.8501567244529724,-0.16639289259910583,0.06743036210536957
1681293099217966423,34352,1681293099217531770,j2s6s300_link_base,-0.31851726770401,-0.14844942092895508,-0.009476497769355774,0.49497491121292114,0.8501567244529724,-0.16639289259910583,0.06743036210536957
1681293099315894990,34353,1681293099315678112,j2s6s300_link_base,-0.318516343832016,-0.14844928681850433,-0.00947660207748413,0.49497589468955994,0.8501561880111694,-0.16639232635498047,0.06743117421865463
1681293099416909798,34354,1681293099416533700,j2s6s300_link_base,-0.318516343832016,-0.14844928681850433,-0.00947660207748413,0.49497660994529724,0.850155770778656,-0.1663922667503357,0.06743130832910538
1681293099516979184,34355,1681293099516533349,j2s6s300_link_base,-0.3185162842273712,-0.14844870567321777,-0.009476810693740845,0.4949783980846405,0.8501549363136292,-0.1663910448551178,0.06743115931749344
1681293099617963019,34356,1681293099617530859,j2s6s300_link_base,-0.3185162842273712,-0.14844870567321777,-0.009476810693740845,0.49497923254966736,0.8501545190811157,-0.16639098525047302,0.06743131577968597
1681293099716974468,34357,1681293099716533778,j2s6s300_link_base,-0.3185162842273712,-0.14844870567321777,-0.009476810693740845,0.49497923254966736,0.8501545190811157,-0.16639098525047302,0.06743131577968597
1681293099817926233,34358,1681293099817530718,j2s6s300_link_base,-0.3185162842273712,-0.14844870567321777,-0.009476810693740845,0.49498000741004944,0.8501540422439575,-0.16639092564582825,0.06743147224187851
