%time,field.header.seq,field.header.stamp,field.header.frame_id,field.pose.position.x,field.pose.position.y,field.pose.position.z,field.pose.orientation.x,field.pose.orientation.y,field.pose.orientation.z,field.pose.orientation.w
1681292431217127662,27672,1681292431216751219,j2s6s300_link_base,0.28113406896591187,-0.6429859399795532,0.00610269233584404,0.21187539398670197,-0.6985906958580017,0.20767608284950256,-0.6511148810386658
1681292431317115699,27673,1681292431316751118,j2s6s300_link_base,0.2811340093612671,-0.642985999584198,0.006101794540882111,0.21187430620193481,-0.6985915899276733,0.20767584443092346,-0.6511142253875732
1681292431417115201,27674,1681292431416709704,j2s6s300_link_base,0.2811340093612671,-0.642985999584198,0.006101794540882111,0.21187430620193481,-0.6985915899276733,0.20767584443092346,-0.6511142253875732
1681292431517118192,27675,1681292431516709928,j2s6s300_link_base,0.2811340093612671,-0.642985999584198,0.006101794540882111,0.21187430620193481,-0.6985915899276733,0.20767584443092346,-0.6511142253875732
1681292431617129808,27676,1681292431616742928,j2s6s300_link_base,0.2811340093612671,-0.642985999584198,0.006101794540882111,0.21187430620193481,-0.6985915899276733,0.20767584443092346,-0.6511142253875732
1681292431717110088,27677,1681292431716741346,j2s6s300_link_base,0.2811340093612671,-0.642985999584198,0.006101794540882111,0.21187430620193481,-0.6985915899276733,0.20767584443092346,-0.6511142253875732
1681292431816032160,27678,1681292431815721091,j2s6s300_link_base,0.2811340093612671,-0.642985999584198,0.006101794540882111,0.21187430620193481,-0.6985915899276733,0.20767584443092346,-0.6511142253875732
1681292431917107417,27679,1681292431916740622,j2s6s300_link_base,0.2811340093612671,-0.642985999584198,0.006101794540882111,0.21187430620193481,-0.6985915899276733,0.20767584443092346,-0.6511142253875732
1681292432018168326,27680,1681292432017750200,j2s6s300_link_base,0.2811340093612671,-0.642985999584198,0.006101794540882111,0.21187430620193481,-0.6985915899276733,0.20767584443092346,-0.6511142253875732
1681292432117141312,27681,1681292432116741460,j2s6s300_link_base,0.2811340093612671,-0.642985999584198,0.006101794540882111,0.21187430620193481,-0.6985915899276733,0.20767584443092346,-0.6511142253875732
1681292432217067278,27682,1681292432216706400,j2s6s300_link_base,0.2811340093612671,-0.642985999584198,0.006101794540882111,0.21187430620193481,-0.6985915899276733,0.20767584443092346,-0.6511142253875732
1681292432317106547,27683,1681292432316708957,j2s6s300_link_base,0.2811340093612671,-0.642985999584198,0.006101794540882111,0.21187430620193481,-0.6985915899276733,0.20767584443092346,-0.6511142253875732
1681292432417080310,27684,1681292432416707731,j2s6s300_link_base,0.2811340093612671,-0.642985999584198,0.006101794540882111,0.21187430620193481,-0.6985915899276733,0.20767584443092346,-0.6511142253875732
1681292432517107904,27685,1681292432516703542,j2s6s300_link_base,0.2811340093612671,-0.642985999584198,0.006101794540882111,0.21187430620193481,-0.6985915899276733,0.20767584443092346,-0.6511142253875732
1681292432615937577,27686,1681292432615714963,j2s6s300_link_base,0.2811340093612671,-0.642985999584198,0.006101794540882111,0.21187430620193481,-0.6985915899276733,0.20767584443092346,-0.6511142253875732
1681292432717127939,27687,1681292432716711853,j2s6s300_link_base,0.2811340093612671,-0.642985999584198,0.006101794540882111,0.21187430620193481,-0.6985915899276733,0.20767584443092346,-0.6511142253875732
1681292432817160864,27688,1681292432816750448,j2s6s300_link_base,0.2811340093612671,-0.642985999584198,0.006101794540882111,0.21187430620193481,-0.6985915899276733,0.20767584443092346,-0.6511142253875732
1681292432917165810,27689,1681292432916750168,j2s6s300_link_base,0.2811340093612671,-0.642985999584198,0.006101794540882111,0.21187430620193481,-0.6985915899276733,0.20767584443092346,-0.6511142253875732
1681292433017145931,27690,1681292433016741143,j2s6s300_link_base,0.2811340093612671,-0.642985999584198,0.006101794540882111,0.21187430620193481,-0.6985915899276733,0.20767584443092346,-0.6511142253875732
1681292433117163525,27691,1681292433116741842,j2s6s300_link_base,0.28110674023628235,-0.6429983973503113,0.006103044375777245,0.21186009049415588,-0.6985959410667419,0.20769032835960388,-0.6511095762252808
1681292433217238056,27692,1681292433216751731,j2s6s300_link_base,0.28112486004829407,-0.6429908871650696,0.006103947758674622,0.21187040209770203,-0.6985927820205688,0.20768168568611145,-0.65111243724823
1681292433317191553,27693,1681292433316740664,j2s6s300_link_base,0.2811470031738281,-0.642988920211792,0.0061231255531311035,0.21189317107200623,-0.6985863447189331,0.207680344581604,-0.6511123776435852
1681292433416162752,27694,1681292433415860395,j2s6s300_link_base,0.28114181756973267,-0.6429940462112427,0.006129905581474304,0.2118937373161316,-0.6985861659049988,0.2076866626739502,-0.6511103510856628
1681292433517659489,27695,1681292433517587940,j2s6s300_link_base,0.2811669111251831,-0.6432415246963501,0.0067443083971738815,0.2122141718864441,-0.6984788179397583,0.2080112099647522,-0.6510174870491028
1681292433617191395,27696,1681292433616741930,j2s6s300_link_base,0.28125447034835815,-0.643878698348999,0.00835869088768959,0.21306917071342468,-0.6981933116912842,0.20885160565376282,-0.6507754325866699
1681292433717178097,27697,1681292433716740606,j2s6s300_link_base,0.28136157989501953,-0.6445859670639038,0.010184060782194138,0.21386092901229858,-0.6980311274528503,0.20975643396377563,-0.6503985524177551
1681292433817169918,27698,1681292433816739941,j2s6s300_link_base,0.2813771963119507,-0.6459193229675293,0.01298682950437069,0.21297615766525269,-0.7014158964157104,0.212415874004364,-0.6461704969406128
1681292433917168915,27699,1681292433916753884,j2s6s300_link_base,0.2810920476913452,-0.6469274163246155,0.015513477846980095,0.21111607551574707,-0.710408627986908,0.21446199715137482,-0.6362040638923645
1681292434017168634,27700,1681292434016750135,j2s6s300_link_base,0.2807079553604126,-0.6477944850921631,0.019534878432750702,0.20880314707756042,-0.7208887934684753,0.21679148077964783,-0.6242772340774536
1681292434117188065,27701,1681292434116751751,j2s6s300_link_base,0.2810816764831543,-0.6479918360710144,0.02474171295762062,0.20962992310523987,-0.7293422222137451,0.21529075503349304,-0.6146261096000671
1681292434215991995,27702,1681292434215720087,j2s6s300_link_base,0.2809898853302002,-0.6479853391647339,0.029656406491994858,0.21224626898765564,-0.7353864908218384,0.213713139295578,-0.6070295572280884
1681292434317159265,27703,1681292434316752413,j2s6s300_link_base,0.2801664173603058,-0.6486959457397461,0.03705879673361778,0.2138357162475586,-0.7410807013511658,0.21238985657691956,-0.5999701619148254
1681292434417147376,27704,1681292434416750930,j2s6s300_link_base,0.2798979580402374,-0.6490484476089478,0.045182354748249054,0.21476764976978302,-0.7451587319374084,0.2112962007522583,-0.5949515700340271
1681292434517155729,27705,1681292434516748812,j2s6s300_link_base,0.2798894941806793,-0.6495715975761414,0.053916580975055695,0.2147650271654129,-0.750102698802948,0.21150043606758118,-0.5886334776878357
1681292434617175989,27706,1681292434616754299,j2s6s300_link_base,0.27981123328208923,-0.649725615978241,0.06374600529670715,0.2146502137184143,-0.7546368837356567,0.2120020091533661,-0.5826694369316101
1681292434717140019,27707,1681292434716753346,j2s6s300_link_base,0.2796598970890045,-0.6499394178390503,0.07356740534305573,0.21382823586463928,-0.7593631744384766,0.21265588700771332,-0.5765609741210938
1681292434817166148,27708,1681292434816728577,j2s6s300_link_base,0.279878169298172,-0.6499651670455933,0.08376941829919815,0.21267303824424744,-0.7640683650970459,0.21324294805526733,-0.5705236196517944
1681292434918255442,27709,1681292434917772709,j2s6s300_link_base,0.27983227372169495,-0.6497629880905151,0.09280535578727722,0.2108130156993866,-0.7690312266349792,0.21358337998390198,-0.5643854141235352
1681292435016106645,27710,1681292435015872809,j2s6s300_link_base,0.28006720542907715,-0.6496025323867798,0.10198412090539932,0.20984242856502533,-0.7721847891807556,0.2143203467130661,-0.5601460933685303
1681292435117156719,27711,1681292435116750628,j2s6s300_link_base,0.2803591787815094,-0.6496116518974304,0.11278117448091507,0.20932215452194214,-0.7751320600509644,0.21542806923389435,-0.5558283925056458
1681292435215127378,27712,1681292435214874214,j2s6s300_link_base,0.280275821685791,-0.6495808362960815,0.12122977524995804,0.20847967267036438,-0.7772520184516907,0.21563497185707092,-0.553097665309906
1681292435317170426,27713,1681292435316738329,j2s6s300_link_base,0.2798108756542206,-0.6495475172996521,0.13120555877685547,0.20789697766304016,-0.7791002988815308,0.21603819727897644,-0.5505534410476685
1681292435417171101,27714,1681292435416743792,j2s6s300_link_base,0.27948686480522156,-0.649567723274231,0.14042004942893982,0.2072354257106781,-0.780218780040741,0.21624904870986938,-0.5491343140602112
1681292435517187884,27715,1681292435516753975,j2s6s300_link_base,0.2793146073818207,-0.6496884822845459,0.14975541830062866,0.20668810606002808,-0.7808367609977722,0.21655374765396118,-0.5483415722846985
1681292435617153361,27716,1681292435616753086,j2s6s300_link_base,0.2791326940059662,-0.6497494578361511,0.15862534940242767,0.20665240287780762,-0.7814053893089294,0.21694150567054749,-0.5473908185958862
1681292435717123115,27717,1681292435716748679,j2s6s300_link_base,0.2789479196071625,-0.6498786807060242,0.16741281747817993,0.2061111032962799,-0.7820646166801453,0.21696563065052032,-0.5466433167457581
1681292435815106237,27718,1681292435814891934,j2s6s300_link_base,0.2786955237388611,-0.6498682498931885,0.17476841807365417,0.20622363686561584,-0.7826949954032898,0.2170456349849701,-0.5456661581993103
1681292435917221149,27719,1681292435916740874,j2s6s300_link_base,0.2774311602115631,-0.649941086769104,0.18260815739631653,0.2053840160369873,-0.7839393019676208,0.21660487353801727,-0.5443701148033142
1681292436017141724,27720,1681292436016730359,j2s6s300_link_base,0.2740575671195984,-0.6507051587104797,0.1898459494113922,0.20560088753700256,-0.7845215797424316,0.2181107997894287,-0.5428459644317627
1681292436117130028,27721,1681292436116749636,j2s6s300_link_base,0.26794829964637756,-0.650890588760376,0.1958882212638855,0.20497049391269684,-0.7850020527839661,0.2180280238389969,-0.5424230098724365
1681292436217146061,27722,1681292436216738534,j2s6s300_link_base,0.2598753869533539,-0.6510148048400879,0.2013368010520935,0.20424668490886688,-0.78542160987854,0.21897467970848083,-0.5417068600654602
1681292436317179000,27723,1681292436316752673,j2s6s300_link_base,0.2507795989513397,-0.6513954401016235,0.20535355806350708,0.19917112588882446,-0.7866625189781189,0.2220587432384491,-0.5405395030975342
1681292436417137544,27724,1681292436416748282,j2s6s300_link_base,0.2416728436946869,-0.6512277126312256,0.20916470885276794,0.19589003920555115,-0.7871619462966919,0.22617067396640778,-0.5393052697181702
1681292436517173706,27725,1681292436516749076,j2s6s300_link_base,0.23258845508098602,-0.6510032415390015,0.21351400017738342,0.19354814291000366,-0.7867014408111572,0.23032629489898682,-0.5390637516975403
1681292436615084290,27726,1681292436614875479,j2s6s300_link_base,0.22402805089950562,-0.6510862112045288,0.21666088700294495,0.19099131226539612,-0.7862130999565125,0.23340079188346863,-0.5393657684326172
1681292436717105838,27727,1681292436716708039,j2s6s300_link_base,0.21336574852466583,-0.65186607837677,0.21991406381130219,0.1877298355102539,-0.7859711050987244,0.23668062686920166,-0.5394342541694641
1681292436817103730,27728,1681292436816705460,j2s6s300_link_base,0.20334279537200928,-0.6524200439453125,0.22157055139541626,0.18578636646270752,-0.7861794233322144,0.23839707672595978,-0.539047360420227
1681292436917110526,27729,1681292436916707888,j2s6s300_link_base,0.1930524855852127,-0.652238130569458,0.2225094735622406,0.1842336654663086,-0.7862232327461243,0.2388266623020172,-0.5393263101577759
1681292437017135223,27730,1681292437016706882,j2s6s300_link_base,0.18304115533828735,-0.6519888639450073,0.22311052680015564,0.1829475313425064,-0.7862885594367981,0.2391131967306137,-0.5395418405532837
1681292437117096893,27731,1681292437116704858,j2s6s300_link_base,0.173768550157547,-0.6512323617935181,0.22424861788749695,0.18258792161941528,-0.7856724858283997,0.23909804224967957,-0.5405666828155518
1681292437217171416,27732,1681292437216729510,j2s6s300_link_base,0.16416151821613312,-0.6507037878036499,0.2253391593694687,0.1828831136226654,-0.7853467464447021,0.23953314125537872,-0.5407477021217346
1681292437317152196,27733,1681292437316765667,j2s6s300_link_base,0.15574753284454346,-0.6493193507194519,0.2260681837797165,0.1843787580728531,-0.7847083806991577,0.2385157197713852,-0.5416155457496643
1681292437415988435,27734,1681292437415772159,j2s6s300_link_base,0.14770382642745972,-0.6489819884300232,0.22683675587177277,0.18516185879707336,-0.7845864295959473,0.23888489603996277,-0.5413624048233032
1681292437517124017,27735,1681292437516751875,j2s6s300_link_base,0.13700123131275177,-0.6478915214538574,0.22615879774093628,0.18292009830474854,-0.789030134677887,0.24023228883743286,-0.5350327491760254
1681292437618565189,27736,1681292437617888934,j2s6s300_link_base,0.12606596946716309,-0.6466630697250366,0.2288990616798401,0.1769668012857437,-0.7947501540184021,0.24817286431789398,-0.524847686290741
1681292437717168096,27737,1681292437716748375,j2s6s300_link_base,0.11691737174987793,-0.6446033716201782,0.23002184927463531,-0.16834014654159546,0.7965347766876221,-0.26175662875175476,0.5183408260345459
1681292437817119649,27738,1681292437816746468,j2s6s300_link_base,0.10851745307445526,-0.6427490711212158,0.2326403111219406,-0.15744927525520325,0.7906334400177002,-0.2807708978652954,0.5208418369293213
1681292437917111011,27739,1681292437916751163,j2s6s300_link_base,0.09959246218204498,-0.6418697834014893,0.23453915119171143,-0.14717328548431396,0.7807244658470154,-0.3003341257572174,0.5278339385986328
1681292438017155078,27740,1681292438016748736,j2s6s300_link_base,0.0901089757680893,-0.6411699056625366,0.23867423832416534,-0.13667455315589905,0.7688707113265991,-0.3195384740829468,0.5367056131362915
1681292438117129021,27741,1681292438116750097,j2s6s300_link_base,0.0809454470872879,-0.6407351493835449,0.24400539696216583,-0.12409646809101105,0.756936252117157,-0.3367776870727539,0.5461030006408691
1681292438214763938,27742,1681292438214600010,j2s6s300_link_base,0.07429620623588562,-0.6403666734695435,0.2487146258354187,-0.11231806874275208,0.7481156587600708,-0.3488593101501465,0.5531769394874573
1681292438317167223,27743,1681292438316738115,j2s6s300_link_base,0.06559942662715912,-0.639960527420044,0.2555975317955017,-0.09925013780593872,0.7369915246963501,-0.36457765102386475,0.5604247450828552
1681292438417159139,27744,1681292438416736862,j2s6s300_link_base,0.05663567781448364,-0.6397891640663147,0.260479599237442,-0.089256152510643,0.7272616624832153,-0.3774874806404114,0.5662394165992737
1681292438517144171,27745,1681292438516737549,j2s6s300_link_base,0.04741781949996948,-0.6396961808204651,0.26431551575660706,-0.08366546034812927,0.7161135077476501,-0.3865235447883606,0.5751357078552246
1681292438617153151,27746,1681292438616751137,j2s6s300_link_base,0.03817860782146454,-0.6407598257064819,0.26541975140571594,-0.07995995879173279,0.7072319388389587,-0.3921024203300476,0.5828250646591187
1681292438718411286,27747,1681292438717883903,j2s6s300_link_base,0.028023242950439453,-0.6428892612457275,0.26691341400146484,-0.07778346538543701,0.7001185417175293,-0.39814263582229614,0.5875934362411499
1681292438817129391,27748,1681292438816738602,j2s6s300_link_base,0.017321422696113586,-0.6444656848907471,0.26828286051750183,-0.07136610150337219,0.6923524141311646,-0.4056212306022644,0.5924748778343201
1681292438917118187,27749,1681292438916737228,j2s6s300_link_base,0.006286546587944031,-0.6466363668441772,0.2701256275177002,-0.05811792612075806,0.6806797981262207,-0.4207623600959778,0.5968722105026245
1681292439018142470,27750,1681292439017714292,j2s6s300_link_base,-0.004145532846450806,-0.6476631164550781,0.2714104652404785,-0.040382832288742065,0.6689932346343994,-0.43501996994018555,0.6013109683990479
1681292439118128862,27751,1681292439117736770,j2s6s300_link_base,-0.013936519622802734,-0.648143470287323,0.27200302481651306,-0.02162972092628479,0.6578558087348938,-0.4478858709335327,0.605108380317688
1681292439217150932,27752,1681292439216735870,j2s6s300_link_base,-0.024230197072029114,-0.6485165357589722,0.2721345126628876,-0.0016255974769592285,0.6461750268936157,-0.4606776237487793,0.6084662675857544
1681292439317130639,27753,1681292439316747376,j2s6s300_link_base,-0.034615471959114075,-0.6485680341720581,0.2722111940383911,0.01891845464706421,0.6351127624511719,-0.47244107723236084,0.6107971668243408
1681292439417154089,27754,1681292439416752253,j2s6s300_link_base,-0.04425676167011261,-0.6483166813850403,0.2717839479446411,0.041695356369018555,0.6276719570159912,-0.48160356283187866,0.6102027893066406
1681292439517148521,27755,1681292439516741559,j2s6s300_link_base,-0.05430568754673004,-0.6473984718322754,0.2709902226924896,0.0660376250743866,0.625846266746521,-0.4880646765232086,0.6047713160514832
1681292439617139567,27756,1681292439616747777,j2s6s300_link_base,-0.06449170410633087,-0.6469343900680542,0.27062171697616577,0.08916787803173065,0.6260807514190674,-0.496182918548584,0.5948734879493713
1681292439717137037,27757,1681292439716748115,j2s6s300_link_base,-0.07495284080505371,-0.6465292572975159,0.27003827691078186,0.11138595640659332,0.6256935596466064,-0.5057066679000854,0.583405077457428
1681292439818124554,27758,1681292439817704935,j2s6s300_link_base,-0.08521619439125061,-0.6459380388259888,0.2696385979652405,0.13028095662593842,0.623397946357727,-0.5142220854759216,0.5744367837905884
1681292439917129440,27759,1681292439916702494,j2s6s300_link_base,-0.09494741261005402,-0.6453295946121216,0.2698098123073578,0.14367826282978058,0.6185175180435181,-0.5229479670524597,0.5686107873916626
1681292440017123909,27760,1681292440016704467,j2s6s300_link_base,-0.1049378365278244,-0.6449832320213318,0.2701495289802551,0.15349441766738892,0.6144193410873413,-0.5298212170600891,0.56410813331604
1681292440115977762,27761,1681292440115690530,j2s6s300_link_base,-0.11371728777885437,-0.6443939208984375,0.27078545093536377,0.1588907092809677,0.6120428442955017,-0.5347831845283508,0.5605036020278931
1681292440217142258,27762,1681292440216751839,j2s6s300_link_base,-0.12406973540782928,-0.6436110138893127,0.27103352546691895,0.16381029784679413,0.6100794076919556,-0.5388228893280029,0.5573500990867615
1681292440317147819,27763,1681292440316748485,j2s6s300_link_base,-0.1325480192899704,-0.643215000629425,0.2712341845035553,0.16572755575180054,0.6093658208847046,-0.5400723814964294,0.556353747844696
1681292440417179597,27764,1681292440416766340,j2s6s300_link_base,-0.13914796710014343,-0.6426098346710205,0.27152031660079956,0.16122722625732422,0.6145092844963074,-0.5335088968276978,0.5583478808403015
1681292440517135259,27765,1681292440516746742,j2s6s300_link_base,-0.1469620019197464,-0.6414204239845276,0.2685756981372833,0.15976253151893616,0.6293750405311584,-0.5192942023277283,0.5556046962738037
1681292440617154128,27766,1681292440616749712,j2s6s300_link_base,-0.1571405678987503,-0.6384009122848511,0.2656650245189667,0.1647842526435852,0.6470977067947388,-0.5064439177513123,0.5455504655838013
1681292440717155808,27767,1681292440716718574,j2s6s300_link_base,-0.16754309833049774,-0.6340472102165222,0.26642921566963196,0.16989651322364807,0.6589646339416504,-0.49973204731941223,0.5358810424804688
1681292440817147531,27768,1681292440816748639,j2s6s300_link_base,-0.17751847207546234,-0.6295698881149292,0.26916006207466125,0.17704321444034576,0.6626042127609253,-0.5023089647293091,0.5265900492668152
1681292440917156250,27769,1681292440916744239,j2s6s300_link_base,-0.18573525547981262,-0.6239523887634277,0.26861807703971863,0.18783359229564667,0.6599056124687195,-0.5096466541290283,0.5191369652748108
1681292441017174698,27770,1681292441016734981,j2s6s300_link_base,-0.19498595595359802,-0.620099663734436,0.2688598930835724,0.19678889214992523,0.6482462882995605,-0.5241633057594299,0.5160462856292725
1681292441117158423,27771,1681292441116749899,j2s6s300_link_base,-0.2050395905971527,-0.6171916127204895,0.2692019045352936,0.20525388419628143,0.6294589638710022,-0.5403175354003906,0.5193353891372681
1681292441217112458,27772,1681292441216691465,j2s6s300_link_base,-0.21490541100502014,-0.6149804592132568,0.26783040165901184,0.2155812531709671,0.6104171276092529,-0.5544002056121826,0.5230258703231812
1681292441317176786,27773,1681292441316772041,j2s6s300_link_base,-0.22499391436576843,-0.6132655739784241,0.26694783568382263,0.22822973132133484,0.591204047203064,-0.5670745968818665,0.5261324048042297
1681292441417174044,27774,1681292441416749211,j2s6s300_link_base,-0.2354682981967926,-0.6119173169136047,0.2653660178184509,0.24592925608158112,0.5748306512832642,-0.5761778354644775,0.5264101028442383
1681292441517150465,27775,1681292441516748968,j2s6s300_link_base,-0.24628403782844543,-0.6107589602470398,0.2636782228946686,0.2672511339187622,0.5597366094589233,-0.5825611352920532,0.5252564549446106
1681292441618194674,27776,1681292441617743013,j2s6s300_link_base,-0.25674813985824585,-0.6097378730773926,0.26212215423583984,0.2885761260986328,0.5448721051216125,-0.5875354409217834,0.5240612626075745
1681292441717174577,27777,1681292441716748244,j2s6s300_link_base,-0.2666265070438385,-0.6091105937957764,0.26082247495651245,0.3102583587169647,0.529416024684906,-0.5912267565727234,0.523363471031189
1681292441817228109,27778,1681292441816766444,j2s6s300_link_base,-0.2766023874282837,-0.6085444092750549,0.2596588730812073,0.3309343159198761,0.5137745141983032,-0.5948677062988281,0.5221596956253052
1681292441918169396,27779,1681292441917755431,j2s6s300_link_base,-0.28641176223754883,-0.6080117225646973,0.2583124041557312,0.3513566255569458,0.49732643365859985,-0.5958758592605591,0.5235904455184937
1681292442017133656,27780,1681292442016751722,j2s6s300_link_base,-0.29481059312820435,-0.6074902415275574,0.2567702531814575,0.36989572644233704,0.48159030079841614,-0.5931052565574646,0.5286530256271362
1681292442117160899,27781,1681292442116736738,j2s6s300_link_base,-0.30229610204696655,-0.605866551399231,0.25459572672843933,0.38552194833755493,0.468702495098114,-0.5858718156814575,0.5370707511901855
1681292442217162960,27782,1681292442216751369,j2s6s300_link_base,-0.3107406795024872,-0.6043079495429993,0.2520739734172821,0.3939223885536194,0.46307313442230225,-0.5758208632469177,0.546643078327179
1681292442316152539,27783,1681292442315727763,j2s6s300_link_base,-0.317442387342453,-0.6033676862716675,0.25020691752433777,0.39236190915107727,0.4664836525917053,-0.5647236108779907,0.5563563108444214
1681292442418186624,27784,1681292442417747328,j2s6s300_link_base,-0.3252774477005005,-0.6028115153312683,0.24804973602294922,0.38235747814178467,0.47892481088638306,-0.5560255646705627,0.5614885687828064
1681292442517132219,27785,1681292442516747546,j2s6s300_link_base,-0.33358344435691833,-0.6025446653366089,0.245405375957489,0.37585270404815674,0.49210619926452637,-0.5550780296325684,0.5553869009017944
1681292442618465512,27786,1681292442617884120,j2s6s300_link_base,-0.34060803055763245,-0.6014418005943298,0.24156083166599274,0.37796080112457275,0.5025085210800171,-0.5593373775482178,0.5401596426963806
1681292442717164091,27787,1681292442716735820,j2s6s300_link_base,-0.3422345519065857,-0.5996787548065186,0.2389838546514511,0.3836113512516022,0.5139140486717224,-0.5655625462532043,0.5185303092002869
1681292442817174024,27788,1681292442816744083,j2s6s300_link_base,-0.34028518199920654,-0.597696840763092,0.2400013655424118,0.38890114426612854,0.5226550698280334,-0.5738301277160645,0.49629291892051697
1681292442917165134,27789,1681292442916735755,j2s6s300_link_base,-0.3373350203037262,-0.5969030857086182,0.2405186891555786,0.3968319892883301,0.5281955003738403,-0.5825605392456055,0.47345224022865295
1681292443017153025,27790,1681292443016746293,j2s6s300_link_base,-0.3357997238636017,-0.5958483219146729,0.23989859223365784,0.40720421075820923,0.5302216410636902,-0.5916521549224854,0.45055240392684937
1681292443116260736,27791,1681292443115839030,j2s6s300_link_base,-0.33381330966949463,-0.5953851342201233,0.23915040493011475,0.41514986753463745,0.5310431122779846,-0.5986400842666626,0.43275129795074463
1681292443217154328,27792,1681292443216695912,j2s6s300_link_base,-0.33173099160194397,-0.5950993895530701,0.23708195984363556,0.42047762870788574,0.5302140712738037,-0.6057382225990295,0.41851264238357544
1681292443317128447,27793,1681292443316701493,j2s6s300_link_base,-0.33081308007240295,-0.5947885513305664,0.2363247126340866,0.4172963798046112,0.5259542465209961,-0.6153833866119385,0.4129636287689209
1681292443417028115,27794,1681292443416612561,j2s6s300_link_base,-0.328634649515152,-0.5949961543083191,0.23329122364521027,0.4122288227081299,0.5213559865951538,-0.6227514743804932,0.4128386676311493
1681292443517116409,27795,1681292443516698899,j2s6s300_link_base,-0.32842278480529785,-0.5943940877914429,0.2299312949180603,0.4090225100517273,0.5171478390693665,-0.6287865042686462,0.4121725261211395
1681292443617100211,27796,1681292443616690244,j2s6s300_link_base,-0.3275732100009918,-0.5943355560302734,0.22645244002342224,0.4071499705314636,0.5145003199577332,-0.6320505738258362,0.4123475253582001
1681292443717123357,27797,1681292443716699148,j2s6s300_link_base,-0.3280338644981384,-0.5938248038291931,0.22397185862064362,0.4052530825138092,0.5127705335617065,-0.6355313062667847,0.41101861000061035
1681292443817129418,27798,1681292443816700872,j2s6s300_link_base,-0.3281483054161072,-0.5933422446250916,0.22111551463603973,0.4008563458919525,0.5147029161453247,-0.6400691270828247,0.405840665102005
1681292443915997026,27799,1681292443915675441,j2s6s300_link_base,-0.32785630226135254,-0.5928343534469604,0.21857494115829468,0.39063265919685364,0.5211054086685181,-0.6484125256538391,0.39422887563705444
1681292444017106978,27800,1681292444016733627,j2s6s300_link_base,-0.327627956867218,-0.5919784307479858,0.2166094183921814,0.3747294545173645,0.5301888585090637,-0.6612046360969543,0.37588027119636536
1681292444117115990,27801,1681292444116745255,j2s6s300_link_base,-0.3270266652107239,-0.5906795263290405,0.21553704142570496,0.36066174507141113,0.5385906100273132,-0.6715235710144043,0.35902559757232666
1681292444217126840,27802,1681292444216744005,j2s6s300_link_base,-0.32638171315193176,-0.5865095853805542,0.2121296226978302,0.352714478969574,0.548059344291687,-0.6769018769264221,0.34209245443344116
1681292444317083583,27803,1681292444316731606,j2s6s300_link_base,-0.3257630467414856,-0.5783563852310181,0.21027280390262604,0.35059812664985657,0.5561423897743225,-0.6788722276687622,0.32698485255241394
1681292444417158973,27804,1681292444416747810,j2s6s300_link_base,-0.3253369629383087,-0.5684735774993896,0.21031570434570312,0.35302507877349854,0.5629184246063232,-0.6783524751663208,0.3135826587677002
1681292444517111899,27805,1681292444516747267,j2s6s300_link_base,-0.32578712701797485,-0.5585339665412903,0.2098020613193512,0.3574824631214142,0.5687347054481506,-0.6761120557785034,0.3026873469352722
1681292444617108088,27806,1681292444616712979,j2s6s300_link_base,-0.32561779022216797,-0.5487135648727417,0.2082928866147995,0.36000198125839233,0.5744171738624573,-0.6729046106338501,0.2960452437400818
1681292444715868574,27807,1681292444715689665,j2s6s300_link_base,-0.3248215317726135,-0.5402998328208923,0.20695310831069946,0.3561273217201233,0.5770716071128845,-0.6725744605064392,0.2963196039199829
1681292444817173799,27808,1681292444816742937,j2s6s300_link_base,-0.3238297402858734,-0.5307152271270752,0.2060396373271942,0.3434208631515503,0.5752755403518677,-0.6780182719230652,0.3023431897163391
1681292444917090843,27809,1681292444916734962,j2s6s300_link_base,-0.3239149749279022,-0.5218750238418579,0.20410972833633423,0.33535969257354736,0.5733579993247986,-0.6816151142120361,0.30691254138946533
1681292445017114230,27810,1681292445016735592,j2s6s300_link_base,-0.3246421813964844,-0.5143001675605774,0.2012835294008255,0.33482879400253296,0.5741760730743408,-0.6816758513450623,0.3058261275291443
1681292445117123320,27811,1681292445116747328,j2s6s300_link_base,-0.3250538408756256,-0.5079352855682373,0.19848284125328064,0.34071019291877747,0.5761507153511047,-0.679084062576294,0.30134984850883484
1681292445217173868,27812,1681292445216744300,j2s6s300_link_base,-0.3249540328979492,-0.5028281211853027,0.19759085774421692,0.34479251503944397,0.578179121017456,-0.6772648096084595,0.29688286781311035
1681292445317162201,27813,1681292445316750348,j2s6s300_link_base,-0.32465848326683044,-0.4992184638977051,0.1968601942062378,0.3482881188392639,0.5799846053123474,-0.6754015684127808,0.2935062348842621
1681292445417162950,27814,1681292445416717444,j2s6s300_link_base,-0.32439735531806946,-0.4966660141944885,0.19638264179229736,0.3511759340763092,0.580949604511261,-0.6739702820777893,0.2914396822452545
1681292445515783888,27815,1681292445515635782,j2s6s300_link_base,-0.3241015076637268,-0.4951504170894623,0.19592875242233276,0.35297220945358276,0.5817758440971375,-0.6728676557540894,0.2901664972305298
1681292445617142852,27816,1681292445616738368,j2s6s300_link_base,-0.3245188891887665,-0.4934424161911011,0.19474653899669647,0.3550330400466919,0.582572877407074,-0.6718388795852661,0.2884320616722107
1681292445717152429,27817,1681292445716741882,j2s6s300_link_base,-0.3253583014011383,-0.4918919801712036,0.1924521028995514,0.3543519377708435,0.5825988054275513,-0.6723713874816895,0.2879757881164551
1681292445817150750,27818,1681292445816705991,j2s6s300_link_base,-0.3246810734272003,-0.49053066968917847,0.188188374042511,0.3479873836040497,0.5800723433494568,-0.675338864326477,0.2938336431980133
1681292445917167999,27819,1681292445916740847,j2s6s300_link_base,-0.32391947507858276,-0.48986148834228516,0.18399271368980408,0.3385502099990845,0.576140820980072,-0.6800029277801514,0.3017309606075287
1681292446017122928,27820,1681292446016698157,j2s6s300_link_base,-0.324298620223999,-0.4891178607940674,0.17988088726997375,0.33084216713905334,0.5723159909248352,-0.6840963959693909,0.30823689699172974
1681292446117170152,27821,1681292446116744441,j2s6s300_link_base,-0.32496383786201477,-0.487942636013031,0.1763053685426712,0.32812854647636414,0.5730645060539246,-0.6837732195854187,0.31045591831207275
1681292446217177102,27822,1681292446216742552,j2s6s300_link_base,-0.32514116168022156,-0.4860490560531616,0.17187809944152832,0.3306214511394501,0.5820866823196411,-0.6757829785346985,0.3085155189037323
1681292446315880502,27823,1681292446315702445,j2s6s300_link_base,-0.3248622417449951,-0.4816383719444275,0.1681349128484726,0.3388223350048065,0.5948358774185181,-0.663312554359436,0.302301287651062
1681292446417157988,27824,1681292446416744645,j2s6s300_link_base,-0.3237334191799164,-0.4745977818965912,0.16473138332366943,0.345944344997406,0.6036986708641052,-0.6532129645347595,0.2986356019973755
1681292446517164226,27825,1681292446516741310,j2s6s300_link_base,-0.32410725951194763,-0.467380166053772,0.16126608848571777,0.3478512167930603,0.6087226271629333,-0.6491634845733643,0.29503071308135986
1681292446617150245,27826,1681292446616734230,j2s6s300_link_base,-0.32451483607292175,-0.461952269077301,0.15703174471855164,0.34903421998023987,0.6119266748428345,-0.6465204954147339,0.292800635099411
1681292446717172781,27827,1681292446716748590,j2s6s300_link_base,-0.3248436450958252,-0.4571247100830078,0.15124550461769104,0.35074716806411743,0.6148961782455444,-0.643605649471283,0.2909483313560486
1681292446817145700,27828,1681292446816745092,j2s6s300_link_base,-0.325380802154541,-0.4535585045814514,0.14539118111133575,0.35278254747390747,0.6167334318161011,-0.6414035558700562,0.28945764899253845
1681292446917103914,27829,1681292446916744199,j2s6s300_link_base,-0.3254165053367615,-0.4509585499763489,0.13977494835853577,0.3544982671737671,0.6183415651321411,-0.639237642288208,0.28872138261795044
1681292447017152354,27830,1681292447016723469,j2s6s300_link_base,-0.32488593459129333,-0.4491763412952423,0.1351284235715866,0.3550821542739868,0.6199465394020081,-0.637599527835846,0.28818362951278687
1681292447115956163,27831,1681292447115715727,j2s6s300_link_base,-0.3247937262058258,-0.44771480560302734,0.13175442814826965,0.35575973987579346,0.6208201050758362,-0.6365364789962769,0.2878173291683197
1681292447217168448,27832,1681292447216740537,j2s6s300_link_base,-0.3247889280319214,-0.44585615396499634,0.12893258035182953,0.3561226427555084,0.6216685771942139,-0.6355996131896973,0.2876070737838745
1681292447317179067,27833,1681292447316753891,j2s6s300_link_base,-0.3246921896934509,-0.4422109127044678,0.12700167298316956,0.3560048043727875,0.6222525238990784,-0.6349362134933472,0.2879555821418762
1681292447417661376,27834,1681292447417548355,j2s6s300_link_base,-0.3241463601589203,-0.43552088737487793,0.125358447432518,0.35513436794281006,0.6234633326530457,-0.6343089938163757,0.28779351711273193
1681292447517244299,27835,1681292447516750812,j2s6s300_link_base,-0.32388046383857727,-0.42911261320114136,0.12404550611972809,0.35530486702919006,0.6240206956863403,-0.6336404085159302,0.28784799575805664
1681292447618363686,27836,1681292447617872638,j2s6s300_link_base,-0.3242039382457733,-0.42233172059059143,0.12187160551548004,0.35578399896621704,0.6242194175720215,-0.6333698034286499,0.28742027282714844
1681292447717227075,27837,1681292447716750638,j2s6s300_link_base,-0.3247368037700653,-0.4180193543434143,0.11891359835863113,0.35618817806243896,0.6241173148155212,-0.6335915923118591,0.28665176033973694
1681292447818168999,27838,1681292447817764101,j2s6s300_link_base,-0.3238948583602905,-0.4141896367073059,0.11333613842725754,0.35722416639328003,0.6240312457084656,-0.632549524307251,0.2878490388393402
1681292447915051826,27839,1681292447914871093,j2s6s300_link_base,-0.3234088718891144,-0.4116438627243042,0.10786887258291245,0.35761669278144836,0.6241352558135986,-0.6321895122528076,0.2879270315170288
1681292448018196092,27840,1681292448017742829,j2s6s300_link_base,-0.3235682547092438,-0.40922582149505615,0.1011919379234314,0.35836556553840637,0.6242114901542664,-0.6318863034248352,0.28749558329582214
1681292448118166445,27841,1681292448117746371,j2s6s300_link_base,-0.323395699262619,-0.40662962198257446,0.0961209386587143,0.3590492606163025,0.624386727809906,-0.6310938596725464,0.2880025804042816
1681292448217149098,27842,1681292448216748293,j2s6s300_link_base,-0.32298728823661804,-0.4035540819168091,0.09324255585670471,0.3576412498950958,0.6254063844680786,-0.6305237412452698,0.28878968954086304
1681292448318180098,27843,1681292448317746986,j2s6s300_link_base,-0.3221800923347473,-0.39941665530204773,0.09010516107082367,0.3549570143222809,0.6318641304969788,-0.6242681741714478,0.291620671749115
1681292448417142039,27844,1681292448416743566,j2s6s300_link_base,-0.32123374938964844,-0.39639198780059814,0.08649268746376038,0.35267671942710876,0.6443665623664856,-0.6109741926193237,0.29516327381134033
1681292448517167436,27845,1681292448516744234,j2s6s300_link_base,-0.3211587965488434,-0.3935195207595825,0.0835123360157013,0.3507894277572632,0.6554083824157715,-0.5985692143440247,0.29849866032600403
1681292448618182575,27846,1681292448617745181,j2s6s300_link_base,-0.32188674807548523,-0.3908730745315552,0.07969384640455246,0.3498723804950714,0.6637927889823914,-0.5891187191009521,0.2998458743095398
1681292448716063806,27847,1681292448715843978,j2s6s300_link_base,-0.3226746916770935,-0.3893105387687683,0.07665567100048065,0.35133764147758484,0.6671723127365112,-0.5855087041854858,0.29769521951675415
1681292448817118643,27848,1681292448816698744,j2s6s300_link_base,-0.32308292388916016,-0.38703882694244385,0.0729367583990097,0.35643723607063293,0.6683211326599121,-0.5858255624771118,0.2882840633392334
1681292448917120254,27849,1681292448916698253,j2s6s300_link_base,-0.3212154805660248,-0.38245341181755066,0.06749357283115387,0.3626282215118408,0.6698795557022095,-0.5844880938529968,0.2795276641845703
1681292449018536369,27850,1681292449018016398,j2s6s300_link_base,-0.3194659352302551,-0.3758082687854767,0.0610896460711956,0.36780819296836853,0.6715814471244812,-0.5822933316230774,0.2731848955154419
1681292449117084995,27851,1681292449116702417,j2s6s300_link_base,-0.3181135654449463,-0.3706098198890686,0.05586963891983032,0.369249165058136,0.6773870587348938,-0.5749448537826538,0.27247095108032227
1681292449217136993,27852,1681292449216700620,j2s6s300_link_base,-0.31447067856788635,-0.36556366086006165,0.04956042766571045,0.3677995204925537,0.6892268061637878,-0.5591103434562683,0.2776429057121277
1681292449317100799,27853,1681292449316696453,j2s6s300_link_base,-0.3134561777114868,-0.3617618680000305,0.04521527141332626,0.3657931089401245,0.6987856030464172,-0.5463166236877441,0.2818373739719391
1681292449417086862,27854,1681292449416698813,j2s6s300_link_base,-0.3138495087623596,-0.3590346872806549,0.04111524671316147,0.3637334108352661,0.7056185007095337,-0.5378562211990356,0.2837449908256531
1681292449516667988,27855,1681292449516536968,j2s6s300_link_base,-0.31491100788116455,-0.35733962059020996,0.03727732598781586,0.36179664731025696,0.7099625468254089,-0.5331159234046936,0.2843305468559265
1681292449617068708,27856,1681292449616731926,j2s6s300_link_base,-0.31543853878974915,-0.3560115098953247,0.031241998076438904,0.361415296792984,0.7122877240180969,-0.5299854278564453,0.2848522663116455
1681292449718358574,27857,1681292449717876342,j2s6s300_link_base,-0.3156309425830841,-0.35486534237861633,0.023598335683345795,0.3624301552772522,0.7137459516525269,-0.5267950296401978,0.28582870960235596
1681292449818360979,27858,1681292449817877921,j2s6s300_link_base,-0.31585749983787537,-0.3538503646850586,0.017874784767627716,0.36373287439346313,0.7157109975814819,-0.5238900184631348,0.2845969498157501
1681292449917141665,27859,1681292449916698046,j2s6s300_link_base,-0.31684547662734985,-0.3526875078678131,0.013694316148757935,0.3664759397506714,0.7184227108955383,-0.5210403800010681,0.2794298827648163
1681292450017137407,27860,1681292450016698930,j2s6s300_link_base,-0.3167359530925751,-0.3499186038970947,0.009309403598308563,0.37109702825546265,0.7226235270500183,-0.5159246921539307,0.27188974618911743
1681292450117121737,27861,1681292450116697530,j2s6s300_link_base,-0.3161875009536743,-0.34524595737457275,0.00643756240606308,0.37643539905548096,0.7257915139198303,-0.5111067891120911,0.2651282548904419
1681292450217137110,27862,1681292450216698778,j2s6s300_link_base,-0.3158656358718872,-0.3391604423522949,0.00493573397397995,0.37953561544418335,0.7285551428794861,-0.5077880620956421,0.2594444751739502
1681292450317181800,27863,1681292450316749170,j2s6s300_link_base,-0.31616631150245667,-0.33342552185058594,0.003652721643447876,0.38323351740837097,0.73051518201828,-0.5041236877441406,0.2556149363517761
1681292450413852078,27864,1681292450413721686,j2s6s300_link_base,-0.3164953589439392,-0.3288753926753998,0.002950996160507202,0.3847653269767761,0.7328784465789795,-0.5006564855575562,0.25335338711738586
1681292450517152334,27865,1681292450516735863,j2s6s300_link_base,-0.3165605068206787,-0.32469263672828674,0.0018923059105873108,0.38579702377319336,0.7353065013885498,-0.49692782759666443,0.2520866096019745
1681292450617162965,27866,1681292450616742814,j2s6s300_link_base,-0.3164479434490204,-0.3204810619354248,0.000948883593082428,0.38600099086761475,0.7369467616081238,-0.49456340074539185,0.2516343593597412
1681292450717166917,27867,1681292450716731382,j2s6s300_link_base,-0.3168502748012543,-0.3166159391403198,-5.920231342315674e-05,0.38474103808403015,0.7374730706214905,-0.4943188726902008,0.2525007426738739
1681292450817157956,27868,1681292450816733305,j2s6s300_link_base,-0.3178519010543823,-0.31275221705436707,-0.003343626856803894,0.38106203079223633,0.7379417419433594,-0.4950016438961029,0.2553568184375763
1681292450918135359,27869,1681292450917717630,j2s6s300_link_base,-0.31962886452674866,-0.3094615936279297,-0.007446318864822388,0.37863844633102417,0.7378156781196594,-0.49582117795944214,0.25772517919540405
1681292451017158591,27870,1681292451016729998,j2s6s300_link_base,-0.32175037264823914,-0.3071494400501251,-0.01017269492149353,0.3785753548145294,0.7375376224517822,-0.49635496735572815,0.25758618116378784
1681292451117187996,27871,1681292451116745110,j2s6s300_link_base,-0.32295864820480347,-0.3051494061946869,-0.012796014547348022,0.38034510612487793,0.7380143404006958,-0.49491363763809204,0.25638431310653687
1681292451217118734,27872,1681292451216699049,j2s6s300_link_base,-0.3236748278141022,-0.3035024404525757,-0.014670930802822113,0.3824979364871979,0.739250659942627,-0.49243053793907166,0.2543931305408478
1681292451317145605,27873,1681292451316745709,j2s6s300_link_base,-0.3247750699520111,-0.3019530177116394,-0.016216546297073364,0.38477247953414917,0.7401260137557983,-0.490747332572937,0.25165602564811707
1681292451417110405,27874,1681292451416748346,j2s6s300_link_base,-0.32542407512664795,-0.2996689975261688,-0.01726272702217102,0.3862873613834381,0.7408397197723389,-0.4896140396595001,0.24943284690380096
1681292451517109914,27875,1681292451516733588,j2s6s300_link_base,-0.3264574110507965,-0.29638195037841797,-0.018160410225391388,0.3878110349178314,0.7412504553794861,-0.4890459179878235,0.2469504177570343
1681292451617107500,27876,1681292451616686824,j2s6s300_link_base,-0.32682764530181885,-0.29270923137664795,-0.019113540649414062,0.3885039985179901,0.7418031096458435,-0.4883009195327759,0.24567243456840515
1681292451717035941,27877,1681292451716698179,j2s6s300_link_base,-0.3270026445388794,-0.28925594687461853,-0.020411960780620575,0.3893878757953644,0.742967963218689,-0.48613986372947693,0.24503830075263977
1681292451817125111,27878,1681292451816739877,j2s6s300_link_base,-0.32556387782096863,-0.2862623333930969,-0.022699952125549316,0.3885451555252075,0.7466851472854614,-0.48047664761543274,0.24624395370483398
1681292451917145449,27879,1681292451916744455,j2s6s300_link_base,-0.32516226172447205,-0.2837904691696167,-0.02458977699279785,0.38861730694770813,0.750222384929657,-0.4742338955402374,0.24747729301452637
1681292452017128473,27880,1681292452016699873,j2s6s300_link_base,-0.32608646154403687,-0.28153401613235474,-0.026650890707969666,0.3895706832408905,0.7540150284767151,-0.4687125086784363,0.2449583113193512
1681292452117109870,27881,1681292452116697827,j2s6s300_link_base,-0.32650086283683777,-0.2789573669433594,-0.029132656753063202,0.39038458466529846,0.7570187449455261,-0.46419912576675415,0.24298496544361115
1681292452217129258,27882,1681292452216698340,j2s6s300_link_base,-0.3273380994796753,-0.2761637568473816,-0.03202703595161438,0.39166712760925293,0.7591910362243652,-0.4606201946735382,0.24094578623771667
1681292452317102362,27883,1681292452316711609,j2s6s300_link_base,-0.32879331707954407,-0.27334827184677124,-0.036407336592674255,0.3964904844760895,0.7620654702186584,-0.4552273154258728,0.23413605988025665
1681292452417120023,27884,1681292452416736626,j2s6s300_link_base,-0.3304871916770935,-0.27029505372047424,-0.04129655659198761,0.40534135699272156,0.765588641166687,-0.44746464490890503,0.2221435010433197
1681292452517100993,27885,1681292452516751749,j2s6s300_link_base,-0.33143970370292664,-0.2683449983596802,-0.04472754895687103,0.40892794728279114,0.7714992761611938,-0.4378226101398468,0.2141920030117035
1681292452617130001,27886,1681292452616733501,j2s6s300_link_base,-0.3330897390842438,-0.26563793420791626,-0.04740151762962341,0.4113266170024872,0.7784191370010376,-0.4244190752506256,0.21152402460575104
1681292452717145144,27887,1681292452716757551,j2s6s300_link_base,-0.33415329456329346,-0.2627354860305786,-0.049358516931533813,0.41125547885894775,0.7844182252883911,-0.4133227467536926,0.21147377789020538
1681292452817132055,27888,1681292452816780768,j2s6s300_link_base,-0.334929496049881,-0.2596881687641144,-0.051032453775405884,0.41102781891822815,0.7891149520874023,-0.4052480459213257,0.21006616950035095
1681292452917162604,27889,1681292452916752138,j2s6s300_link_base,-0.33782798051834106,-0.25651058554649353,-0.05217544734477997,0.4157787561416626,0.791314423084259,-0.4006953239440918,0.20097939670085907
1681292453017138131,27890,1681292453016731318,j2s6s300_link_base,-0.3396275043487549,-0.2532656490802765,-0.0530051589012146,0.42122936248779297,0.7925429344177246,-0.3978082537651062,0.1902368664741516
1681292453117153002,27891,1681292453116745856,j2s6s300_link_base,-0.33971646428108215,-0.24828875064849854,-0.05342906713485718,0.42335382103919983,0.7943379878997803,-0.395470529794693,0.1827615201473236
1681292453217107458,27892,1681292453216743882,j2s6s300_link_base,-0.340225487947464,-0.24097424745559692,-0.053624749183654785,0.4250880777835846,0.7959921360015869,-0.3927310109138489,0.17736689746379852
1681292453313855390,27893,1681292453313708993,j2s6s300_link_base,-0.3402060866355896,-0.23348355293273926,-0.054090410470962524,0.425425261259079,0.8013677000999451,-0.382372111082077,0.17497068643569946
1681292453418094318,27894,1681292453417699382,j2s6s300_link_base,-0.34163761138916016,-0.22585153579711914,-0.052675843238830566,0.4302358329296112,0.8099721074104309,-0.3631734251976013,0.1641567349433899
1681292453518097657,27895,1681292453517700711,j2s6s300_link_base,-0.34270408749580383,-0.21928401291370392,-0.049343496561050415,0.4418412446975708,0.8147871494293213,-0.3445318937301636,0.14898346364498138
1681292453617133239,27896,1681292453616743202,j2s6s300_link_base,-0.342073917388916,-0.21271896362304688,-0.04589484632015228,0.44768187403678894,0.8210839033126831,-0.3267589807510376,0.13649436831474304
1681292453718160588,27897,1681292453717755713,j2s6s300_link_base,-0.3410327732563019,-0.20512914657592773,-0.042048871517181396,0.44935983419418335,0.8293351531028748,-0.30760708451271057,0.12512758374214172
1681292453818136091,27898,1681292453817726943,j2s6s300_link_base,-0.3412747383117676,-0.19899025559425354,-0.03974388539791107,0.45380720496177673,0.8343727588653564,-0.29108914732933044,0.11466541141271591
1681292453918085601,27899,1681292453917744836,j2s6s300_link_base,-0.3414502739906311,-0.19411097466945648,-0.03811027109622955,0.4589535892009735,0.8387607932090759,-0.2743171751499176,0.10291817039251328
1681292454017151214,27900,1681292454016744825,j2s6s300_link_base,-0.3416370153427124,-0.19032956659793854,-0.037070974707603455,0.46395638585090637,0.8425816893577576,-0.2577104866504669,0.09157421439886093
1681292454118140601,27901,1681292454117742941,j2s6s300_link_base,-0.34136962890625,-0.18611721694469452,-0.03578045964241028,0.46730345487594604,0.8475365042686462,-0.2384493201971054,0.08031909167766571
1681292454218103540,27902,1681292454217745677,j2s6s300_link_base,-0.3410949409008026,-0.18287143111228943,-0.034572407603263855,0.4683031141757965,0.8514284491539001,-0.22461965680122375,0.07285556942224503
1681292454318129766,27903,1681292454317743312,j2s6s300_link_base,-0.3412195146083832,-0.17939898371696472,-0.03288233280181885,0.4711381494998932,0.8535969257354736,-0.2126753330230713,0.06457749009132385
1681292454416410682,27904,1681292454415920014,j2s6s300_link_base,-0.34148457646369934,-0.17533552646636963,-0.03006751835346222,0.4732714593410492,0.8550554513931274,-0.20399029552936554,0.05729081109166145
1681292454518171092,27905,1681292454517767347,j2s6s300_link_base,-0.3413880467414856,-0.1689988076686859,-0.02471230924129486,0.47379356622695923,0.8570835590362549,-0.1960625946521759,0.04986849054694176
1681292454618143982,27906,1681292454617742843,j2s6s300_link_base,-0.34135010838508606,-0.16154144704341888,-0.019068121910095215,0.47566697001457214,0.858060359954834,-0.188899964094162,0.04230977222323418
1681292454717129780,27907,1681292454716745964,j2s6s300_link_base,-0.3412899076938629,-0.1550426483154297,-0.013449952006340027,0.47809335589408875,0.8583847284317017,-0.18277157843112946,0.034598834812641144
1681292454817172552,27908,1681292454816741154,j2s6s300_link_base,-0.3410513401031494,-0.14881575107574463,-0.008108079433441162,0.4794865846633911,0.8591037392616272,-0.1768120527267456,0.027765102684497833
1681292454918180794,27909,1681292454917742609,j2s6s300_link_base,-0.3404252827167511,-0.1438792645931244,-0.00374603271484375,0.47948065400123596,0.8607179522514343,-0.1693635731935501,0.024062171578407288
1681292455018153658,27910,1681292455017743730,j2s6s300_link_base,-0.3395489454269409,-0.1402982473373413,-0.0008444786071777344,0.4806596040725708,0.8614764213562012,-0.16212902963161469,0.02321598306298256
1681292455118146415,27911,1681292455117744495,j2s6s300_link_base,-0.33875858783721924,-0.13800391554832458,0.0012101829051971436,0.48186030983924866,0.8617560863494873,-0.15701043605804443,0.023125778883695602
1681292455216097538,27912,1681292455215730101,j2s6s300_link_base,-0.33838212490081787,-0.13646453619003296,0.0025833845138549805,0.4822944402694702,0.8621391654014587,-0.15357719361782074,0.022851672023534775
1681292455317154689,27913,1681292455316742155,j2s6s300_link_base,-0.3385310471057892,-0.13517315685749054,0.0038500726222991943,0.4827415645122528,0.862378716468811,-0.15090692043304443,0.022148873656988144
1681292455417156305,27914,1681292455416740956,j2s6s300_link_base,-0.3388686776161194,-0.13465985655784607,0.004849523305892944,0.48264166712760925,0.8626320362091064,-0.14984014630317688,0.021701153367757797
1681292455515591520,27915,1681292455515533401,j2s6s300_link_base,-0.33907878398895264,-0.13465610146522522,0.0050733089447021484,0.48281559348106384,0.8625365495681763,-0.1498430222272873,0.021607499569654465
1681292455616997189,27916,1681292455616671114,j2s6s300_link_base,-0.33920615911483765,-0.13467466831207275,0.005088984966278076,0.4829031825065613,0.8624797463417053,-0.14989645779132843,0.02154957503080368
1681292455717068198,27917,1681292455716695902,j2s6s300_link_base,-0.3392234444618225,-0.13467712700366974,0.005101710557937622,0.4830263555049896,0.8624093532562256,-0.14990271627902985,0.0215606726706028
1681292455817122876,27918,1681292455816741358,j2s6s300_link_base,-0.33927762508392334,-0.13468825817108154,0.005173325538635254,0.4829733967781067,0.8624305725097656,-0.14996184408664703,0.021487794816493988
1681292455918116726,27919,1681292455917695211,j2s6s300_link_base,-0.33934471011161804,-0.1347077637910843,0.005293518304824829,0.4827503561973572,0.8625430464744568,-0.15004946291446686,0.021372824907302856
1681292456015139505,27920,1681292456014832862,j2s6s300_link_base,-0.3393636643886566,-0.1347152292728424,0.005327880382537842,0.48263829946517944,0.8626022934913635,-0.15007370710372925,0.021340377628803253
1681292456117171980,27921,1681292456116779469,j2s6s300_link_base,-0.33944496512413025,-0.13473036885261536,0.0053739845752716064,0.4826163351535797,0.8626053929328918,-0.1501375436782837,0.021262936294078827
1681292456217165456,27922,1681292456216742098,j2s6s300_link_base,-0.33945122361183167,-0.13473527133464813,0.0053855180740356445,0.48260751366615295,0.8626089692115784,-0.1501467376947403,0.02125256136059761
1681292456317170916,27923,1681292456316736292,j2s6s300_link_base,-0.339464008808136,-0.13474182784557343,0.005400568246841431,0.48260024189949036,0.862610936164856,-0.15016105771064758,0.021235767751932144
1681292456416200442,27924,1681292456415742093,j2s6s300_link_base,-0.33948105573654175,-0.13475200533866882,0.005432218313217163,0.4825853109359741,0.8626157641410828,-0.15018604695796967,0.021205950528383255
1681292456517185669,27925,1681292456516738112,j2s6s300_link_base,-0.33952903747558594,-0.13476642966270447,0.005493134260177612,0.48256364464759827,0.862619936466217,-0.15024082362651825,0.0211385078728199
1681292456617099547,27926,1681292456616696797,j2s6s300_link_base,-0.33959391713142395,-0.13477864861488342,0.005581289529800415,0.482541561126709,0.8626214265823364,-0.15031655132770538,0.021043702960014343
1681292456717142592,27927,1681292456716741970,j2s6s300_link_base,-0.33961325883865356,-0.1347818374633789,0.00559583306312561,0.4825398325920105,0.862619936466217,-0.15033338963985443,0.021023109555244446
1681292456815994559,27928,1681292456815704633,j2s6s300_link_base,-0.3396168649196625,-0.13478319346904755,0.005596339702606201,0.48253923654556274,0.8626201152801514,-0.15033544600009918,0.02102067321538925
1681292456917254207,27929,1681292456916756977,j2s6s300_link_base,-0.33961957693099976,-0.13478365540504456,0.0055977702140808105,0.48253950476646423,0.8626195788383484,-0.15033753216266632,0.021018289029598236
1681292457017191474,27930,1681292457016743174,j2s6s300_link_base,-0.3396240472793579,-0.13478508591651917,0.005598336458206177,0.4825396239757538,0.8626191020011902,-0.1503400355577469,0.02101537585258484
1681292457117178437,27931,1681292457116741922,j2s6s300_link_base,-0.33962586522102356,-0.13478538393974304,0.005598574876785278,0.4825402796268463,0.8626185655593872,-0.15034104883670807,0.021014273166656494
1681292457217151477,27932,1681292457216753888,j2s6s300_link_base,-0.33962753415107727,-0.13478636741638184,0.005598783493041992,0.4825383424758911,0.8626195192337036,-0.15034207701683044,0.02101309224963188
1681292457317154061,27933,1681292457316738798,j2s6s300_link_base,-0.3396294116973877,-0.1347866654396057,0.005599021911621094,0.4825388789176941,0.8626190423965454,-0.150343120098114,0.021011941134929657
1681292457417139058,27934,1681292457416693847,j2s6s300_link_base,-0.33963027596473694,-0.13478681445121765,0.0055991411209106445,0.4825405478477478,0.8626181483268738,-0.15034356713294983,0.021011605858802795
1681292457517133936,27935,1681292457516692519,j2s6s300_link_base,-0.33963125944137573,-0.1347869634628296,0.005599290132522583,0.4825402796268463,0.8626181483268738,-0.15034405887126923,0.021010898053646088
1681292457615955732,27936,1681292457615676673,j2s6s300_link_base,-0.33963218331336975,-0.13478712737560272,0.005599379539489746,0.48254111409187317,0.8626176118850708,-0.1503446102142334,0.021010451018810272
1681292457717116694,27937,1681292457716692671,j2s6s300_link_base,-0.3396330773830414,-0.13478727638721466,0.005599498748779297,0.48254096508026123,0.8626176118850708,-0.1503450572490692,0.02100980281829834
1681292457817131750,27938,1681292457816693834,j2s6s300_link_base,-0.3396330773830414,-0.13478727638721466,0.005599498748779297,0.48254096508026123,0.8626176118850708,-0.1503450572490692,0.02100980281829834
1681292457917119527,27939,1681292457916692945,j2s6s300_link_base,-0.33963412046432495,-0.134787455201149,0.005599647760391235,0.48254165053367615,0.8626171946525574,-0.150345578789711,0.021009180694818497
1681292458017155234,27940,1681292458016738490,j2s6s300_link_base,-0.33963412046432495,-0.134787455201149,0.005599647760391235,0.48254165053367615,0.8626171946525574,-0.150345578789711,0.021009180694818497
1681292458118203232,27941,1681292458117755761,j2s6s300_link_base,-0.33963504433631897,-0.13478758931159973,0.0055997371673583984,0.482541561126709,0.8626171946525574,-0.15034617483615875,0.021008577197790146
1681292458217159230,27942,1681292458216754584,j2s6s300_link_base,-0.33963504433631897,-0.13478758931159973,0.0055997371673583984,0.4825427532196045,0.8626164793968201,-0.15034613013267517,0.02100878581404686
1681292458317157418,27943,1681292458316744599,j2s6s300_link_base,-0.33963504433631897,-0.13478758931159973,0.0055997371673583984,0.4825427532196045,0.8626164793968201,-0.15034613013267517,0.02100878581404686
1681292458415957964,27944,1681292458415723111,j2s6s300_link_base,-0.3396359980106354,-0.13478775322437286,0.005599886178970337,0.4825425446033478,0.8626165390014648,-0.15034662187099457,0.02100808545947075
1681292458517110662,27945,1681292458516727476,j2s6s300_link_base,-0.3396359980106354,-0.13478775322437286,0.005599886178970337,0.4825425446033478,0.8626165390014648,-0.15034662187099457,0.02100808545947075
1681292458617170357,27946,1681292458616729574,j2s6s300_link_base,-0.3396359980106354,-0.13478775322437286,0.005599886178970337,0.4825425446033478,0.8626165390014648,-0.15034662187099457,0.02100808545947075
1681292458717181274,27947,1681292458716743914,j2s6s300_link_base,-0.3396359980106354,-0.13478775322437286,0.005599886178970337,0.4825425446033478,0.8626165390014648,-0.15034662187099457,0.02100808545947075
1681292458817125994,27948,1681292458816695553,j2s6s300_link_base,-0.3396369218826294,-0.1347879022359848,0.0055999755859375,0.4825424551963806,0.8626164197921753,-0.15034708380699158,0.021007467061281204
