%time,field.header.seq,field.header.stamp,field.header.frame_id,field.pose.position.x,field.pose.position.y,field.pose.position.z,field.pose.orientation.x,field.pose.orientation.y,field.pose.orientation.z,field.pose.orientation.w
1681292509717094057,28457,1681292509716715532,j2s6s300_link_base,0.25032639503479004,-0.45428910851478577,0.28235727548599243,-0.12958669662475586,0.7015395164489746,-0.19640597701072693,0.672662079334259
1681292509817125028,28458,1681292509816716100,j2s6s300_link_base,0.25032639503479004,-0.45428910851478577,0.28235727548599243,-0.12958669662475586,0.7015395164489746,-0.19640597701072693,0.672662079334259
1681292509917073531,28459,1681292509916695051,j2s6s300_link_base,0.25032639503479004,-0.45428910851478577,0.28235727548599243,-0.12958669662475586,0.7015395164489746,-0.19640597701072693,0.672662079334259
1681292510017061466,28460,1681292510016702867,j2s6s300_link_base,0.25032639503479004,-0.45428910851478577,0.28235727548599243,-0.12958669662475586,0.7015395164489746,-0.19640597701072693,0.672662079334259
1681292510117067025,28461,1681292510116704315,j2s6s300_link_base,0.25032639503479004,-0.45428910851478577,0.28235727548599243,-0.12958669662475586,0.7015395164489746,-0.19640597701072693,0.672662079334259
1681292510217030907,28462,1681292510216704407,j2s6s300_link_base,0.25032639503479004,-0.45428910851478577,0.28235727548599243,-0.12958669662475586,0.7015395164489746,-0.19640597701072693,0.672662079334259
1681292510315701049,28463,1681292510315594891,j2s6s300_link_base,0.25032639503479004,-0.45428910851478577,0.28235727548599243,-0.12958669662475586,0.7015395164489746,-0.19640597701072693,0.672662079334259
1681292510417087589,28464,1681292510416715217,j2s6s300_link_base,0.25032639503479004,-0.45428910851478577,0.28235727548599243,-0.12958669662475586,0.7015395164489746,-0.19640597701072693,0.672662079334259
1681292510518231674,28465,1681292510517698577,j2s6s300_link_base,0.25032639503479004,-0.45428910851478577,0.28235727548599243,-0.12958669662475586,0.7015395164489746,-0.19640597701072693,0.672662079334259
1681292510617119265,28466,1681292510616719564,j2s6s300_link_base,0.25032639503479004,-0.45428910851478577,0.28235727548599243,-0.12958669662475586,0.7015395164489746,-0.19640597701072693,0.672662079334259
1681292510717095551,28467,1681292510716719751,j2s6s300_link_base,0.25032639503479004,-0.45428910851478577,0.28235727548599243,-0.12958669662475586,0.7015395164489746,-0.19640597701072693,0.672662079334259
1681292510817132038,28468,1681292510816713828,j2s6s300_link_base,0.2503008246421814,-0.45430320501327515,0.28235727548599243,-0.1295669972896576,0.7015432119369507,-0.1964249163866043,0.6726565361022949
1681292510918100664,28469,1681292510917705959,j2s6s300_link_base,0.2503073215484619,-0.45429956912994385,0.28235727548599243,-0.1295720338821411,0.7015421390533447,-0.1964201182126999,0.6726579666137695
1681292511017084762,28470,1681292511016675685,j2s6s300_link_base,0.25030362606048584,-0.4543016254901886,0.28235727548599243,-0.12956908345222473,0.7015427947044373,-0.1964227855205536,0.6726571321487427
1681292511115952293,28471,1681292511115729235,j2s6s300_link_base,0.2503008246421814,-0.45430320501327515,0.28235727548599243,-0.1295669972896576,0.7015432119369507,-0.1964249163866043,0.6726565361022949
1681292511217058169,28472,1681292511216667549,j2s6s300_link_base,0.2503008246421814,-0.45430320501327515,0.28235727548599243,-0.1295669972896576,0.7015432119369507,-0.1964249163866043,0.6726565361022949
1681292511317088093,28473,1681292511316670649,j2s6s300_link_base,0.25029999017715454,-0.45430323481559753,0.2823570668697357,-0.1295657753944397,0.7015433311462402,-0.19642505049705505,0.6726564764976501
1681292511417120413,28474,1681292511416702592,j2s6s300_link_base,0.2502973675727844,-0.45430511236190796,0.28235727548599243,-0.12956425547599792,0.7015436887741089,-0.19642749428749084,0.6726558208465576
1681292511518099336,28475,1681292511517704304,j2s6s300_link_base,0.25029370188713074,-0.4543071687221527,0.28235727548599243,-0.12956148386001587,0.7015442252159119,-0.19643020629882812,0.6726549863815308
1681292511618086165,28476,1681292511617654037,j2s6s300_link_base,0.25028911232948303,-0.4543101489543915,0.2823575437068939,-0.12955862283706665,0.7015447020530701,-0.19643425941467285,0.67265385389328
1681292511718156631,28477,1681292511717714818,j2s6s300_link_base,0.2502807378768921,-0.4543170928955078,0.2823612093925476,-0.12955695390701294,0.7015447020530701,-0.19644515216350555,0.672650933265686
1681292511817133577,28478,1681292511816703785,j2s6s300_link_base,0.24995164573192596,-0.4545019567012787,0.28236326575279236,-0.1293078064918518,0.7015904784202576,-0.19669334590435028,0.6725786328315735
1681292511914880500,28479,1681292511914723030,j2s6s300_link_base,0.2495175153017044,-0.45474326610565186,0.2823677062988281,-0.1289786398410797,0.7016507387161255,-0.19702020287513733,0.6724833250045776
1681292512017121206,28480,1681292512016701781,j2s6s300_link_base,0.24924848973751068,-0.4548915922641754,0.28236737847328186,-0.12876906991004944,0.7016886472702026,-0.1972196251153946,0.6724254488945007
1681292512117151623,28481,1681292512116721458,j2s6s300_link_base,0.24755297601222992,-0.4556522071361542,0.2822962999343872,-0.12770363688468933,0.7019797563552856,-0.19823813438415527,0.6720253229141235
1681292512217130217,28482,1681292512216697290,j2s6s300_link_base,0.241903617978096,-0.4555213451385498,0.2815650403499603,-0.12804925441741943,0.7029619216918945,-0.19812995195388794,0.6709638237953186
1681292512317070291,28483,1681292512316666462,j2s6s300_link_base,0.23306038975715637,-0.45476195216178894,0.28132298588752747,-0.13233071565628052,0.703727662563324,-0.1962152123451233,0.6698921918869019
1681292512417174121,28484,1681292512416733068,j2s6s300_link_base,0.22398528456687927,-0.4539532959461212,0.2815566062927246,-0.1406812220811844,0.7055723667144775,-0.18764585256576538,0.6687043905258179
1681292512518327080,28485,1681292512517713419,j2s6s300_link_base,0.2150842398405075,-0.45509472489356995,0.28155428171157837,-0.14937478303909302,0.7083995342254639,-0.17784318327903748,0.6665051579475403
1681292512617119976,28486,1681292512616670817,j2s6s300_link_base,0.20783182978630066,-0.4572318196296692,0.281952440738678,-0.15539391338825226,0.7103742361068726,-0.17153742909431458,0.6646774411201477
1681292512716892310,28487,1681292512716673970,j2s6s300_link_base,0.2021840512752533,-0.4585254490375519,0.282278835773468,0.15978160500526428,-0.7111344337463379,0.16797056794166565,-0.663734495639801
1681292512818103086,28488,1681292512817651095,j2s6s300_link_base,0.19644798338413239,-0.45966964960098267,0.2827026844024658,0.15895596146583557,-0.7107963562011719,0.1694517582654953,-0.6639183759689331
1681292512917158347,28489,1681292512916714410,j2s6s300_link_base,0.19125892221927643,-0.4607536792755127,0.2829984426498413,-0.15617896616458893,0.7106739282608032,-0.1719243824481964,0.6640728712081909
1681292513017121015,28490,1681292513016718070,j2s6s300_link_base,0.18479539453983307,-0.4607754349708557,0.2832774519920349,-0.15448099374771118,0.7100365161895752,-0.17311379313468933,0.664842426776886
1681292513117145641,28491,1681292513116719308,j2s6s300_link_base,0.17747879028320312,-0.461571604013443,0.2836005389690399,-0.1538439691066742,0.7091879844665527,-0.1746247410774231,0.6655002236366272
1681292513217151505,28492,1681292513216712398,j2s6s300_link_base,0.1694614738225937,-0.4633488059043884,0.2837523818016052,-0.15427346527576447,0.7086274027824402,-0.1764264851808548,0.6655228137969971
1681292513317163490,28493,1681292513316713756,j2s6s300_link_base,0.16233667731285095,-0.4668464660644531,0.28409862518310547,-0.15320459008216858,0.7084466218948364,-0.1781727373600006,0.6654970645904541
1681292513417148724,28494,1681292513416706998,j2s6s300_link_base,0.15661539137363434,-0.4721221923828125,0.2843669652938843,-0.15229874849319458,0.708277702331543,-0.17886441946029663,0.6656991839408875
1681292513517650651,28495,1681292513517552395,j2s6s300_link_base,0.1501317322254181,-0.47884243726730347,0.28405526280403137,-0.1515740156173706,0.7085548639297485,-0.17823141813278198,0.6657393574714661
1681292513617058687,28496,1681292513616667948,j2s6s300_link_base,0.14327320456504822,-0.48492300510406494,0.28326091170310974,-0.1518729031085968,0.7090882658958435,-0.17695501446723938,0.6654436588287354
1681292513717059365,28497,1681292513716670739,j2s6s300_link_base,0.13595089316368103,-0.4897536039352417,0.28323793411254883,-0.15241074562072754,0.7086924910545349,-0.17539778351783752,0.6661543846130371
1681292513817056852,28498,1681292513816669011,j2s6s300_link_base,0.12835100293159485,-0.49475768208503723,0.28284966945648193,-0.15197569131851196,0.7101536989212036,-0.1753830760717392,0.6646997332572937
1681292513917115190,28499,1681292513916717361,j2s6s300_link_base,0.12264329195022583,-0.4982389807701111,0.2824559211730957,-0.15111754834651947,0.7129153609275818,-0.17537835240364075,0.6619347929954529
1681292514017066790,28500,1681292514016683643,j2s6s300_link_base,0.11753194034099579,-0.5013478398323059,0.28317990899086,-0.14931830763816833,0.7153198719024658,-0.17738094925880432,0.6592097878456116
1681292514117129840,28501,1681292514116712301,j2s6s300_link_base,0.11327546834945679,-0.5044119954109192,0.2833351194858551,-0.1469312310218811,0.7178109288215637,-0.17976272106170654,0.6563870906829834
1681292514217099345,28502,1681292514216716353,j2s6s300_link_base,0.10636177659034729,-0.5070183873176575,0.28356409072875977,-0.14419089257717133,0.7199649214744568,-0.18353991210460663,0.653584361076355
1681292514317040210,28503,1681292514316658667,j2s6s300_link_base,0.09708747267723083,-0.5099682211875916,0.2835279703140259,-0.14014706015586853,0.7216957807540894,-0.189321830868721,0.6509003639221191
1681292514417137621,28504,1681292514416712422,j2s6s300_link_base,0.0879317969083786,-0.5131539702415466,0.2830207645893097,-0.1336236596107483,0.7221530675888062,-0.19606098532676697,0.649769127368927
1681292514518172255,28505,1681292514517717680,j2s6s300_link_base,0.07924261689186096,-0.5186476111412048,0.2831742763519287,-0.12399056553840637,0.7205786108970642,-0.20602692663669586,0.6503427624702454
1681292514617033012,28506,1681292514616673561,j2s6s300_link_base,0.07153940200805664,-0.5253351926803589,0.2832414507865906,-0.11373701691627502,0.7178559303283691,-0.21679621934890747,0.6517255306243896
1681292514717095824,28507,1681292514716714660,j2s6s300_link_base,0.06402662396430969,-0.5322427153587341,0.2833104133605957,-0.10568693280220032,0.7154591679573059,-0.2270156592130661,0.6522364020347595
1681292514817138378,28508,1681292514816711872,j2s6s300_link_base,0.056440532207489014,-0.5393888354301453,0.2835124433040619,-0.09902140498161316,0.7132658362388611,-0.23531846702098846,0.6527417302131653
1681292514917024097,28509,1681292514916666426,j2s6s300_link_base,0.0488036572933197,-0.5464348793029785,0.282978355884552,-0.09285050630569458,0.7120709419250488,-0.24083873629570007,0.6529399156570435
1681292515017062671,28510,1681292515016669739,j2s6s300_link_base,0.041693806648254395,-0.5536119341850281,0.2825413942337036,-0.08482995629310608,0.7094733715057373,-0.24820351600646973,0.654099702835083
1681292515117137301,28511,1681292515116713941,j2s6s300_link_base,0.03421926498413086,-0.5608494877815247,0.283760666847229,-0.07063814997673035,0.7026121616363525,-0.26282811164855957,0.6574708223342896
1681292515217063636,28512,1681292515216678557,j2s6s300_link_base,0.026274755597114563,-0.5679231882095337,0.28500890731811523,-0.05478283762931824,0.6940979957580566,-0.2810554504394531,0.6604806184768677
1681292515317115329,28513,1681292515316712075,j2s6s300_link_base,0.01837560534477234,-0.5742274522781372,0.28542521595954895,-0.03929495811462402,0.6846766471862793,-0.2993979752063751,0.6633509993553162
1681292515417118891,28514,1681292515416717121,j2s6s300_link_base,0.009719714522361755,-0.5793647766113281,0.2853246331214905,-0.02292698621749878,0.6753053665161133,-0.3169920742511749,0.6655470728874207
1681292515518309200,28515,1681292515517781498,j2s6s300_link_base,-9.387731552124023e-05,-0.5834067463874817,0.28601258993148804,-0.006429433822631836,0.6661761999130249,-0.3358435332775116,0.6658656597137451
1681292515617154122,28516,1681292515616727088,j2s6s300_link_base,-0.008241385221481323,-0.5851528644561768,0.28555217385292053,0.007870763540267944,0.6597931981086731,-0.3485775589942932,0.665661096572876
1681292515717109256,28517,1681292515716716814,j2s6s300_link_base,-0.015541300177574158,-0.5857695937156677,0.28574076294898987,0.016888529062271118,0.6568843126296997,-0.3557533025741577,0.6645731329917908
1681292515816979801,28518,1681292515816646179,j2s6s300_link_base,-0.023562297224998474,-0.5857995748519897,0.28521302342414856,0.022390127182006836,0.6587749719619751,-0.3565707802772522,0.6620962619781494
1681292515917111482,28519,1681292515916714773,j2s6s300_link_base,-0.032006680965423584,-0.5858168601989746,0.28500548005104065,0.022600531578063965,0.6643990278244019,-0.3513656258583069,0.659246027469635
1681292516017127193,28520,1681292516016711497,j2s6s300_link_base,-0.041177183389663696,-0.5865820646286011,0.28605887293815613,0.021231859922409058,0.6691319942474365,-0.3487938344478607,0.6558615565299988
1681292516117124901,28521,1681292516116711822,j2s6s300_link_base,-0.04879237711429596,-0.587352991104126,0.2859552204608917,0.02135738730430603,0.6742316484451294,-0.3470270037651062,0.6515580415725708
1681292516217099412,28522,1681292516216710579,j2s6s300_link_base,-0.054169610142707825,-0.5877625942230225,0.2851525545120239,0.023106902837753296,0.6796221137046814,-0.3447064161300659,0.647114634513855
1681292516315926154,28523,1681292516315677727,j2s6s300_link_base,-0.056132808327674866,-0.5881742238998413,0.28452572226524353,0.023045599460601807,0.6838768124580383,-0.34244707226753235,0.6438255310058594
1681292516417051503,28524,1681292516416720385,j2s6s300_link_base,-0.059638768434524536,-0.5885484218597412,0.2843611538410187,0.024259716272354126,0.6871377825737,-0.34221208095550537,0.6404249668121338
1681292516518102753,28525,1681292516517712862,j2s6s300_link_base,-0.06491097807884216,-0.5891639590263367,0.2837057411670685,0.027184009552001953,0.6895175576210022,-0.34332549571990967,0.6371452808380127
1681292516617100099,28526,1681292516616711041,j2s6s300_link_base,-0.07154160737991333,-0.59036785364151,0.2834901809692383,0.026427477598190308,0.6879456043243408,-0.34532028436660767,0.637798011302948
1681292516717096140,28527,1681292516716708730,j2s6s300_link_base,-0.07919052243232727,-0.5909703969955444,0.2819466292858124,0.025974661111831665,0.6807935237884521,-0.3496992588043213,0.6430831551551819
1681292516817096017,28528,1681292516816700015,j2s6s300_link_base,-0.08595669269561768,-0.5923717021942139,0.2801407277584076,0.027648478746414185,0.6713671088218689,-0.36615222692489624,0.6437656879425049
1681292516917119273,28529,1681292516916710013,j2s6s300_link_base,-0.09187579154968262,-0.5931538343429565,0.27838805317878723,0.028895676136016846,0.6621955037117004,-0.39061179757118225,0.6388150453567505
1681292517017105804,28530,1681292517016709547,j2s6s300_link_base,-0.09747624397277832,-0.5932621359825134,0.2768372595310211,0.029075831174850464,0.6536074280738831,-0.4148341417312622,0.6323484778404236
1681292517117093697,28531,1681292517116713331,j2s6s300_link_base,-0.10519173741340637,-0.5933150053024292,0.27531924843788147,0.02774527668952942,0.6475465893745422,-0.4377490282058716,0.6231287121772766
1681292517217122604,28532,1681292517216713309,j2s6s300_link_base,-0.11450943350791931,-0.5926395654678345,0.27403131127357483,0.023749321699142456,0.6451609134674072,-0.4584731459617615,0.6107419729232788
1681292517317084009,28533,1681292517316682038,j2s6s300_link_base,-0.12476839125156403,-0.5922238826751709,0.27276819944381714,0.019036054611206055,0.6447964310646057,-0.47837281227111816,0.5958479046821594
1681292517417056204,28534,1681292517416667162,j2s6s300_link_base,-0.13498911261558533,-0.5920239090919495,0.27028021216392517,0.014497369527816772,0.6436983346939087,-0.4988888204097748,0.5801311731338501
1681292517518053109,28535,1681292517517663724,j2s6s300_link_base,-0.14428763091564178,-0.5924342274665833,0.26620417833328247,0.012634813785552979,0.639712929725647,-0.5206303596496582,0.5652890801429749
1681292517617062425,28536,1681292517616666538,j2s6s300_link_base,-0.15340769290924072,-0.5929321050643921,0.26201432943344116,0.016630619764328003,0.634181797504425,-0.5419718027114868,0.5511835813522339
1681292517717130122,28537,1681292517716710395,j2s6s300_link_base,-0.1624174416065216,-0.5925713777542114,0.25930607318878174,0.026354357600212097,0.6282325983047485,-0.5607855319976807,0.5386545658111572
1681292517817167172,28538,1681292517816710638,j2s6s300_link_base,-0.17187519371509552,-0.5924065113067627,0.2560669779777527,0.04266445338726044,0.6261914968490601,-0.5748306512832642,0.5250082612037659
1681292517917148137,28539,1681292517916715015,j2s6s300_link_base,-0.18066011369228363,-0.5923076272010803,0.25150108337402344,0.06289699673652649,0.6306217312812805,-0.5818066596984863,0.5097658634185791
1681292518018329150,28540,1681292518017842463,j2s6s300_link_base,-0.1900811344385147,-0.5919199585914612,0.24877485632896423,0.08354367315769196,0.6368893384933472,-0.5863224267959595,0.49357718229293823
1681292518117139462,28541,1681292518116710949,j2s6s300_link_base,-0.2001405656337738,-0.5916928052902222,0.24676641821861267,0.10470657050609589,0.6394007205963135,-0.5922636985778809,0.4789853096008301
1681292518217125920,28542,1681292518216703712,j2s6s300_link_base,-0.20970524847507477,-0.5916012525558472,0.24579882621765137,0.12360584735870361,0.6332271695137024,-0.6044552326202393,0.46731024980545044
1681292518317128605,28543,1681292518316710987,j2s6s300_link_base,-0.21897649765014648,-0.5918565392494202,0.24360783398151398,0.14118163287639618,0.6231846213340759,-0.6179537177085876,0.4580850601196289
1681292518417142435,28544,1681292518416711824,j2s6s300_link_base,-0.22786055505275726,-0.5919445753097534,0.2404041886329651,0.16114628314971924,0.612960159778595,-0.629044234752655,0.4501277506351471
1681292518518144869,28545,1681292518517710470,j2s6s300_link_base,-0.2361651360988617,-0.591032087802887,0.23804180324077606,0.1836402416229248,0.6045399308204651,-0.6375725269317627,0.440805047750473
1681292518618153876,28546,1681292518617713847,j2s6s300_link_base,-0.24346405267715454,-0.5899235606193542,0.2359626591205597,0.2061695158481598,0.6012983918190002,-0.6414210200309753,0.42955029010772705
1681292518718133198,28547,1681292518717711714,j2s6s300_link_base,-0.2515958547592163,-0.5898145437240601,0.23356132209300995,0.228102907538414,0.6014736890792847,-0.6428044438362122,0.41593390703201294
1681292518818375028,28548,1681292518817850383,j2s6s300_link_base,-0.26074764132499695,-0.5894277095794678,0.2305966019630432,0.24971428513526917,0.6009035706520081,-0.6450345516204834,0.40060949325561523
1681292518918093674,28549,1681292518917709901,j2s6s300_link_base,-0.26934608817100525,-0.5889937877655029,0.2292802333831787,0.26693999767303467,0.598662257194519,-0.6482628583908081,0.3874296247959137
1681292519018357699,28550,1681292519017883673,j2s6s300_link_base,-0.27596500515937805,-0.5894354581832886,0.22913214564323425,0.2773889899253845,0.597298264503479,-0.6505182385444641,0.3783070743083954
1681292519117098022,28551,1681292519116708864,j2s6s300_link_base,-0.28190645575523376,-0.5898972749710083,0.22781942784786224,0.28471463918685913,0.5972798466682434,-0.6514482498168945,0.37122705578804016
1681292519215921640,28552,1681292519215645328,j2s6s300_link_base,-0.28877684473991394,-0.5897759199142456,0.22671642899513245,0.29127663373947144,0.5967090725898743,-0.6526489853858948,0.36489126086235046
1681292519316982397,28553,1681292519316674924,j2s6s300_link_base,-0.29392722249031067,-0.5897470712661743,0.22629380226135254,0.2957826256752014,0.5957871079444885,-0.6537142992019653,0.3608434498310089
1681292519417134749,28554,1681292519416666583,j2s6s300_link_base,-0.2975964844226837,-0.5897655487060547,0.22589661180973053,0.29901885986328125,0.59525066614151,-0.6543141603469849,0.35796278715133667
1681292519518144254,28555,1681292519517712537,j2s6s300_link_base,-0.2999095916748047,-0.5900551080703735,0.22568143904209137,0.30088096857070923,0.5951076149940491,-0.6547033190727234,0.3559228777885437
1681292519618381071,28556,1681292519617865044,j2s6s300_link_base,-0.3020409941673279,-0.5898486971855164,0.2247358113527298,0.3035866320133209,0.595301628112793,-0.6544935703277588,0.3536798655986786
1681292519718132353,28557,1681292519717712997,j2s6s300_link_base,-0.30359819531440735,-0.5898432731628418,0.22423230111598969,0.306137353181839,0.5947294235229492,-0.6547554731369019,0.3519548177719116
1681292519818386946,28558,1681292519817862129,j2s6s300_link_base,-0.30742886662483215,-0.5884708166122437,0.22296851873397827,0.31296616792678833,0.5903377532958984,-0.6582690477371216,0.34674951434135437
1681292519918105135,28559,1681292519917703998,j2s6s300_link_base,-0.3086564838886261,-0.5847928524017334,0.21890760958194733,0.3180365562438965,0.5843924283981323,-0.66380375623703,0.34161797165870667
1681292520016916246,28560,1681292520016624327,j2s6s300_link_base,-0.30768972635269165,-0.5796655416488647,0.21229083836078644,0.3207148313522339,0.5792952179908752,-0.6682605147361755,0.3390972316265106
1681292520118287604,28561,1681292520117777361,j2s6s300_link_base,-0.30650410056114197,-0.5735749006271362,0.20581485331058502,0.32204669713974,0.575912594795227,-0.6712060570716858,0.33777642250061035
1681292520218150508,28562,1681292520217729691,j2s6s300_link_base,-0.3058629631996155,-0.5666809678077698,0.19994714856147766,0.32141822576522827,0.5778939723968506,-0.6696467995643616,0.33808571100234985
1681292520317025686,28563,1681292520316684110,j2s6s300_link_base,-0.30441492795944214,-0.5584898591041565,0.19452069699764252,0.3200297951698303,0.5875193476676941,-0.6603075265884399,0.341168612241745
1681292520418068880,28564,1681292520417654981,j2s6s300_link_base,-0.3043345510959625,-0.5494680404663086,0.18865127861499786,0.32692164182662964,0.6030260920524597,-0.6452447175979614,0.3363645374774933
1681292520519201501,28565,1681292520518672086,j2s6s300_link_base,-0.30423322319984436,-0.5401800870895386,0.1843811720609665,0.33653610944747925,0.6162390112876892,-0.6315745115280151,0.3287956118583679
1681292520617012088,28566,1681292520616675967,j2s6s300_link_base,-0.30445921421051025,-0.5310558676719666,0.18161772191524506,0.3441157937049866,0.6221888065338135,-0.626096248626709,0.3201073706150055
1681292520717139254,28567,1681292520716712457,j2s6s300_link_base,-0.3050936460494995,-0.5224971771240234,0.17707005143165588,0.35201919078826904,0.6228091716766357,-0.6263043284416199,0.3097325265407562
1681292520815742487,28568,1681292520815555086,j2s6s300_link_base,-0.30505967140197754,-0.5160278081893921,0.1724918633699417,0.35353463888168335,0.6190648078918457,-0.6308166980743408,0.3063368797302246
1681292520917137766,28569,1681292520916709605,j2s6s300_link_base,-0.30514901876449585,-0.5110670924186707,0.16604594886302948,0.353683739900589,0.6152246594429016,-0.6345809698104858,0.30612632632255554
1681292521018126700,28570,1681292521017713023,j2s6s300_link_base,-0.30545520782470703,-0.5072054862976074,0.1604055017232895,0.35376739501953125,0.6131470799446106,-0.6364985704421997,0.3062170147895813
1681292521118060989,28571,1681292521117709833,j2s6s300_link_base,-0.3041857182979584,-0.50434410572052,0.15504416823387146,0.35278233885765076,0.6159693598747253,-0.6327288150787354,0.3094843029975891
1681292521217120109,28572,1681292521216709200,j2s6s300_link_base,-0.30363401770591736,-0.5019444823265076,0.1515476405620575,0.35140088200569153,0.6182675361633301,-0.6297152042388916,0.3126041889190674
1681292521317125547,28573,1681292521316713442,j2s6s300_link_base,-0.30399778485298157,-0.5002774000167847,0.14823392033576965,0.3504495620727539,0.6198253631591797,-0.6278799176216125,0.3142746686935425
1681292521417127504,28574,1681292521416711113,j2s6s300_link_base,-0.30392593145370483,-0.4989461302757263,0.14351843297481537,0.34995436668395996,0.6216485500335693,-0.6256817579269409,0.3156062066555023
1681292521515706482,28575,1681292521515593298,j2s6s300_link_base,-0.3042622208595276,-0.4970346987247467,0.13734804093837738,0.3507865071296692,0.6232205629348755,-0.6233487725257874,0.31619811058044434
1681292521614887156,28576,1681292521614664965,j2s6s300_link_base,-0.30399420857429504,-0.49364998936653137,0.1313645988702774,0.34911462664604187,0.6247421503067017,-0.6227317452430725,0.31626152992248535
1681292521718116348,28577,1681292521717731163,j2s6s300_link_base,-0.3042733371257782,-0.48834818601608276,0.12659738957881927,0.3480989634990692,0.6251735687255859,-0.6227098703384399,0.31657132506370544
1681292521817101570,28578,1681292521816715649,j2s6s300_link_base,-0.30509892106056213,-0.48091834783554077,0.12281548231840134,0.35007524490356445,0.6275529265403748,-0.6215705871582031,0.31188878417015076
1681292521917081530,28579,1681292521916700992,j2s6s300_link_base,-0.30511122941970825,-0.47248131036758423,0.11954835057258606,0.3561527729034424,0.6296802759170532,-0.618172824382782,0.30744168162345886
1681292522017053126,28580,1681292522016664221,j2s6s300_link_base,-0.30489057302474976,-0.46493521332740784,0.1164340078830719,0.3602593243122101,0.632872998714447,-0.6145713925361633,0.3032935559749603
1681292522117063529,28581,1681292522116664975,j2s6s300_link_base,-0.3056425452232361,-0.45895206928253174,0.11373162269592285,0.3632294237613678,0.6347987055778503,-0.6126456260681152,0.29960012435913086
1681292522217078933,28582,1681292522216701625,j2s6s300_link_base,-0.30570363998413086,-0.45362603664398193,0.1078837513923645,0.3651999533176422,0.637381374835968,-0.6103572845458984,0.29637470841407776
1681292522318108887,28583,1681292522317710709,j2s6s300_link_base,-0.305399626493454,-0.44818055629730225,0.10007680952548981,0.3671325147151947,0.6398868560791016,-0.6074780225753784,0.29449784755706787
1681292522415916176,28584,1681292522415692840,j2s6s300_link_base,-0.30508357286453247,-0.44265520572662354,0.0927376002073288,0.36767110228538513,0.6423819065093994,-0.6046642661094666,0.2941844165325165
1681292522518133162,28585,1681292522517709358,j2s6s300_link_base,-0.3040238916873932,-0.43708670139312744,0.08727225661277771,0.3668484091758728,0.6457580327987671,-0.5998066067695618,0.29774272441864014
1681292522617059611,28586,1681292522616667257,j2s6s300_link_base,-0.30370640754699707,-0.43178603053092957,0.08224499970674515,0.36584463715553284,0.6509438753128052,-0.5933635234832764,0.3005818724632263
1681292522718076321,28587,1681292522717665841,j2s6s300_link_base,-0.3038337826728821,-0.4267842769622803,0.0787900909781456,0.364016592502594,0.655843198299408,-0.5878859758377075,0.30290552973747253
1681292522817056598,28588,1681292522816680530,j2s6s300_link_base,-0.303906112909317,-0.4214802384376526,0.07616659253835678,0.3627695143222809,0.659654438495636,-0.5833516120910645,0.30488571524620056
1681292522917044276,28589,1681292522916665519,j2s6s300_link_base,-0.30506202578544617,-0.4162297248840332,0.07386311143636703,0.36300981044769287,0.6630816459655762,-0.5801265239715576,0.3033149242401123
1681292523017060210,28590,1681292523016666791,j2s6s300_link_base,-0.30565425753593445,-0.4106215536594391,0.07178419828414917,0.3651968240737915,0.6664849519729614,-0.5763564705848694,0.30040350556373596
1681292523117086272,28591,1681292523116684097,j2s6s300_link_base,-0.3055651783943176,-0.403914213180542,0.0700644925236702,0.3674408793449402,0.6695989966392517,-0.5725424885749817,0.29802584648132324
1681292523215767779,28592,1681292523215645827,j2s6s300_link_base,-0.30500298738479614,-0.39574140310287476,0.06906634569168091,0.36896052956581116,0.6715385317802429,-0.5696831345558167,0.29726287722587585
1681292523317049263,28593,1681292523316664260,j2s6s300_link_base,-0.3049018383026123,-0.38702189922332764,0.0686536580324173,0.3688499331474304,0.6731329560279846,-0.5686360001564026,0.29579517245292664
1681292523417061772,28594,1681292523416664743,j2s6s300_link_base,-0.30592283606529236,-0.3792371153831482,0.0682169497013092,0.36989709734916687,0.6737409830093384,-0.5680898427963257,0.294148325920105
1681292523518024496,28595,1681292523517665756,j2s6s300_link_base,-0.30636054277420044,-0.372374564409256,0.06689318269491196,0.36973872780799866,0.6746390461921692,-0.5679052472114563,0.29264160990715027
1681292523617015375,28596,1681292523616665352,j2s6s300_link_base,-0.30645838379859924,-0.365291029214859,0.063657745718956,0.37017738819122314,0.6750040054321289,-0.5674332976341248,0.29216042160987854
1681292523717141604,28597,1681292523716709829,j2s6s300_link_base,-0.3062996566295624,-0.35850101709365845,0.05923887714743614,0.37017470598220825,0.6753817200660706,-0.5671810507774353,0.29178059101104736
1681292523817121463,28598,1681292523816711364,j2s6s300_link_base,-0.30619415640830994,-0.3527030646800995,0.054915886372327805,0.3712136745452881,0.6751977205276489,-0.5667179822921753,0.29178595542907715
1681292523918128122,28599,1681292523917708297,j2s6s300_link_base,-0.30589988827705383,-0.3477749824523926,0.05098023638129234,0.3721033036708832,0.676176130771637,-0.564673900604248,0.2923497259616852
1681292524014864553,28600,1681292524014696726,j2s6s300_link_base,-0.30519920587539673,-0.34327003359794617,0.047410909086465836,0.3702291250228882,0.6802265644073486,-0.5601751208305359,0.2939831614494324
1681292524118114177,28601,1681292524117708983,j2s6s300_link_base,-0.30507799983024597,-0.3385488986968994,0.04420170560479164,0.3669568598270416,0.6848376393318176,-0.556041419506073,0.2952253520488739
1681292524215814822,28602,1681292524215652438,j2s6s300_link_base,-0.30525442957878113,-0.3332962691783905,0.04048942029476166,0.36524003744125366,0.687839925289154,-0.5526934862136841,0.2966579496860504
1681292524317014966,28603,1681292524316672811,j2s6s300_link_base,-0.30550166964530945,-0.3282277286052704,0.0368603840470314,0.364967942237854,0.6892732381820679,-0.5502507090568542,0.298202782869339
1681292524417154887,28604,1681292524416710786,j2s6s300_link_base,-0.30633753538131714,-0.3239878714084625,0.03315173089504242,0.36778849363327026,0.6909801959991455,-0.5469680428504944,0.29682302474975586
1681292524518138612,28605,1681292524517710739,j2s6s300_link_base,-0.3073464035987854,-0.3202836513519287,0.029964812099933624,0.37019816040992737,0.6942858099937439,-0.5437115430831909,0.29205843806266785
1681292524618126670,28606,1681292524617712688,j2s6s300_link_base,-0.30804648995399475,-0.3164919912815094,0.026859022676944733,0.3726159930229187,0.6966089010238647,-0.5413367748260498,0.28783321380615234
1681292524718114297,28607,1681292524717710861,j2s6s300_link_base,-0.308258593082428,-0.3121267855167389,0.02279997617006302,0.3759499788284302,0.6976598501205444,-0.5389415621757507,0.28543731570243835
1681292524815844354,28608,1681292524815691701,j2s6s300_link_base,-0.30800288915634155,-0.30727505683898926,0.018773160874843597,0.3764152526855469,0.6995790600776672,-0.5374173521995544,0.28298988938331604
1681292524917134854,28609,1681292524916721714,j2s6s300_link_base,-0.30802011489868164,-0.302935928106308,0.015522979199886322,0.3778391480445862,0.7003742456436157,-0.5362153053283691,0.2814011573791504
1681292525017071541,28610,1681292525016654268,j2s6s300_link_base,-0.30810782313346863,-0.29901909828186035,0.013390734791755676,0.37919721007347107,0.700364887714386,-0.5355986952781677,0.28077125549316406
1681292525117090827,28611,1681292525116665986,j2s6s300_link_base,-0.307949960231781,-0.2943395972251892,0.011635586619377136,0.37953680753707886,0.7009441256523132,-0.5347638130187988,0.2804584205150604
1681292525217099295,28612,1681292525216667083,j2s6s300_link_base,-0.3080486059188843,-0.2878105342388153,0.010182447731494904,0.378925085067749,0.7018305659294128,-0.5345457196235657,0.27948272228240967
1681292525317166312,28613,1681292525316711408,j2s6s300_link_base,-0.30799925327301025,-0.280860036611557,0.008978262543678284,0.3786783814430237,0.7025279998779297,-0.5340626239776611,0.27898773550987244
1681292525418133564,28614,1681292525417715876,j2s6s300_link_base,-0.30825790762901306,-0.27502766251564026,0.008192479610443115,0.3789781332015991,0.7026434540748596,-0.5339506268501282,0.2785038650035858
1681292525518089232,28615,1681292525517676571,j2s6s300_link_base,-0.3090638220310211,-0.2706185281276703,0.007859475910663605,0.3795691132545471,0.7023254632949829,-0.5341212153434753,0.2781740427017212
1681292525616892109,28616,1681292525616712481,j2s6s300_link_base,-0.31074264645576477,-0.26743555068969727,0.006395608186721802,0.3793255090713501,0.7030647993087769,-0.5335008502006531,0.2778289020061493
1681292525718138578,28617,1681292525717725296,j2s6s300_link_base,-0.3132343292236328,-0.26503485441207886,0.0038131773471832275,0.37968719005584717,0.7031648755073547,-0.5331506729125977,0.27775371074676514
1681292525817053395,28618,1681292525816665919,j2s6s300_link_base,-0.31590157747268677,-0.2634044289588928,0.0011254474520683289,0.3795176148414612,0.7030540704727173,-0.5338661670684814,0.27689051628112793
1681292525917116627,28619,1681292525916715155,j2s6s300_link_base,-0.3175012767314911,-0.2620442807674408,-0.0016273260116577148,0.38029178977012634,0.7037255764007568,-0.5331183671951294,0.2755601704120636
1681292526017156995,28620,1681292526016711210,j2s6s300_link_base,-0.3183470368385315,-0.2607019245624542,-0.003949210047721863,0.38271859288215637,0.705001175403595,-0.5307407379150391,0.27352145314216614
1681292526117154947,28621,1681292526116712260,j2s6s300_link_base,-0.31916019320487976,-0.2588498592376709,-0.005658939480781555,0.3851070702075958,0.7056238651275635,-0.5290745496749878,0.2717862129211426
1681292526217168353,28622,1681292526216726016,j2s6s300_link_base,-0.3201567530632019,-0.2557908296585083,-0.007544495165348053,0.3880120515823364,0.705899178981781,-0.5276674628257751,0.26966655254364014
1681292526318098654,28623,1681292526317717967,j2s6s300_link_base,-0.32051733136177063,-0.25215011835098267,-0.00913449376821518,0.3894670009613037,0.706544816493988,-0.5264672040939331,0.26822036504745483
1681292526417710613,28624,1681292526417556917,j2s6s300_link_base,-0.32086971402168274,-0.24841062724590302,-0.010281175374984741,0.3900991976261139,0.7070938348770142,-0.5258320569992065,0.26709869503974915
1681292526518059919,28625,1681292526517668786,j2s6s300_link_base,-0.3213087022304535,-0.24525724351406097,-0.011216871440410614,0.3909178078174591,0.707341194152832,-0.5253630876541138,0.26616835594177246
1681292526617048950,28626,1681292526616669558,j2s6s300_link_base,-0.3218163549900055,-0.2427111268043518,-0.01203935593366623,0.3916690945625305,0.7078438997268677,-0.5248045921325684,0.26482534408569336
1681292526718084086,28627,1681292526717701835,j2s6s300_link_base,-0.3217766284942627,-0.24058599770069122,-0.01349618285894394,0.39301106333732605,0.7096311450004578,-0.5226414799690247,0.2623201310634613
1681292526818032360,28628,1681292526817676151,j2s6s300_link_base,-0.32204318046569824,-0.2386522889137268,-0.015232972800731659,0.3941172659397125,0.7135040760040283,-0.5177574753761292,0.2598283886909485
1681292526918091467,28629,1681292526917706934,j2s6s300_link_base,-0.32190653681755066,-0.2367975264787674,-0.01705724000930786,0.3944026231765747,0.7195073962211609,-0.508204460144043,0.2616940438747406
1681292527018131934,28630,1681292527017710964,j2s6s300_link_base,-0.3233649730682373,-0.2346697598695755,-0.019368261098861694,0.3958780765533447,0.7283186316490173,-0.4956114888191223,0.2592330276966095
1681292527118039211,28631,1681292527117675072,j2s6s300_link_base,-0.32616347074508667,-0.23261313140392303,-0.022045880556106567,0.4035581350326538,0.7380050420761108,-0.48096662759780884,0.2473064661026001
1681292527218129125,28632,1681292527217686156,j2s6s300_link_base,-0.3268134295940399,-0.23066315054893494,-0.025429584085941315,0.4116686284542084,0.7447615265846252,-0.46827349066734314,0.2378636598587036
1681292527317116100,28633,1681292527316669276,j2s6s300_link_base,-0.3260083794593811,-0.22830365598201752,-0.030648276209831238,0.4135857820510864,0.750328779220581,-0.4602413773536682,0.23266129195690155
1681292527417092541,28634,1681292527416667653,j2s6s300_link_base,-0.3253864049911499,-0.22645816206932068,-0.037004873156547546,0.41457095742225647,0.753251850605011,-0.45567432045936584,0.23044170439243317
1681292527515872223,28635,1681292527515664289,j2s6s300_link_base,-0.32508987188339233,-0.22461877763271332,-0.04341094195842743,0.41589170694351196,0.7556262612342834,-0.45145225524902344,0.22859114408493042
1681292527618054781,28636,1681292527617667174,j2s6s300_link_base,-0.32560330629348755,-0.22275936603546143,-0.04862736165523529,0.4182259142398834,0.7579933404922485,-0.44769102334976196,0.22384339570999146
1681292527717051061,28637,1681292527716663817,j2s6s300_link_base,-0.3268595039844513,-0.22088827192783356,-0.052333489060401917,0.4209730923175812,0.7605338096618652,-0.4434552490711212,0.21844324469566345
1681292527817014330,28638,1681292527816669429,j2s6s300_link_base,-0.3259912431240082,-0.2194054275751114,-0.05559958517551422,0.4228117763996124,0.7659863233566284,-0.4324546456336975,0.21789498627185822
1681292527917005620,28639,1681292527916662824,j2s6s300_link_base,-0.3262122869491577,-0.21831651031970978,-0.05794548988342285,0.42408984899520874,0.7748451828956604,-0.4170902371406555,0.2140057235956192
1681292528017039797,28640,1681292528016663462,j2s6s300_link_base,-0.32756689190864563,-0.2168188989162445,-0.060136422514915466,0.43015825748443604,0.7829442620277405,-0.40074726939201355,0.20338083803653717
1681292528117038286,28641,1681292528116662880,j2s6s300_link_base,-0.32769420742988586,-0.2153395265340805,-0.06128695607185364,0.43516820669174194,0.7885826230049133,-0.38794010877609253,0.1956234574317932
1681292528218243759,28642,1681292528217812086,j2s6s300_link_base,-0.32724547386169434,-0.2133224904537201,-0.061524808406829834,0.4380381107330322,0.792596697807312,-0.37903207540512085,0.19038835167884827
1681292528317050401,28643,1681292528316666707,j2s6s300_link_base,-0.3271072506904602,-0.21093690395355225,-0.061267703771591187,0.43975701928138733,0.7955040335655212,-0.3729301393032074,0.18630684912204742
1681292528417055021,28644,1681292528416667397,j2s6s300_link_base,-0.327026903629303,-0.20848429203033447,-0.061289697885513306,0.44042766094207764,0.7985519766807556,-0.3671841025352478,0.18306861817836761
1681292528518258955,28645,1681292528517708632,j2s6s300_link_base,-0.32766038179397583,-0.20582997798919678,-0.06167300045490265,0.4414574205875397,0.8029831647872925,-0.3577955961227417,0.17976579070091248
1681292528617106541,28646,1681292528616707059,j2s6s300_link_base,-0.3278209865093231,-0.20232638716697693,-0.06178046762943268,0.4430254101753235,0.8099833130836487,-0.34301522374153137,0.17319372296333313
1681292528717143669,28647,1681292528716712438,j2s6s300_link_base,-0.32740548253059387,-0.19750705361366272,-0.061487480998039246,0.445989727973938,0.8167339563369751,-0.325917512178421,0.1667831689119339
1681292528818247964,28648,1681292528817743539,j2s6s300_link_base,-0.3278631865978241,-0.19188858568668365,-0.061065539717674255,0.4516395032405853,0.8229068517684937,-0.30754345655441284,0.15576604008674622
1681292528918147609,28649,1681292528917709367,j2s6s300_link_base,-0.3281392455101013,-0.18624790012836456,-0.0606168657541275,0.45976394414901733,0.828194797039032,-0.28801965713500977,0.14055322110652924
1681292529017135991,28650,1681292529016706060,j2s6s300_link_base,-0.32747751474380493,-0.1803092509508133,-0.0596822053194046,0.4630953371524811,0.8356316685676575,-0.26620739698410034,0.1280466616153717
1681292529117104280,28651,1681292529116700046,j2s6s300_link_base,-0.3272761106491089,-0.17451459169387817,-0.05790393054485321,0.4660709500312805,0.8424762487411499,-0.24434992671012878,0.11534594744443893
1681292529218194557,28652,1681292529217719732,j2s6s300_link_base,-0.3276888430118561,-0.16942599415779114,-0.054289475083351135,0.47133415937423706,0.8470344543457031,-0.22430098056793213,0.10032833367586136
1681292529317038447,28653,1681292529316667697,j2s6s300_link_base,-0.32745417952537537,-0.16447852551937103,-0.04871562123298645,0.4737900495529175,0.8522031307220459,-0.20447495579719543,0.0863875150680542
1681292529417086329,28654,1681292529416673420,j2s6s300_link_base,-0.32727548480033875,-0.16028352081775665,-0.042049601674079895,0.4768230617046356,0.8551471829414368,-0.1885090321302414,0.07633771747350693
1681292529518254565,28655,1681292529517664745,j2s6s300_link_base,-0.3272751271724701,-0.15704360604286194,-0.03539162874221802,0.47862377762794495,0.857154130935669,-0.17731565237045288,0.06903054565191269
1681292529617096899,28656,1681292529616665008,j2s6s300_link_base,-0.3268566429615021,-0.15446782112121582,-0.02946189045906067,0.4796353876590729,0.858706533908844,-0.16914185881614685,0.06296175718307495
1681292529717106835,28657,1681292529716667230,j2s6s300_link_base,-0.32593560218811035,-0.153061181306839,-0.024038851261138916,0.4810694754123688,0.8590722680091858,-0.16520926356315613,0.05721072107553482
1681292529817077542,28658,1681292529816706226,j2s6s300_link_base,-0.32368966937065125,-0.15165534615516663,-0.018754690885543823,0.48321911692619324,0.8589345812797546,-0.16233594715595245,0.048762235790491104
1681292529917102430,28659,1681292529916697293,j2s6s300_link_base,-0.3209829032421112,-0.15038970112800598,-0.012582793831825256,0.48464617133140564,0.859112560749054,-0.15928217768669128,0.04090167582035065
1681292530017135017,28660,1681292530016704793,j2s6s300_link_base,-0.318526029586792,-0.14952945709228516,-0.006472766399383545,0.48499399423599243,0.8595240116119385,-0.15725204348564148,0.03565274924039841
1681292530117115337,28661,1681292530116698971,j2s6s300_link_base,-0.31640625,-0.14912208914756775,-0.0015859007835388184,0.48341861367225647,0.8607534766197205,-0.15593048930168152,0.03310026973485947
1681292530218150866,28662,1681292530217707978,j2s6s300_link_base,-0.3145419657230377,-0.14850105345249176,0.0020374953746795654,0.48291969299316406,0.8616316914558411,-0.15248064696788788,0.03360297530889511
1681292530318139259,28663,1681292530317707242,j2s6s300_link_base,-0.3131532073020935,-0.1481524109840393,0.004745960235595703,0.48330971598625183,0.8619096875190735,-0.14936783909797668,0.034823473542928696
1681292530418106968,28664,1681292530417693419,j2s6s300_link_base,-0.3126850724220276,-0.14800047874450684,0.006768345832824707,0.48338401317596436,0.8622435927391052,-0.14726749062538147,0.03446950763463974
1681292530515218452,28665,1681292530514815025,j2s6s300_link_base,-0.3124496042728424,-0.14738157391548157,0.00809335708618164,0.4828949570655823,0.8631439805030823,-0.14417767524719238,0.031743597239255905
1681292530617106475,28666,1681292530616662769,j2s6s300_link_base,-0.3124328553676605,-0.1472609043121338,0.009152740240097046,0.4830814003944397,0.8634604811668396,-0.14218512177467346,0.029185105115175247
1681292530717144375,28667,1681292530716705143,j2s6s300_link_base,-0.3121689260005951,-0.14711852371692657,0.0097256600856781,0.4833966791629791,0.8636608719825745,-0.14023730158805847,0.027402304112911224
1681292530818148725,28668,1681292530817711225,j2s6s300_link_base,-0.31186532974243164,-0.14705559611320496,0.010060369968414307,0.48332440853118896,0.8639570474624634,-0.1388610452413559,0.02632782980799675
1681292530917138526,28669,1681292530916708136,j2s6s300_link_base,-0.3116811513900757,-0.14730805158615112,0.010212093591690063,0.4830002188682556,0.8641548156738281,-0.13877730071544647,0.0262317955493927
1681292531018139156,28670,1681292531017706137,j2s6s300_link_base,-0.31151869893074036,-0.14737480878829956,0.010199159383773804,0.4829395115375519,0.8641999363899231,-0.13869063556194305,0.026322685182094574
1681292531117155315,28671,1681292531116708576,j2s6s300_link_base,-0.31140318512916565,-0.14753249287605286,0.01019364595413208,0.4827450215816498,0.8643120527267456,-0.13865748047828674,0.026382528245449066
1681292531217155355,28672,1681292531216707309,j2s6s300_link_base,-0.31136780977249146,-0.14756016433238983,0.010191231966018677,0.4827176332473755,0.8643292188644409,-0.13864195346832275,0.026401638984680176
1681292531316050728,28673,1681292531315677042,j2s6s300_link_base,-0.3113580644130707,-0.1475607454776764,0.010190248489379883,0.482735276222229,0.8643200993537903,-0.13863660395145416,0.02640743926167488
1681292531417155123,28674,1681292531416711451,j2s6s300_link_base,-0.3112693727016449,-0.14763420820236206,0.010184258222579956,0.48263704776763916,0.864378809928894,-0.1386028230190277,0.02645896002650261
1681292531518279171,28675,1681292531517707564,j2s6s300_link_base,-0.3112531900405884,-0.1476438343524933,0.01018303632736206,0.4826292097568512,0.8643841743469238,-0.13859502971172333,0.026467952877283096
1681292531617140092,28676,1681292531616706150,j2s6s300_link_base,-0.3112459182739258,-0.14764609932899475,0.010182976722717285,0.4826299548149109,0.864384114742279,-0.13859184086322784,0.026472188532352448
1681292531718360742,28677,1681292531717841088,j2s6s300_link_base,-0.31123965978622437,-0.14764517545700073,0.010181635618209839,0.482632577419281,0.8643833994865417,-0.1385868340730667,0.026476074010133743
1681292531817155701,28678,1681292531816710162,j2s6s300_link_base,-0.3112371563911438,-0.14764586091041565,0.010182023048400879,0.4826330542564392,0.8643831014633179,-0.13858595490455627,0.026477251201868057
1681292531917152369,28679,1681292531916708875,j2s6s300_link_base,-0.31123533844947815,-0.14764538407325745,0.010181814432144165,0.482634574174881,0.8643823862075806,-0.13858474791049957,0.026478391140699387
1681292532017135672,28680,1681292532016707172,j2s6s300_link_base,-0.31123316287994385,-0.14764481782913208,0.010181009769439697,0.4826357364654541,0.8643819689750671,-0.13858316838741302,0.026480238884687424
1681292532115999968,28681,1681292532115676035,j2s6s300_link_base,-0.3112328350543976,-0.1476440280675888,0.010181397199630737,0.4826371371746063,0.8643813729286194,-0.13858212530612946,0.026479557156562805
1681292532217158011,28682,1681292532216709763,j2s6s300_link_base,-0.31123071908950806,-0.1476442664861679,0.010181188583374023,0.48263633251190186,0.8643819689750671,-0.13858097791671753,0.02648089826107025
1681292532318137476,28683,1681292532317705293,j2s6s300_link_base,-0.3112298250198364,-0.1476440131664276,0.010181069374084473,0.48263731598854065,0.8643815517425537,-0.138580322265625,0.02648145705461502
1681292532417106441,28684,1681292532416676609,j2s6s300_link_base,-0.3112281858921051,-0.1476435363292694,0.010180920362472534,0.48263874650001526,0.8643808364868164,-0.13857939839363098,0.026482563465833664
1681292532518356878,28685,1681292532517840547,j2s6s300_link_base,-0.3112272620201111,-0.1476433277130127,0.010180801153182983,0.4826388955116272,0.8643807768821716,-0.13857880234718323,0.02648317813873291
1681292532617108954,28686,1681292532616678466,j2s6s300_link_base,-0.3112263083457947,-0.14764311909675598,0.010180741548538208,0.48263901472091675,0.8643807768821716,-0.13857820630073547,0.02648378163576126
1681292532717106197,28687,1681292532716701417,j2s6s300_link_base,-0.311226487159729,-0.1476430892944336,0.010180741548538208,0.48264017701148987,0.8643801808357239,-0.1385783553123474,0.026483651250600815
1681292532817133918,28688,1681292532816707391,j2s6s300_link_base,-0.31122544407844543,-0.1476428508758545,0.010180622339248657,0.4826403260231018,0.8643801808357239,-0.13857769966125488,0.02648434415459633
1681292532915899875,28689,1681292532915637088,j2s6s300_link_base,-0.31122449040412903,-0.14764203131198883,0.010180383920669556,0.4826405942440033,0.8643803000450134,-0.13857604563236237,0.026484504342079163
1681292533017099445,28690,1681292533016661859,j2s6s300_link_base,-0.3112246096134186,-0.14764201641082764,0.010180383920669556,0.48264145851135254,0.8643798232078552,-0.13857613503932953,0.026484422385692596
1681292533117101475,28691,1681292533116661631,j2s6s300_link_base,-0.3112236559391022,-0.14764179289340973,0.010180264711380005,0.4826415777206421,0.8643798232078552,-0.13857552409172058,0.026485037058591843
1681292533217090492,28692,1681292533216662410,j2s6s300_link_base,-0.3112236559391022,-0.14764179289340973,0.010180264711380005,0.4826415777206421,0.8643798232078552,-0.13857552409172058,0.026485037058591843
1681292533317078154,28693,1681292533316661515,j2s6s300_link_base,-0.31122273206710815,-0.14764156937599182,0.01018020510673523,0.48264172673225403,0.8643798232078552,-0.13857495784759521,0.026485644280910492
1681292533417100743,28694,1681292533416659151,j2s6s300_link_base,-0.31122273206710815,-0.14764156937599182,0.01018020510673523,0.48264172673225403,0.8643798232078552,-0.13857495784759521,0.026485644280910492
1681292533518104973,28695,1681292533517664252,j2s6s300_link_base,-0.31122198700904846,-0.1476413458585739,0.010180145502090454,0.48264262080192566,0.864379346370697,-0.13857446610927582,0.026486113667488098
1681292533617086878,28696,1681292533616660761,j2s6s300_link_base,-0.31122198700904846,-0.1476413458585739,0.010180145502090454,0.48264262080192566,0.864379346370697,-0.13857446610927582,0.026486113667488098
1681292533715911905,28697,1681292533715639913,j2s6s300_link_base,-0.31122198700904846,-0.1476413458585739,0.010180145502090454,0.48264262080192566,0.864379346370697,-0.13857446610927582,0.026486113667488098
1681292533817088335,28698,1681292533816661606,j2s6s300_link_base,-0.31122106313705444,-0.147641122341156,0.010179996490478516,0.4826427102088928,0.8643794059753418,-0.13857398927211761,0.026486795395612717
1681292533917058142,28699,1681292533916662256,j2s6s300_link_base,-0.31122106313705444,-0.147641122341156,0.010179996490478516,0.4826427102088928,0.8643794059753418,-0.13857398927211761,0.026486795395612717
1681292534017105008,28700,1681292534016662216,j2s6s300_link_base,-0.31122106313705444,-0.147641122341156,0.010179996490478516,0.4826427102088928,0.8643794059753418,-0.13857398927211761,0.026486795395612717
1681292534117089293,28701,1681292534116660567,j2s6s300_link_base,-0.3112201690673828,-0.1476409137248993,0.010179907083511353,0.48264285922050476,0.864379346370697,-0.13857342302799225,0.026487380266189575
1681292534218084730,28702,1681292534217663807,j2s6s300_link_base,-0.3112201690673828,-0.1476409137248993,0.010179907083511353,0.48264285922050476,0.864379346370697,-0.13857342302799225,0.026487380266189575
1681292534317098444,28703,1681292534316662670,j2s6s300_link_base,-0.3112201690673828,-0.1476409137248993,0.010179907083511353,0.48264285922050476,0.864379346370697,-0.13857342302799225,0.026487380266189575
1681292534417061510,28704,1681292534416665577,j2s6s300_link_base,-0.3112201690673828,-0.1476409137248993,0.010179907083511353,0.48264285922050476,0.864379346370697,-0.13857342302799225,0.026487380266189575
1681292534515753712,28705,1681292534515662481,j2s6s300_link_base,-0.31121906638145447,-0.1476406753063202,0.01017981767654419,0.4826429784297943,0.864379346370697,-0.13857276737689972,0.02648811787366867
1681292534617129073,28706,1681292534616707304,j2s6s300_link_base,-0.3112192451953888,-0.14764001965522766,0.010179668664932251,0.48264482617378235,0.8643785119056702,-0.13857173919677734,0.026487477123737335
1681292534717130288,28707,1681292534716703612,j2s6s300_link_base,-0.3112192451953888,-0.14764001965522766,0.010179668664932251,0.48264482617378235,0.8643785119056702,-0.13857173919677734,0.026487477123737335
1681292534818372112,28708,1681292534817853933,j2s6s300_link_base,-0.3112192451953888,-0.14764001965522766,0.010179668664932251,0.48264482617378235,0.8643785119056702,-0.13857173919677734,0.026487477123737335
1681292534918045688,28709,1681292534917696269,j2s6s300_link_base,-0.3112192451953888,-0.14764001965522766,0.010179668664932251,0.48264482617378235,0.8643785119056702,-0.13857173919677734,0.026487477123737335
1681292535017135058,28710,1681292535016709949,j2s6s300_link_base,-0.31121838092803955,-0.14763981103897095,0.0101795494556427,0.4826456308364868,0.8643780946731567,-0.13857126235961914,0.026488203555345535
1681292535118135854,28711,1681292535117706030,j2s6s300_link_base,-0.31121838092803955,-0.14763981103897095,0.0101795494556427,0.4826456308364868,0.8643780946731567,-0.13857126235961914,0.026488203555345535
1681292535217123677,28712,1681292535216694689,j2s6s300_link_base,-0.31121838092803955,-0.14763981103897095,0.0101795494556427,0.4826456308364868,0.8643780946731567,-0.13857126235961914,0.026488203555345535
1681292535316065520,28713,1681292535315846155,j2s6s300_link_base,-0.31121838092803955,-0.14763981103897095,0.0101795494556427,0.4826456308364868,0.8643780946731567,-0.13857126235961914,0.026488203555345535
1681292535417117773,28714,1681292535416693566,j2s6s300_link_base,-0.3112180829048157,-0.1476404070854187,0.0101795494556427,0.48264479637145996,0.8643785715103149,-0.13857115805149078,0.0264882855117321
1681292535517687809,28715,1681292535517519045,j2s6s300_link_base,-0.3112180829048157,-0.1476404070854187,0.0101795494556427,0.48264479637145996,0.8643785715103149,-0.13857115805149078,0.0264882855117321
1681292535618076260,28716,1681292535617684427,j2s6s300_link_base,-0.3112180829048157,-0.1476404070854187,0.0101795494556427,0.48264479637145996,0.8643785715103149,-0.13857115805149078,0.0264882855117321
1681292535717148121,28717,1681292535716706943,j2s6s300_link_base,-0.3112180829048157,-0.1476404070854187,0.0101795494556427,0.48264479637145996,0.8643785715103149,-0.13857115805149078,0.0264882855117321
1681292535817082857,28718,1681292535816701730,j2s6s300_link_base,-0.3112180829048157,-0.1476404070854187,0.0101795494556427,0.48264479637145996,0.8643785715103149,-0.13857115805149078,0.0264882855117321
1681292535918141680,28719,1681292535917704057,j2s6s300_link_base,-0.3112180829048157,-0.1476404070854187,0.0101795494556427,0.48264479637145996,0.8643785715103149,-0.13857115805149078,0.0264882855117321
1681292536017140149,28720,1681292536016704209,j2s6s300_link_base,-0.3112170994281769,-0.147640198469162,0.010179460048675537,0.4826449453830719,0.8643785715103149,-0.13857054710388184,0.026488911360502243
1681292536116056232,28721,1681292536115834259,j2s6s300_link_base,-0.3112170994281769,-0.147640198469162,0.010179460048675537,0.4826449453830719,0.8643785715103149,-0.13857054710388184,0.026488911360502243
1681292536217115065,28722,1681292536216708639,j2s6s300_link_base,-0.3112170994281769,-0.147640198469162,0.010179460048675537,0.4826449453830719,0.8643785715103149,-0.13857054710388184,0.026488911360502243
1681292536317154034,28723,1681292536316706657,j2s6s300_link_base,-0.3112170994281769,-0.147640198469162,0.010179460048675537,0.4826449453830719,0.8643785715103149,-0.13857054710388184,0.026488911360502243
1681292536417137521,28724,1681292536416704343,j2s6s300_link_base,-0.3112170994281769,-0.147640198469162,0.010179460048675537,0.4826449453830719,0.8643785715103149,-0.13857054710388184,0.026488911360502243
1681292536518146396,28725,1681292536517706646,j2s6s300_link_base,-0.3112172484397888,-0.1476401686668396,0.010179460048675537,0.48264580965042114,0.8643781542778015,-0.1385706514120102,0.02648882195353508
1681292536618151832,28726,1681292536617710238,j2s6s300_link_base,-0.3112172484397888,-0.1476401686668396,0.010179460048675537,0.48264580965042114,0.8643781542778015,-0.1385706514120102,0.02648882195353508
1681292536717149736,28727,1681292536716708462,j2s6s300_link_base,-0.3112172484397888,-0.1476401686668396,0.010179460048675537,0.48264580965042114,0.8643781542778015,-0.1385706514120102,0.02648882195353508
1681292536817125838,28728,1681292536816705176,j2s6s300_link_base,-0.3112172484397888,-0.1476401686668396,0.010179460048675537,0.48264580965042114,0.8643781542778015,-0.1385706514120102,0.02648882195353508
1681292536915055366,28729,1681292536914863269,j2s6s300_link_base,-0.3112172484397888,-0.1476401686668396,0.010179460048675537,0.48264580965042114,0.8643781542778015,-0.1385706514120102,0.02648882195353508
1681292537017126684,28730,1681292537016694066,j2s6s300_link_base,-0.3112163543701172,-0.14763996005058289,0.010179370641708374,0.4826458990573883,0.8643780946731567,-0.13857007026672363,0.02648940682411194
1681292537117102901,28731,1681292537116704420,j2s6s300_link_base,-0.3112163543701172,-0.14763996005058289,0.010179370641708374,0.4826458990573883,0.8643780946731567,-0.13857007026672363,0.02648940682411194
1681292537217151590,28732,1681292537216702447,j2s6s300_link_base,-0.3112163543701172,-0.14763996005058289,0.010179370641708374,0.4826458990573883,0.8643780946731567,-0.13857007026672363,0.02648940682411194
1681292537318153443,28733,1681292537317711228,j2s6s300_link_base,-0.3112163543701172,-0.14763996005058289,0.010179370641708374,0.4826458990573883,0.8643780946731567,-0.13857007026672363,0.02648940682411194
1681292537417147293,28734,1681292537416704480,j2s6s300_link_base,-0.3112163543701172,-0.14763996005058289,0.010179370641708374,0.4826458990573883,0.8643780946731567,-0.13857007026672363,0.02648940682411194
1681292537518146064,28735,1681292537517705526,j2s6s300_link_base,-0.3112163543701172,-0.14763996005058289,0.010179370641708374,0.4826458990573883,0.8643780946731567,-0.13857007026672363,0.02648940682411194
1681292537618175860,28736,1681292537617728877,j2s6s300_link_base,-0.3112163543701172,-0.14763996005058289,0.010179370641708374,0.4826458990573883,0.8643780946731567,-0.13857007026672363,0.02648940682411194
1681292537716662146,28737,1681292537716554484,j2s6s300_link_base,-0.3112163543701172,-0.14763996005058289,0.010179370641708374,0.4826458990573883,0.8643780946731567,-0.13857007026672363,0.02648940682411194
1681292537818086670,28738,1681292537817685818,j2s6s300_link_base,-0.3112163543701172,-0.14763996005058289,0.010179370641708374,0.4826458990573883,0.8643780946731567,-0.13857007026672363,0.02648940682411194
1681292537917155755,28739,1681292537916703277,j2s6s300_link_base,-0.3112163543701172,-0.14763996005058289,0.010179370641708374,0.4826458990573883,0.8643780946731567,-0.13857007026672363,0.02648940682411194
1681292538017111038,28740,1681292538016705031,j2s6s300_link_base,-0.3112163543701172,-0.14763996005058289,0.010179370641708374,0.4826458990573883,0.8643780946731567,-0.13857007026672363,0.02648940682411194
1681292538117115192,28741,1681292538116706323,j2s6s300_link_base,-0.3112163543701172,-0.14763996005058289,0.010179370641708374,0.4826458990573883,0.8643780946731567,-0.13857007026672363,0.02648940682411194
1681292538217145183,28742,1681292538216706807,j2s6s300_link_base,-0.3112163543701172,-0.14763996005058289,0.010179370641708374,0.4826458990573883,0.8643780946731567,-0.13857007026672363,0.02648940682411194
1681292538317144354,28743,1681292538316705614,j2s6s300_link_base,-0.31121543049812317,-0.14763975143432617,0.010179311037063599,0.48264607787132263,0.8643780946731567,-0.13856959342956543,0.02649008110165596
1681292538418092870,28744,1681292538417697268,j2s6s300_link_base,-0.31121543049812317,-0.14763975143432617,0.010179311037063599,0.48264607787132263,0.8643780946731567,-0.13856959342956543,0.02649008110165596
1681292538518100544,28745,1681292538517704821,j2s6s300_link_base,-0.31121543049812317,-0.14763975143432617,0.010179311037063599,0.48264607787132263,0.8643780946731567,-0.13856959342956543,0.02649008110165596
1681292538617154955,28746,1681292538616708430,j2s6s300_link_base,-0.31121543049812317,-0.14763975143432617,0.010179311037063599,0.48264607787132263,0.8643780946731567,-0.13856959342956543,0.02649008110165596
1681292538717156728,28747,1681292538716707243,j2s6s300_link_base,-0.31120964884757996,-0.14763253927230835,0.010176211595535278,0.48265182971954346,0.8643763065338135,-0.13856004178524017,0.026493243873119354
