%time,field.header.seq,field.header.stamp,field.header.frame_id,field.pose.position.x,field.pose.position.y,field.pose.position.z,field.pose.orientation.x,field.pose.orientation.y,field.pose.orientation.z,field.pose.orientation.w
1680006732123236105,19702,1680006732056771416,j2s6s300_link_base,-0.38349929451942444,-0.3370380699634552,-0.043044716119766235,-0.47704705595970154,-0.8766934275627136,-0.039931975305080414,-0.047329530119895935
1680006732156965442,19703,1680006732156780855,j2s6s300_link_base,-0.38349929451942444,-0.3370380699634552,-0.043044716119766235,-0.47704705595970154,-0.8766934275627136,-0.039931975305080414,-0.047329530119895935
1680006732256931087,19704,1680006732256818868,j2s6s300_link_base,-0.38349929451942444,-0.3370380699634552,-0.043044716119766235,-0.47704705595970154,-0.8766934275627136,-0.039931975305080414,-0.047329530119895935
1680006732356872511,19705,1680006732356777865,j2s6s300_link_base,-0.38349929451942444,-0.3370380699634552,-0.043044716119766235,-0.47704705595970154,-0.8766934275627136,-0.039931975305080414,-0.047329530119895935
1680006732456917633,19706,1680006732456776102,j2s6s300_link_base,-0.38349929451942444,-0.3370380699634552,-0.043044716119766235,-0.47704705595970154,-0.8766934275627136,-0.039931975305080414,-0.047329530119895935
1680006732556856737,19707,1680006732556785457,j2s6s300_link_base,-0.38349929451942444,-0.3370380699634552,-0.043044716119766235,-0.47704705595970154,-0.8766934275627136,-0.039931975305080414,-0.047329530119895935
1680006732657054227,19708,1680006732656810372,j2s6s300_link_base,-0.38349929451942444,-0.3370380699634552,-0.043044716119766235,-0.47704705595970154,-0.8766934275627136,-0.039931975305080414,-0.047329530119895935
1680006732756923713,19709,1680006732756807190,j2s6s300_link_base,-0.38349929451942444,-0.3370380699634552,-0.043044716119766235,-0.47704705595970154,-0.8766934275627136,-0.039931975305080414,-0.047329530119895935
1680006732856956265,19710,1680006732856768148,j2s6s300_link_base,-0.38349929451942444,-0.3370380699634552,-0.043044716119766235,-0.47704705595970154,-0.8766934275627136,-0.039931975305080414,-0.047329530119895935
1680006732956960459,19711,1680006732956802224,j2s6s300_link_base,-0.38349929451942444,-0.3370380699634552,-0.043044716119766235,-0.47704705595970154,-0.8766934275627136,-0.039931975305080414,-0.047329530119895935
1680006733056964000,19712,1680006733056805350,j2s6s300_link_base,-0.38349929451942444,-0.3370380699634552,-0.043044716119766235,-0.47704705595970154,-0.8766934275627136,-0.039931975305080414,-0.047329530119895935
1680006733156934599,19713,1680006733156801916,j2s6s300_link_base,-0.38349929451942444,-0.3370380699634552,-0.043044716119766235,-0.47704705595970154,-0.8766934275627136,-0.039931975305080414,-0.047329530119895935
1680006733256930212,19714,1680006733256800656,j2s6s300_link_base,-0.38349929451942444,-0.3370380699634552,-0.043044716119766235,-0.47704705595970154,-0.8766934275627136,-0.039931975305080414,-0.047329530119895935
1680006733356902161,19715,1680006733356801514,j2s6s300_link_base,-0.38349929451942444,-0.3370380699634552,-0.043044716119766235,-0.47704705595970154,-0.8766934275627136,-0.039931975305080414,-0.047329530119895935
1680006733456921537,19716,1680006733456756326,j2s6s300_link_base,-0.38349929451942444,-0.3370380699634552,-0.043044716119766235,-0.47704705595970154,-0.8766934275627136,-0.039931975305080414,-0.047329530119895935
1680006733556958076,19717,1680006733556801520,j2s6s300_link_base,-0.38349929451942444,-0.3370380699634552,-0.043044716119766235,-0.47704705595970154,-0.8766934275627136,-0.039931975305080414,-0.047329530119895935
1680006733656932711,19718,1680006733656802576,j2s6s300_link_base,-0.38349929451942444,-0.3370380699634552,-0.043044716119766235,-0.47704705595970154,-0.8766934275627136,-0.039931975305080414,-0.047329530119895935
1680006733756925152,19719,1680006733756760478,j2s6s300_link_base,-0.38349929451942444,-0.3370380699634552,-0.043044716119766235,-0.47704705595970154,-0.8766934275627136,-0.039931975305080414,-0.047329530119895935
1680006733856896839,19720,1680006733856802287,j2s6s300_link_base,-0.38349929451942444,-0.3370380699634552,-0.043044716119766235,-0.47704705595970154,-0.8766934275627136,-0.039931975305080414,-0.047329530119895935
1680006733956919519,19721,1680006733956807759,j2s6s300_link_base,-0.38349929451942444,-0.3370380699634552,-0.043044716119766235,-0.47704705595970154,-0.8766934275627136,-0.039931975305080414,-0.047329530119895935
1680006734056910005,19722,1680006734056767702,j2s6s300_link_base,-0.38349929451942444,-0.3370380699634552,-0.043044716119766235,-0.47704705595970154,-0.8766934275627136,-0.039931975305080414,-0.047329530119895935
1680006734156947601,19723,1680006734156802325,j2s6s300_link_base,-0.38349929451942444,-0.3370380699634552,-0.043044716119766235,-0.47704705595970154,-0.8766934275627136,-0.039931975305080414,-0.047329530119895935
1680006734256925830,19724,1680006734256765321,j2s6s300_link_base,-0.38349929451942444,-0.3370380699634552,-0.043044716119766235,-0.47704705595970154,-0.8766934275627136,-0.039931975305080414,-0.047329530119895935
1680006734356942797,19725,1680006734356795813,j2s6s300_link_base,-0.38349929451942444,-0.3370380699634552,-0.043044716119766235,-0.47704705595970154,-0.8766934275627136,-0.039931975305080414,-0.047329530119895935
1680006734456966351,19726,1680006734456806692,j2s6s300_link_base,-0.3834987282752991,-0.3370376527309418,-0.04304495453834534,-0.4770480990409851,-0.8766927719116211,-0.03993261605501175,-0.047329820692539215
1680006734556915891,19727,1680006734556770910,j2s6s300_link_base,-0.3834987282752991,-0.3370376527309418,-0.04304495453834534,-0.4770480990409851,-0.8766927719116211,-0.03993261605501175,-0.047329820692539215
1680006734656902318,19728,1680006734656769494,j2s6s300_link_base,-0.3834987282752991,-0.3370376527309418,-0.04304495453834534,-0.4770480990409851,-0.8766927719116211,-0.03993261605501175,-0.047329820692539215
1680006734756918638,19729,1680006734756765763,j2s6s300_link_base,-0.3834987282752991,-0.3370376527309418,-0.04304495453834534,-0.4770480990409851,-0.8766927719116211,-0.03993261605501175,-0.047329820692539215
1680006734856922421,19730,1680006734856804311,j2s6s300_link_base,-0.3834987282752991,-0.3370376527309418,-0.04304495453834534,-0.4770480990409851,-0.8766927719116211,-0.03993261605501175,-0.047329820692539215
1680006734956953341,19731,1680006734956805066,j2s6s300_link_base,-0.3834987282752991,-0.3370376527309418,-0.04304495453834534,-0.4770480990409851,-0.8766927719116211,-0.03993261605501175,-0.047329820692539215
1680006735056945058,19732,1680006735056802436,j2s6s300_link_base,-0.3834987282752991,-0.3370376527309418,-0.04304495453834534,-0.4770480990409851,-0.8766927719116211,-0.03993261605501175,-0.047329820692539215
1680006735156911424,19733,1680006735156803300,j2s6s300_link_base,-0.3834987282752991,-0.3370376527309418,-0.04304495453834534,-0.4770480990409851,-0.8766927719116211,-0.03993261605501175,-0.047329820692539215
1680006735256892981,19734,1680006735256770483,j2s6s300_link_base,-0.3834993243217468,-0.3370368778705597,-0.04304495453834534,-0.47704893350601196,-0.8766922950744629,-0.039932556450366974,-0.04732983559370041
1680006735356917433,19735,1680006735356803631,j2s6s300_link_base,-0.3834993243217468,-0.3370368778705597,-0.04304495453834534,-0.47704893350601196,-0.8766922950744629,-0.039932556450366974,-0.04732983559370041
1680006735456973236,19736,1680006735456803383,j2s6s300_link_base,-0.3834993243217468,-0.3370368778705597,-0.04304495453834534,-0.47704893350601196,-0.8766922950744629,-0.039932556450366974,-0.04732983559370041
1680006735556937521,19737,1680006735556771848,j2s6s300_link_base,-0.3834993243217468,-0.3370368778705597,-0.04304495453834534,-0.47704893350601196,-0.8766922950744629,-0.039932556450366974,-0.04732983559370041
1680006735656911793,19738,1680006735656796471,j2s6s300_link_base,-0.3834993243217468,-0.3370368778705597,-0.04304495453834534,-0.47704893350601196,-0.8766922950744629,-0.039932556450366974,-0.04732983559370041
1680006735756951246,19739,1680006735756801795,j2s6s300_link_base,-0.3834993243217468,-0.3370368778705597,-0.04304495453834534,-0.47704893350601196,-0.8766922950744629,-0.039932556450366974,-0.04732983559370041
1680006735856929114,19740,1680006735856816441,j2s6s300_link_base,-0.3834993243217468,-0.3370368778705597,-0.04304495453834534,-0.47704893350601196,-0.8766922950744629,-0.039932556450366974,-0.04732983559370041
1680006735956903884,19741,1680006735956769856,j2s6s300_link_base,-0.3834993243217468,-0.3370368778705597,-0.04304495453834534,-0.47704893350601196,-0.8766922950744629,-0.039932556450366974,-0.04732983559370041
1680006736056940585,19742,1680006736056771660,j2s6s300_link_base,-0.3834993243217468,-0.3370368778705597,-0.04304495453834534,-0.47704893350601196,-0.8766922950744629,-0.039932556450366974,-0.04732983559370041
1680006736156902259,19743,1680006736156772464,j2s6s300_link_base,-0.3834993243217468,-0.3370368778705597,-0.04304495453834534,-0.47704893350601196,-0.8766922950744629,-0.039932556450366974,-0.04732983559370041
1680006736256913876,19744,1680006736256780397,j2s6s300_link_base,-0.3834993243217468,-0.3370368778705597,-0.04304495453834534,-0.47704893350601196,-0.8766922950744629,-0.039932556450366974,-0.04732983559370041
1680006736356918973,19745,1680006736356774986,j2s6s300_link_base,-0.38350266218185425,-0.33703532814979553,-0.04304581880569458,-0.47705185413360596,-0.8766909241676331,-0.039930399507284164,-0.04732891917228699
1680006736456901566,19746,1680006736456771989,j2s6s300_link_base,-0.3836939334869385,-0.33687731623649597,-0.04310929775238037,-0.47726327180862427,-0.8765817284584045,-0.03984211012721062,-0.04729535058140755
1680006736556862522,19747,1680006736556733558,j2s6s300_link_base,-0.38390541076660156,-0.336810827255249,-0.04315739870071411,-0.4774261713027954,-0.8765078186988831,-0.03963209316134453,-0.047198280692100525
1680006736656937253,19748,1680006736656772819,j2s6s300_link_base,-0.38401246070861816,-0.3368668556213379,-0.04323011636734009,-0.47745147347450256,-0.8765093088150024,-0.039422087371349335,-0.04708942770957947
1680006736756938797,19749,1680006736756773202,j2s6s300_link_base,-0.3840198516845703,-0.3368476331233978,-0.04338422417640686,-0.4774714708328247,-0.8764999508857727,-0.039408545941114426,-0.04707309603691101
1680006736856902146,19750,1680006736856771905,j2s6s300_link_base,-0.38403135538101196,-0.336847186088562,-0.04359781742095947,-0.47748249769210815,-0.8764981031417847,-0.03936094045639038,-0.04703465849161148
1680006736956907902,19751,1680006736956784898,j2s6s300_link_base,-0.38376790285110474,-0.3366324007511139,-0.044253021478652954,-0.47748738527297974,-0.8764638304710388,-0.03983420506119728,-0.047225870192050934
1680006737056934273,19752,1680006737056773666,j2s6s300_link_base,-0.3831549286842346,-0.3361407518386841,-0.045559972524642944,-0.47748881578445435,-0.8763861060142517,-0.04095157980918884,-0.04769360274076462
1680006737156932996,19753,1680006737156767441,j2s6s300_link_base,-0.382206529378891,-0.3353795111179352,-0.047648996114730835,-0.4774915277957916,-0.8762643337249756,-0.042659636586904526,-0.04840195178985596
1680006737256873581,19754,1680006737256773205,j2s6s300_link_base,-0.382161408662796,-0.3352012038230896,-0.05047643184661865,-0.47763925790786743,-0.876211941242218,-0.04243071749806404,-0.04809391126036644
1680006737356899829,19755,1680006737356805598,j2s6s300_link_base,-0.38358229398727417,-0.3360801041126251,-0.053035229444503784,-0.4779171645641327,-0.8763065934181213,-0.03920825943350792,-0.04631083831191063
1680006737456931411,19756,1680006737456805890,j2s6s300_link_base,-0.3858415186405182,-0.33757472038269043,-0.05491340160369873,-0.47823795676231384,-0.8764682412147522,-0.03432704135775566,-0.0437421090900898
1680006737556880052,19757,1680006737556745918,j2s6s300_link_base,-0.387916624546051,-0.33897408843040466,-0.05615866184234619,-0.4784911572933197,-0.8766031861305237,-0.029915902763605118,-0.041449740529060364
1680006737656928117,19758,1680006737656797684,j2s6s300_link_base,-0.3890618085861206,-0.3397335112094879,-0.057007402181625366,-0.47863611578941345,-0.8766642808914185,-0.0274626687169075,-0.04016272351145744
1680006737756891398,19759,1680006737756758044,j2s6s300_link_base,-0.3889056444168091,-0.3395124673843384,-0.059243470430374146,-0.4787314832210541,-0.8766181468963623,-0.02748410589993,-0.04001711308956146
1680006737856937916,19760,1680006737856803567,j2s6s300_link_base,-0.3866603374481201,-0.3376922011375427,-0.06437292695045471,-0.47877582907676697,-0.876393735408783,-0.03130520507693291,-0.04156870394945145
1680006737956940982,19761,1680006737956774329,j2s6s300_link_base,-0.3839794099330902,-0.33548906445503235,-0.07129338383674622,-0.4788477122783661,-0.8760998249053955,-0.03574870154261589,-0.043311797082424164
1680006738056963816,19762,1680006738056759374,j2s6s300_link_base,-0.38560470938682556,-0.3366522490978241,-0.07579508423805237,-0.47901129722595215,-0.8761906027793884,-0.033072881400585175,-0.04176708683371544
1680006738158994445,19763,1680006738158760730,j2s6s300_link_base,-0.38907429575920105,-0.3393668532371521,-0.07823967933654785,-0.4790896475315094,-0.8764166235923767,-0.028420206159353256,-0.039487190544605255
1680006738256924007,19764,1680006738256756220,j2s6s300_link_base,-0.3916690945625305,-0.3414671719074249,-0.07966086268424988,-0.4790916442871094,-0.8765938878059387,-0.02496907114982605,-0.03782583773136139
1680006738356919920,19765,1680006738356760545,j2s6s300_link_base,-0.3933287262916565,-0.34274232387542725,-0.08023703098297119,-0.47912833094596863,-0.8766713738441467,-0.022904837504029274,-0.03686046227812767
1680006738456945600,19766,1680006738456783671,j2s6s300_link_base,-0.3943261206150055,-0.3434940278530121,-0.08069893717765808,-0.47916099429130554,-0.876711905002594,-0.021617291495203972,-0.036246322095394135
1680006738556895858,19767,1680006738556770771,j2s6s300_link_base,-0.39474332332611084,-0.3438890278339386,-0.08112436532974243,-0.4791225492954254,-0.8767567276954651,-0.02108163572847843,-0.035982370376586914
1680006738656890148,19768,1680006738656775655,j2s6s300_link_base,-0.3950815796852112,-0.3443070650100708,-0.0811733603477478,-0.47902601957321167,-0.8768345713615417,-0.020501667633652687,-0.03570551425218582
1680006738756881599,19769,1680006738756770197,j2s6s300_link_base,-0.394328773021698,-0.3458775281906128,-0.08123186230659485,-0.4776066243648529,-0.8776317834854126,-0.020010020583868027,-0.035411447286605835
1680006738856945658,19770,1680006738856769003,j2s6s300_link_base,-0.39156511425971985,-0.3497491180896759,-0.08131441473960876,-0.4736303389072418,-0.8798116445541382,-0.019511179998517036,-0.03500226512551308
1680006738956900889,19771,1680006738956772925,j2s6s300_link_base,-0.38926589488983154,-0.3527557849884033,-0.08132916688919067,-0.47045665979385376,-0.8815284371376038,-0.019251001998782158,-0.034750018268823624
1680006739056903129,19772,1680006739056774649,j2s6s300_link_base,-0.3876657783985138,-0.35460180044174194,-0.08133524656295776,-0.4684045910835266,-0.8826242685317993,-0.019240345805883408,-0.03466080501675606
1680006739156903644,19773,1680006739156808828,j2s6s300_link_base,-0.3859463930130005,-0.3565024733543396,-0.08133399486541748,-0.4662497341632843,-0.8837655186653137,-0.01929982751607895,-0.03460234776139259
1680006739256936870,19774,1680006739256808437,j2s6s300_link_base,-0.3822365999221802,-0.3611028790473938,-0.0812855064868927,-0.4612714350223541,-0.8863956928253174,-0.018942108377814293,-0.03424420952796936
1680006739356907117,19775,1680006739356807984,j2s6s300_link_base,-0.3820815682411194,-0.36905038356781006,-0.08070489764213562,0.45614996552467346,0.8892820477485657,0.012055162340402603,0.030972294509410858
1680006739456899636,19776,1680006739456806438,j2s6s300_link_base,-0.3799170255661011,-0.3804433047771454,-0.08013486862182617,0.44783586263656616,0.8936935067176819,0.00392077025026083,0.027195623144507408
1680006739556907702,19777,1680006739556808359,j2s6s300_link_base,-0.37810179591178894,-0.39231064915657043,-0.08000236749649048,0.43955197930336,0.8979092240333557,-0.006055832374840975,0.02272159978747368
1680006739656902773,19778,1680006739656806281,j2s6s300_link_base,-0.37636253237724304,-0.4027934670448303,-0.07966876029968262,0.4322603642940521,0.9014290571212769,-0.01442033052444458,0.019200701266527176
1680006739756942416,19779,1680006739756808816,j2s6s300_link_base,-0.37429648637771606,-0.4132821261882782,-0.0788125991821289,0.4248841106891632,0.9048369526863098,-0.021841131150722504,0.016328632831573486
1680006739856899813,19780,1680006739856806304,j2s6s300_link_base,-0.3693857491016388,-0.42630499601364136,-0.07789888978004456,0.41454556584358215,0.9094600677490234,-0.029052609577775,0.013794578611850739
1680006739956924727,19781,1680006739956808149,j2s6s300_link_base,-0.36869099736213684,-0.44157564640045166,-0.07732868194580078,0.40549564361572266,0.9130110144615173,-0.04374685510993004,0.00839623250067234
1680006740056997631,19782,1680006740056823539,j2s6s300_link_base,-0.3693726360797882,-0.4551849961280823,-0.07630443572998047,0.3983403444290161,0.9154067635536194,-0.0578203983604908,0.003485262393951416
1680006740156971972,19783,1680006740156806380,j2s6s300_link_base,-0.36766475439071655,-0.46715617179870605,-0.07501867413520813,0.3908959627151489,0.9179222583770752,-0.06796181946992874,0.0003336481750011444
1680006740256940211,19784,1680006740256807285,j2s6s300_link_base,-0.36218973994255066,-0.4786611795425415,-0.07438421249389648,0.38172096014022827,0.9212480187416077,-0.07476325333118439,-0.0013271216303110123
1680006740356905342,19785,1680006740356809608,j2s6s300_link_base,-0.35947224497795105,-0.49014490842819214,-0.07376159727573395,0.3742460012435913,0.9235405921936035,-0.08366133272647858,-0.0037013348191976547
1680006740456939482,19786,1680006740456806185,j2s6s300_link_base,-0.35506731271743774,-0.5013064742088318,-0.07330331206321716,0.36612147092819214,0.9261364340782166,-0.09055378288030624,-0.0051375627517700195
1680006740556951333,19787,1680006740556807523,j2s6s300_link_base,-0.3500509262084961,-0.5129145979881287,-0.07219439744949341,0.3575522005558014,0.9287711977958679,-0.09746797382831573,-0.006357286125421524
1680006740656939625,19788,1680006740656811308,j2s6s300_link_base,-0.34747931361198425,-0.5234744548797607,-0.07024668157100677,0.3510325253009796,0.9304937720298767,-0.10440322011709213,-0.007580671459436417
1680006740756952543,19789,1680006740756810555,j2s6s300_link_base,-0.34130892157554626,-0.5341774225234985,-0.06939293444156647,0.34249305725097656,0.9330836534500122,-0.10949879884719849,-0.007967162877321243
1680006740856931609,19790,1680006740856800487,j2s6s300_link_base,-0.33467620611190796,-0.5435223579406738,-0.06873463094234467,0.3343965411186218,0.9355337619781494,-0.11353741586208344,-0.008047204464673996
1680006740956929669,19791,1680006740956807112,j2s6s300_link_base,-0.33011195063591003,-0.5508531332015991,-0.06819996237754822,0.3284774422645569,0.9372032880783081,-0.11698651313781738,-0.008174307644367218
1680006741056971917,19792,1680006741056809800,j2s6s300_link_base,-0.3251563608646393,-0.5564795136451721,-0.06898552179336548,0.32313236594200134,0.9388513565063477,-0.11866433918476105,-0.007899370044469833
1680006741156966602,19793,1680006741156779684,j2s6s300_link_base,-0.31876224279403687,-0.5613749027252197,-0.07016006112098694,0.31726425886154175,0.9407882690429688,-0.11919734627008438,-0.007271941751241684
1680006741256908219,19794,1680006741256774641,j2s6s300_link_base,-0.30708596110343933,-0.5689307451248169,-0.07068672776222229,0.30708399415016174,0.9440780878067017,-0.11991026997566223,-0.006131604313850403
1680006741356909120,19795,1680006741356775461,j2s6s300_link_base,-0.2965380847454071,-0.5763837099075317,-0.07058864831924438,0.29761624336242676,0.9469220638275146,-0.12139059603214264,-0.005233548581600189
1680006741456938374,19796,1680006741456775259,j2s6s300_link_base,-0.2884920835494995,-0.5825394988059998,-0.06968019902706146,0.29020193219184875,0.9489842653274536,-0.1232483983039856,-0.004654932767152786
1680006741556940348,19797,1680006741556810355,j2s6s300_link_base,-0.2811380624771118,-0.5873550176620483,-0.06926459074020386,0.2837541401386261,0.9507951736450195,-0.12432143092155457,-0.004023265093564987
1680006741656917606,19798,1680006741656770697,j2s6s300_link_base,-0.2738630473613739,-0.5913655757904053,-0.06906598806381226,0.27765730023384094,0.9525280594825745,-0.12484276294708252,-0.0033217966556549072
1680006741757018136,19799,1680006741756775105,j2s6s300_link_base,-0.2655514180660248,-0.5953798294067383,-0.06897363066673279,0.27087175846099854,0.9544526934623718,-0.1250694841146469,-0.0024762004613876343
1680006741856904341,19800,1680006741856775980,j2s6s300_link_base,-0.2523057758808136,-0.6013638973236084,-0.06889021396636963,0.25996312499046326,0.9574527740478516,-0.12530742585659027,-0.0011485684663057327
1680006741956962348,19801,1680006741956804132,j2s6s300_link_base,-0.2397468239068985,-0.6063733100891113,-0.06923678517341614,0.24770182371139526,0.9607229232788086,-0.12512120604515076,-0.0001243632286787033
1680006742056931555,19802,1680006742056808689,j2s6s300_link_base,-0.22547224164009094,-0.6113707423210144,-0.07005898654460907,0.23398584127426147,0.9642342925071716,-0.12450578063726425,0.001077905297279358
1680006742156930943,19803,1680006742156808019,j2s6s300_link_base,-0.21196416020393372,-0.6151595711708069,-0.07187871634960175,0.22077558934688568,0.9675198793411255,-0.12311925739049911,0.0022281035780906677
1680006742256974948,19804,1680006742256810645,j2s6s300_link_base,-0.19632163643836975,-0.6189759969711304,-0.07429246604442596,0.20673540234565735,0.9708457589149475,-0.12126588821411133,0.003700586035847664
1680006742356907911,19805,1680006742356811829,j2s6s300_link_base,-0.18033641576766968,-0.6226261854171753,-0.07641848921775818,0.19187593460083008,0.974090039730072,-0.11960972100496292,0.005080867558717728
1680006742456931776,19806,1680006742456810840,j2s6s300_link_base,-0.16566474735736847,-0.6259299516677856,-0.07778206467628479,0.17662911117076874,0.9770947694778442,-0.11853591352701187,0.0060900477692484856
1680006742556924385,19807,1680006742556727465,j2s6s300_link_base,-0.1484535038471222,-0.6299642324447632,-0.07832165062427521,0.15911713242530823,0.9801450967788696,-0.11808867007493973,0.007241115905344486
1680006742656980003,19808,1680006742656809841,j2s6s300_link_base,-0.13303399085998535,-0.6331737637519836,-0.07878193259239197,0.14144116640090942,0.9828903675079346,-0.11771459132432938,0.008016661740839481
1680006742757031468,19809,1680006742756812388,j2s6s300_link_base,-0.11741697043180466,-0.6361087560653687,-0.07905197143554688,0.12440364807844162,0.9852157831192017,-0.1174505427479744,0.00888599269092083
1680006742856906292,19810,1680006742856776930,j2s6s300_link_base,-0.10413350909948349,-0.6382361650466919,-0.07937762141227722,0.11115031689405441,0.9868283867835999,-0.117132268846035,0.009767992421984673
1680006742956945834,19811,1680006742956809178,j2s6s300_link_base,-0.09313914179801941,-0.639873206615448,-0.07948227226734161,0.10108306258916855,0.9879199862480164,-0.11697874218225479,0.010592426173388958
1680006743056911803,19812,1680006743056777212,j2s6s300_link_base,-0.08461138606071472,-0.6409264206886292,-0.07971619069576263,0.09368473291397095,0.9886701703071594,-0.11673574894666672,0.011281793937087059
1680006743156934565,19813,1680006743156802497,j2s6s300_link_base,-0.0732521340250969,-0.642259955406189,-0.07979011535644531,0.08445072174072266,0.9895105957984924,-0.11656143516302109,0.01226021721959114
1680006743256954071,19814,1680006743256811080,j2s6s300_link_base,-0.05970495194196701,-0.6433438062667847,-0.07998138666152954,0.06860283762216568,0.9907732605934143,-0.1161748468875885,0.012859752401709557
1680006743356953474,19815,1680006743356811504,j2s6s300_link_base,-0.04851005971431732,-0.6419351100921631,-0.08122049272060394,0.05143163353204727,0.9920838475227356,-0.11382853239774704,0.012944004498422146
1680006743456920003,19816,1680006743456811620,j2s6s300_link_base,-0.03732242062687874,-0.6357991695404053,-0.08473341166973114,0.03829103708267212,0.993434488773346,-0.10693643242120743,0.013643505051732063
1680006743556939345,19817,1680006743556812181,j2s6s300_link_base,-0.02779403142631054,-0.6277785301208496,-0.08891516923904419,0.027846017852425575,0.994645893573761,-0.09847230464220047,0.014396440237760544
1680006743656944331,19818,1680006743656814428,j2s6s300_link_base,-0.020076552405953407,-0.6201106309890747,-0.0926697701215744,0.02048119157552719,0.9955630302429199,-0.09058736264705658,0.015124153345823288
1680006743756977101,19819,1680006743756812722,j2s6s300_link_base,-0.010931577533483505,-0.6145443320274353,-0.09530851244926453,0.012388736940920353,0.996192216873169,-0.08482572436332703,0.01588401012122631
1680006743856989533,19820,1680006743856812305,j2s6s300_link_base,-0.0001556742936372757,-0.6110722422599792,-0.09689462184906006,0.0032432787120342255,0.9965518712997437,-0.08121421188116074,0.016672756522893906
1680006743956954305,19821,1680006743956818103,j2s6s300_link_base,0.01504252478480339,-0.6089096665382385,-0.0977596640586853,0.009514017961919308,-0.9966657161712646,0.07908455282449722,-0.017680516466498375
1680006744056927638,19822,1680006744056747696,j2s6s300_link_base,0.029365558177232742,-0.6071496605873108,-0.0982978343963623,0.02130732126533985,-0.9965776205062866,0.0776701271533966,-0.018612075597047806
1680006744156878175,19823,1680006744156765502,j2s6s300_link_base,0.042192865163087845,-0.6057077646255493,-0.09859314560890198,0.031893808394670486,-0.9963464736938477,0.0768052414059639,-0.019426865503191948
1680006744256942524,19824,1680006744256776812,j2s6s300_link_base,0.05257657915353775,-0.6044023036956787,-0.09880530834197998,0.04048219323158264,-0.9960712194442749,0.07615926861763,-0.020077884197235107
1680006744356895037,19825,1680006744356773626,j2s6s300_link_base,0.061037734150886536,-0.6030858755111694,-0.09902781248092651,0.04751110449433327,-0.99579918384552,0.07551407814025879,-0.020600296556949615
1680006744458947010,19826,1680006744458764679,j2s6s300_link_base,0.06856224685907364,-0.6017241477966309,-0.09926295280456543,0.053780995309352875,-0.9955207109451294,0.07485127449035645,-0.021057836711406708
1680006744559957974,19827,1680006744559772133,j2s6s300_link_base,0.07538801431655884,-0.5996520519256592,-0.09979358315467834,0.05954708531498909,-0.9952831864356995,0.07352264970541,-0.021447284147143364
1680006744657020896,19828,1680006744656776712,j2s6s300_link_base,0.08486229181289673,-0.5948291420936584,-0.10127443075180054,0.06774091720581055,-0.9950072169303894,0.06994079053401947,-0.02190868929028511
1680006744756917430,19829,1680006744756770892,j2s6s300_link_base,0.09536212682723999,-0.588005781173706,-0.10339492559432983,0.07713474333286285,-0.9946652054786682,0.06475965678691864,-0.02230677753686905
1680006744856934105,19830,1680006744856761740,j2s6s300_link_base,0.10663916915655136,-0.5821458101272583,-0.10493746399879456,0.0872357115149498,-0.9940688014030457,0.060833558440208435,-0.02272852510213852
1680006744956926338,19831,1680006744956790777,j2s6s300_link_base,0.1160762757062912,-0.5775368809700012,-0.10601761937141418,0.09567566215991974,-0.9934532046318054,0.058009907603263855,-0.023063044995069504
1680006745056979092,19832,1680006745056786361,j2s6s300_link_base,0.12336641550064087,-0.5746221542358398,-0.10654968023300171,0.10215380787849426,-0.9928856492042542,0.056549426168203354,-0.023342130705714226
1680006745156953529,19833,1680006745156804746,j2s6s300_link_base,0.1292332261800766,-0.5723652839660645,-0.10691192746162415,0.10737165808677673,-0.9923872947692871,0.05552725866436958,-0.023566819727420807
1680006745256951764,19834,1680006745256815192,j2s6s300_link_base,0.13570991158485413,-0.5703155994415283,-0.10711660981178284,0.1130799874663353,-0.9917823672294617,0.05488206446170807,-0.02384202368557453
1680006745356956939,19835,1680006745356798627,j2s6s300_link_base,0.14205041527748108,-0.5679627656936646,-0.10741645097732544,0.11873388290405273,-0.9911640286445618,0.053999654948711395,-0.024086227640509605
1680006745456966937,19836,1680006745456818663,j2s6s300_link_base,0.1498900204896927,-0.5643272399902344,-0.1080118715763092,0.12587441504001617,-0.9903658032417297,0.05233792960643768,-0.024327483028173447
1680006745556933993,19837,1680006745556815384,j2s6s300_link_base,0.1571706235408783,-0.5585352182388306,-0.10938552021980286,0.1330004185438156,-0.989620566368103,0.048683051019907,-0.024333728477358818
1680006745656956348,19838,1680006745656779816,j2s6s300_link_base,0.16278299689292908,-0.5523694157600403,-0.1109851598739624,0.13890071213245392,-0.9890152812004089,0.04440336301922798,-0.024158477783203125
1680006745756944600,19839,1680006745756812199,j2s6s300_link_base,0.16750793159008026,-0.5481100082397461,-0.11196070909500122,0.14374065399169922,-0.9884425401687622,0.04171858727931976,-0.02407352440059185
1680006745856986941,19840,1680006745856819918,j2s6s300_link_base,0.1700032353401184,-0.5457192063331604,-0.11250844597816467,0.14635182917118073,-0.9881240129470825,0.04019799083471298,-0.024007044732570648
1680006745956941547,19841,1680006745956814658,j2s6s300_link_base,0.17186087369918823,-0.5440618395805359,-0.11286845803260803,0.1482747197151184,-0.9878788590431213,0.03918715938925743,-0.023967009037733078
1680006746056976428,19842,1680006746056812779,j2s6s300_link_base,0.17260979115962982,-0.5432339310646057,-0.11306437849998474,0.14908836781978607,-0.9877787828445435,0.03863850235939026,-0.023933952674269676
1680006746156913844,19843,1680006746156807624,j2s6s300_link_base,0.173348069190979,-0.5425385236740112,-0.11321362853050232,0.1498638540506363,-0.9876786470413208,0.038208868354558945,-0.023913253098726273
1680006746256910446,19844,1680006746256779562,j2s6s300_link_base,0.17360463738441467,-0.5423473715782166,-0.11324810981750488,0.15012305974960327,-0.987643301486969,0.03810562938451767,-0.023911118507385254
1680006746356883870,19845,1680006746356787209,j2s6s300_link_base,0.17401781678199768,-0.5421599745750427,-0.1132655143737793,0.15051548182964325,-0.9875856041908264,0.03804734721779823,-0.02391986735165119
1680006746456965562,19846,1680006746456818851,j2s6s300_link_base,0.17484629154205322,-0.5418233871459961,-0.11328861117362976,0.1512932926416397,-0.9874693751335144,0.03796633705496788,-0.02394142560660839
1680006746556925958,19847,1680006746556786064,j2s6s300_link_base,0.17788034677505493,-0.5407914519309998,-0.11330297589302063,0.15509526431560516,-0.9868809580802917,0.03788507729768753,-0.0240032821893692
1680006746656944560,19848,1680006746656814542,j2s6s300_link_base,0.18167744576931,-0.539422333240509,-0.11333847045898438,0.16840970516204834,-0.9847001433372498,0.03794456645846367,-0.02374798059463501
1680006746756942197,19849,1680006746756814665,j2s6s300_link_base,0.18437279760837555,-0.538394033908844,-0.11337849497795105,0.18542683124542236,-0.9816421866416931,0.03813111409544945,-0.02327035740017891
1680006746856942985,19850,1680006746856801480,j2s6s300_link_base,0.18633684515953064,-0.537688136100769,-0.11338970065116882,0.19902992248535156,-0.9789758920669556,0.038340263068675995,-0.02287716045975685
1680006746956936484,19851,1680006746956780608,j2s6s300_link_base,0.1875256597995758,-0.537178099155426,-0.11342281103134155,0.20961663126945496,-0.9767673015594482,0.03844837471842766,-0.02254018932580948
1680006747056945192,19852,1680006747056781790,j2s6s300_link_base,0.1883125752210617,-0.5368180274963379,-0.11345109343528748,0.21707405149936676,-0.9751403331756592,0.038510385900735855,-0.02229767106473446
1680006747156948654,19853,1680006747156784002,j2s6s300_link_base,0.18859978020191193,-0.5363878607749939,-0.11355814337730408,0.22078248858451843,-0.9743195176124573,0.0382864736020565,-0.02215459942817688
1680006747256959017,19854,1680006747256781242,j2s6s300_link_base,0.18865978717803955,-0.5363010764122009,-0.11358010768890381,0.2225930541753769,-0.9739097952842712,0.038265831768512726,-0.022084388881921768
1680006747356908486,19855,1680006747356780368,j2s6s300_link_base,0.18869324028491974,-0.5361306667327881,-0.11363404989242554,0.22386406362056732,-0.9736242890357971,0.03814972937107086,-0.022028349339962006
1680006747456951171,19856,1680006747456782363,j2s6s300_link_base,0.18882682919502258,-0.5360064506530762,-0.11366009712219238,0.22795502841472626,-0.9726774096488953,0.03816678375005722,-0.021872712299227715
1680006747556889797,19857,1680006747556785799,j2s6s300_link_base,0.18911516666412354,-0.5357847213745117,-0.11369979381561279,0.2359854131937027,-0.9707648158073425,0.038226205855607986,-0.021572545170783997
1680006747656909160,19858,1680006747656781639,j2s6s300_link_base,0.18901553750038147,-0.5352889895439148,-0.113872230052948,0.2427203357219696,-0.969122052192688,0.03790074959397316,-0.021282080560922623
1680006747757027671,19859,1680006747756809503,j2s6s300_link_base,0.18887737393379211,-0.5348385572433472,-0.11403244733810425,0.2479904592037201,-0.9678047299385071,0.037572119385004044,-0.021051736548542976
1680006747856970022,19860,1680006747856807967,j2s6s300_link_base,0.18881350755691528,-0.5346389412879944,-0.11408954858779907,0.2505362927913666,-0.9671564698219299,0.03743436560034752,-0.02094276249408722
1680006747956983487,19861,1680006747956822323,j2s6s300_link_base,0.1888190060853958,-0.5346591472625732,-0.11402627825737,0.2522127032279968,-0.9667192697525024,0.037507228553295135,-0.02088013105094433
1680006748056956433,19862,1680006748056815111,j2s6s300_link_base,0.18882353603839874,-0.5346735715866089,-0.11399519443511963,0.2535679042339325,-0.9663636684417725,0.03755863383412361,-0.020828591659665108
1680006748156943554,19863,1680006748156814222,j2s6s300_link_base,0.1888302117586136,-0.5346947908401489,-0.11395886540412903,0.25439944863319397,-0.9661439657211304,0.03760630637407303,-0.02079765684902668
1680006748256936739,19864,1680006748256808500,j2s6s300_link_base,0.1888316422700882,-0.5346993803977966,-0.11394980549812317,0.25487375259399414,-0.9660186767578125,0.03762323781847954,-0.02077951654791832
1680006748356878687,19865,1680006748356819980,j2s6s300_link_base,0.18887630105018616,-0.5348450541496277,-0.11372402310371399,0.2552109956741333,-0.9659218192100525,0.03782699629664421,-0.020775455981492996
1680006748456944655,19866,1680006748456814446,j2s6s300_link_base,0.18902407586574554,-0.5353727340698242,-0.11292102932929993,0.2553434669971466,-0.9658583402633667,0.03853342682123184,-0.020801322534680367
1680006748556907993,19867,1680006748556815606,j2s6s300_link_base,0.18914474546909332,-0.5358026623725891,-0.11226511001586914,0.25538209080696106,-0.9658244848251343,0.039108242839574814,-0.02082553505897522
1680006748656942097,19868,1680006748656815131,j2s6s300_link_base,0.18924905359745026,-0.5362362861633301,-0.1116064190864563,0.2553752660751343,-0.9658023118972778,0.03968126326799393,-0.020850442349910736
1680006748756956631,19869,1680006748756817853,j2s6s300_link_base,0.1895061880350113,-0.5372873544692993,-0.11001700162887573,0.2553352415561676,-0.9657533764839172,0.04107445850968361,-0.020911604166030884
1680006748856915666,19870,1680006748856783365,j2s6s300_link_base,0.19000065326690674,-0.5389488935470581,-0.1074429452419281,0.2553335130214691,-0.9656532406806946,0.04332488775253296,-0.02101362869143486
1680006748956987240,19871,1680006748956817462,j2s6s300_link_base,0.19057950377464294,-0.5407966375350952,-0.10451075434684753,0.2553519606590271,-0.9655285477638245,0.0458645336329937,-0.021129880100488663
1680006749056918728,19872,1680006749056815645,j2s6s300_link_base,0.19095487892627716,-0.5419919490814209,-0.1025238037109375,0.25536373257637024,-0.9654425978660583,0.04754170402884483,-0.02120659314095974
1680006749156907253,19873,1680006749156813088,j2s6s300_link_base,0.1911465972661972,-0.542640209197998,-0.10133317112922668,0.2553597390651703,-0.9653958678245544,0.04848405346274376,-0.02124953269958496
1680006749256943635,19874,1680006749256811810,j2s6s300_link_base,0.19119738042354584,-0.542871356010437,-0.10070237517356873,0.2553461790084839,-0.965381920337677,0.04882194101810455,-0.021272042766213417
1680006749356920704,19875,1680006749356815946,j2s6s300_link_base,0.19117732346057892,-0.5428335070610046,-0.1005750298500061,0.2553428113460541,-0.9653880596160889,0.048712849617004395,-0.02128167822957039
1680006749456907106,19876,1680006749456776298,j2s6s300_link_base,0.1911340057849884,-0.5426387786865234,-0.10037285089492798,0.25536590814590454,-0.965404748916626,0.048249855637550354,-0.021308504045009613
1680006749556877401,19877,1680006749556783506,j2s6s300_link_base,0.19108331203460693,-0.5424289703369141,-0.10033115744590759,0.25537872314453125,-0.9654223918914795,0.04782005399465561,-0.021324072033166885
1680006749656916338,19878,1680006749656783713,j2s6s300_link_base,0.19096821546554565,-0.5419315099716187,-0.1003490686416626,0.25541335344314575,-0.9654577970504761,0.04689886420965195,-0.021348070353269577
1680006749756926052,19879,1680006749756776821,j2s6s300_link_base,0.1908164769411087,-0.5412813425064087,-0.1003846824169159,0.2554580867290497,-0.9655053615570068,0.04564332962036133,-0.0213831327855587
1680006749856952787,19880,1680006749856818550,j2s6s300_link_base,0.1906900703907013,-0.5407510995864868,-0.10042861104011536,0.25549134612083435,-0.9655426144599915,0.04464688152074814,-0.021408483386039734
1680006749956946085,19881,1680006749956785623,j2s6s300_link_base,0.19066733121871948,-0.5406133532524109,-0.10023638606071472,0.25550898909568787,-0.9655523300170898,0.04432293772697449,-0.021429970860481262
1680006750056943191,19882,1680006750056783823,j2s6s300_link_base,0.1906278431415558,-0.5403986573219299,-0.10000813007354736,0.25553277134895325,-0.9655678868293762,0.04383205994963646,-0.021458961069583893
1680006750156969381,19883,1680006750156783858,j2s6s300_link_base,0.19058401882648468,-0.5402108430862427,-0.09999477863311768,0.2555461823940277,-0.9655808806419373,0.04346052184700966,-0.021470755338668823
1680006750256975743,19884,1680006750256817694,j2s6s300_link_base,0.19056330621242523,-0.5401132106781006,-0.0999642014503479,0.2555542588233948,-0.9655876755714417,0.043256111443042755,-0.021479027345776558
1680006750356889953,19885,1680006750356750090,j2s6s300_link_base,0.19057810306549072,-0.540124773979187,-0.09973254799842834,0.255565881729126,-0.9655869603157043,0.04319649934768677,-0.021495990455150604
1680006750456888376,19886,1680006750456784649,j2s6s300_link_base,0.1905650943517685,-0.5400722622871399,-0.09974300861358643,0.25556981563568115,-0.9655900597572327,0.04310203343629837,-0.021497786045074463
1680006750556974129,19887,1680006750556802026,j2s6s300_link_base,0.19056189060211182,-0.5400590896606445,-0.09974461793899536,0.25557175278663635,-0.9655905961990356,0.043077997863292694,-0.02149827778339386
1680006750657002491,19888,1680006750656783170,j2s6s300_link_base,0.19054684042930603,-0.5399968028068542,-0.0997474193572998,0.25557634234428406,-0.9655944108963013,0.04296424612402916,-0.021500999107956886
1680006750756909091,19889,1680006750756771038,j2s6s300_link_base,0.1904822289943695,-0.5397377014160156,-0.09977391362190247,0.25558942556381226,-0.9656115770339966,0.04249251261353493,-0.021511657163500786
1680006750856953811,19890,1680006750856779488,j2s6s300_link_base,0.19041962921619415,-0.5394721627235413,-0.09980359673500061,0.2556057572364807,-0.9656293392181396,0.04198076203465462,-0.021525107324123383
1680006750957007299,19891,1680006750956789121,j2s6s300_link_base,0.19036135077476501,-0.5392431020736694,-0.09989723563194275,0.2556171417236328,-0.9656438231468201,0.041573137044906616,-0.021530600264668465
1680006751057000387,19892,1680006751056773626,j2s6s300_link_base,0.1903466284275055,-0.5391821265220642,-0.09991219639778137,0.2556229829788208,-0.9656471610069275,0.04145701229572296,-0.02153307944536209
1680006751157930116,19893,1680006751157778347,j2s6s300_link_base,0.1903340369462967,-0.5391268134117126,-0.09991124272346497,0.2556278705596924,-0.9656505584716797,0.04134711995720863,-0.02153647318482399
1680006751256920506,19894,1680006751256771763,j2s6s300_link_base,0.19032850861549377,-0.5390968918800354,-0.09988605976104736,0.25563114881515503,-0.9656525254249573,0.04127858579158783,-0.02154020592570305
1680006751358997830,19895,1680006751358804538,j2s6s300_link_base,0.19033534824848175,-0.5391053557395935,-0.09981995820999146,0.2556362450122833,-0.9656513929367065,0.041271843016147614,-0.021544791758060455
1680006751456906797,19896,1680006751456766732,j2s6s300_link_base,0.19036616384983063,-0.5392009019851685,-0.09965303540229797,0.25564640760421753,-0.9656431078910828,0.041399311274290085,-0.021551646292209625
1680006751556886966,19897,1680006751556780722,j2s6s300_link_base,0.1905653476715088,-0.5398072600364685,-0.09855163097381592,0.2556624114513397,-0.9656029343605042,0.04220341145992279,-0.02159978076815605
1680006751656971385,19898,1680006751656837013,j2s6s300_link_base,0.19124092161655426,-0.5418809056282043,-0.09486079216003418,0.2557079493999481,-0.9654600024223328,0.045022547245025635,-0.021756213158369064
1680006751756932103,19899,1680006751756753250,j2s6s300_link_base,0.19196796417236328,-0.5441687703132629,-0.09068045020103455,0.25573989748954773,-0.9652919173240662,0.048250045627355576,-0.02192435786128044
1680006751856956382,19900,1680006751856788521,j2s6s300_link_base,0.19170285761356354,-0.5432298183441162,-0.08875128626823425,0.25576698780059814,-0.9653103351593018,0.04772362485527992,-0.02195071242749691
1680006751956950858,19901,1680006751956814077,j2s6s300_link_base,0.19069045782089233,-0.5398367643356323,-0.08825093507766724,0.25579461455345154,-0.9654667377471924,0.044318754225969315,-0.02188335359096527
1680006752056983807,19902,1680006752056820464,j2s6s300_link_base,0.19011475145816803,-0.5378904938697815,-0.08710646629333496,0.25581973791122437,-0.9655390381813049,0.04257195442914963,-0.021866461262106895
1680006752156954804,19903,1680006752156824055,j2s6s300_link_base,0.1900034248828888,-0.5374384522438049,-0.08466330170631409,0.25587138533592224,-0.9655210971832275,0.04264109581708908,-0.021922774612903595
1680006752256938671,19904,1680006752256787472,j2s6s300_link_base,0.190190389752388,-0.5379416942596436,-0.08159708976745605,0.2561885416507721,-0.9653825759887695,0.04381176456809044,-0.02201186865568161
1680006752356906809,19905,1680006752356788618,j2s6s300_link_base,0.1906164288520813,-0.5391645431518555,-0.07796049118041992,0.25635653734207153,-0.9652503132820129,0.045629553496837616,-0.022162284702062607
1680006752456920439,19906,1680006752456786717,j2s6s300_link_base,0.19084322452545166,-0.5392193794250488,-0.07274824380874634,0.2565816044807434,-0.9652205109596252,0.04482346773147583,-0.022495394572615623
1680006752556885956,19907,1680006752556778479,j2s6s300_link_base,0.1901458501815796,-0.5350798964500427,-0.06650158762931824,0.25713637471199036,-0.9654439091682434,0.03553725406527519,-0.023149380460381508
1680006752656951256,19908,1680006752656785490,j2s6s300_link_base,0.1886620819568634,-0.5280205011367798,-0.060791611671447754,0.2577691674232483,-0.9656717777252197,0.02155449241399765,-0.02384510636329651
1680006752756952956,19909,1680006752756787130,j2s6s300_link_base,0.18788355588912964,-0.5240497589111328,-0.0556299090385437,0.2581803798675537,-0.9656946659088135,0.013579361140727997,-0.024338215589523315
1680006752856949448,19910,1680006752856786621,j2s6s300_link_base,0.18749092519283295,-0.5219036936759949,-0.05221477150917053,0.2584345042705536,-0.9656716585159302,0.00907910242676735,-0.02465030923485756
1680006752956949839,19911,1680006752956821117,j2s6s300_link_base,0.1872558444738388,-0.5206735730171204,-0.05025702714920044,-0.25857046246528625,0.9656509160995483,-0.006594618782401085,0.024820849299430847
1680006753056995236,19912,1680006753056821955,j2s6s300_link_base,0.18714939057826996,-0.5200908780097961,-0.049080878496170044,-0.2586418688297272,0.9656366109848022,-0.0054485672153532505,0.024911915883421898
1680006753156983058,19913,1680006753156812434,j2s6s300_link_base,0.18706920742988586,-0.5196953415870667,-0.04860059916973114,-0.25868120789527893,0.9656290411949158,-0.0046415915712714195,0.02495952509343624
1680006753256992844,19914,1680006753256819328,j2s6s300_link_base,0.18703970313072205,-0.5195277333259583,-0.04829360544681549,-0.2587023973464966,0.9656243920326233,-0.004286785610020161,0.024986114352941513
1680006753356956613,19915,1680006753356824760,j2s6s300_link_base,0.1869964301586151,-0.5193436145782471,-0.048209890723228455,-0.2587132155895233,0.96562260389328,-0.003948715515434742,0.0249980166554451
1680006753456989850,19916,1680006753456824864,j2s6s300_link_base,0.18697014451026917,-0.5192463397979736,-0.04822152853012085,-0.2587149739265442,0.9656226634979248,-0.003818460274487734,0.02499767206609249
1680006753556944714,19917,1680006753556814301,j2s6s300_link_base,0.18698832392692566,-0.5193007588386536,-0.04802456498146057,-0.25871899724006653,0.9656209349632263,-0.0039332108572125435,0.025004446506500244
1680006753656954811,19918,1680006753656824236,j2s6s300_link_base,0.18724513053894043,-0.52009516954422,-0.04655212163925171,-0.2587549090385437,0.9656036496162415,-0.005218798760324717,0.025061989203095436
1680006753756965600,19919,1680006753756820258,j2s6s300_link_base,0.1877889633178711,-0.5218343734741211,-0.04325336217880249,0.25881728529930115,-0.9655638933181763,0.008101938292384148,-0.02518669329583645
1680006753856983030,19920,1680006753856818772,j2s6s300_link_base,0.18835341930389404,-0.5236441493034363,-0.0397394597530365,0.2588824927806854,-0.9655128717422485,0.01112239621579647,-0.025320231914520264
1680006753956995470,19921,1680006753956823293,j2s6s300_link_base,0.18874798715114594,-0.5248956084251404,-0.037347033619880676,0.25893011689186096,-0.9654713273048401,0.013211386278271675,-0.02541147917509079
1680006754057000406,19922,1680006754056791770,j2s6s300_link_base,0.18905003368854523,-0.5258559584617615,-0.03553056716918945,0.2589656412601471,-0.9654366374015808,0.01482103206217289,-0.02548031322658062
1680006754156920852,19923,1680006754156788610,j2s6s300_link_base,0.1894458532333374,-0.5271207690238953,-0.03313151001930237,0.25900912284851074,-0.9653874039649963,0.01695566438138485,-0.025569939985871315
1680006754256925929,19924,1680006754256788493,j2s6s300_link_base,0.18989741802215576,-0.5285698771476746,-0.030348822474479675,0.2590535879135132,-0.9653263092041016,0.019422978162765503,-0.02567419409751892
1680006754356883288,19925,1680006754356783062,j2s6s300_link_base,0.19018617272377014,-0.5294929146766663,-0.028546959161758423,0.25908344984054565,-0.965283215045929,0.02101306989789009,-0.025741174817085266
1680006754456907511,19926,1680006754456788717,j2s6s300_link_base,0.1902836412191391,-0.5297958850860596,-0.02790015935897827,0.2590954601764679,-0.9652673006057739,0.021561112254858017,-0.025764362886548042
1680006754556940339,19927,1680006754556823217,j2s6s300_link_base,0.19031153619289398,-0.5298542976379395,-0.027763187885284424,0.25910523533821106,-0.9652618765830994,0.02167489565908909,-0.02576933428645134
1680006754656973037,19928,1680006754656822818,j2s6s300_link_base,0.19035421311855316,-0.5299526453018188,-0.02755938470363617,0.2591182589530945,-0.9652542471885681,0.021853342652320862,-0.02577703632414341
1680006754756939903,19929,1680006754756824156,j2s6s300_link_base,0.19040068984031677,-0.5299502611160278,-0.027527183294296265,0.25915729999542236,-0.9652431607246399,0.021877694875001907,-0.02577899396419525
1680006754856928101,19930,1680006754856821458,j2s6s300_link_base,0.19043004512786865,-0.5299299955368042,-0.02753007411956787,0.25918638706207275,-0.9652355313301086,0.021868374198675156,-0.025779277086257935
1680006754956942119,19931,1680006754956825775,j2s6s300_link_base,0.19045276939868927,-0.5299119353294373,-0.027533844113349915,0.25920942425727844,-0.9652295708656311,0.021858450025320053,-0.02577943168580532
1680006755056960222,19932,1680006755056826372,j2s6s300_link_base,0.19044797122478485,-0.5298787355422974,-0.027547210454940796,0.25921350717544556,-0.9652292728424072,0.02182595804333687,-0.025778163224458694
1680006755156939782,19933,1680006755156828279,j2s6s300_link_base,0.19043965637683868,-0.5298406481742859,-0.027563020586967468,0.25921574234962463,-0.9652295112609863,0.021787667647004128,-0.025776630267500877
1680006755256927893,19934,1680006755256817993,j2s6s300_link_base,0.1904335618019104,-0.5298177003860474,-0.027571842074394226,0.2592162787914276,-0.9652299880981445,0.021764636039733887,-0.025775684043765068
1680006755356953715,19935,1680006755356821616,j2s6s300_link_base,0.1904335916042328,-0.5298105478286743,-0.027574583888053894,0.2592180669307709,-0.9652296900749207,0.021757975220680237,-0.025775445625185966
1680006755456958073,19936,1680006755456826903,j2s6s300_link_base,0.19043269753456116,-0.5298030972480774,-0.02757665514945984,0.25921913981437683,-0.9652295708656311,0.02175043895840645,-0.02577524073421955
1680006755556954934,19937,1680006755556824723,j2s6s300_link_base,0.19043265283107758,-0.5297958254814148,-0.027579471468925476,0.25922077894210815,-0.9652292132377625,0.021743647754192352,-0.025774981826543808
