%time,field.header.seq,field.header.stamp,field.header.frame_id,field.pose.position.x,field.pose.position.y,field.pose.position.z,field.pose.orientation.x,field.pose.orientation.y,field.pose.orientation.z,field.pose.orientation.w
1680006907759501904,21459,1680006907759118629,j2s6s300_link_base,-0.3866598308086395,-0.4324459731578827,-0.01380087435245514,0.5103961825370789,0.8590635061264038,0.004665571264922619,0.03851933777332306
1680006907857140146,21460,1680006907856982075,j2s6s300_link_base,-0.3866598308086395,-0.4324459731578827,-0.01380087435245514,0.5103961825370789,0.8590635061264038,0.004665571264922619,0.03851933777332306
1680006907957075895,21461,1680006907956929336,j2s6s300_link_base,-0.3866598308086395,-0.4324459731578827,-0.01380087435245514,0.5103961825370789,0.8590635061264038,0.004665571264922619,0.03851933777332306
1680006908057126343,21462,1680006908056967345,j2s6s300_link_base,-0.3866598308086395,-0.4324459731578827,-0.01380087435245514,0.5103961825370789,0.8590635061264038,0.004665571264922619,0.03851933777332306
1680006908157070080,21463,1680006908156963727,j2s6s300_link_base,-0.3866598308086395,-0.4324459731578827,-0.01380087435245514,0.5103961825370789,0.8590635061264038,0.004665571264922619,0.03851933777332306
1680006908257135053,21464,1680006908256977106,j2s6s300_link_base,-0.3866598308086395,-0.4324459731578827,-0.01380087435245514,0.5103961825370789,0.8590635061264038,0.004665571264922619,0.03851933777332306
1680006908357070721,21465,1680006908356934208,j2s6s300_link_base,-0.3866598308086395,-0.4324459731578827,-0.01380087435245514,0.5103961825370789,0.8590635061264038,0.004665571264922619,0.03851933777332306
1680006908457080062,21466,1680006908456942744,j2s6s300_link_base,-0.3866598308086395,-0.4324459731578827,-0.01380087435245514,0.5103961825370789,0.8590635061264038,0.004665571264922619,0.03851933777332306
1680006908557082219,21467,1680006908556936043,j2s6s300_link_base,-0.3866598308086395,-0.4324459731578827,-0.01380087435245514,0.5103961825370789,0.8590635061264038,0.004665571264922619,0.03851933777332306
1680006908657081099,21468,1680006908656942923,j2s6s300_link_base,-0.3866598308086395,-0.4324459731578827,-0.01380087435245514,0.5103961825370789,0.8590635061264038,0.004665571264922619,0.03851933777332306
1680006908757051168,21469,1680006908756941979,j2s6s300_link_base,-0.3866598308086395,-0.4324459731578827,-0.01380087435245514,0.5103961825370789,0.8590635061264038,0.004665571264922619,0.03851933777332306
1680006908857090883,21470,1680006908856948855,j2s6s300_link_base,-0.3866598308086395,-0.4324459731578827,-0.01380087435245514,0.5103961825370789,0.8590635061264038,0.004665571264922619,0.03851933777332306
1680006908957046822,21471,1680006908956942682,j2s6s300_link_base,-0.3866598308086395,-0.4324459731578827,-0.01380087435245514,0.5103972554206848,0.8590628504753113,0.004665618762373924,0.03851933032274246
1680006909057081726,21472,1680006909056943463,j2s6s300_link_base,-0.3866598308086395,-0.4324459731578827,-0.01380087435245514,0.5103972554206848,0.8590628504753113,0.004665618762373924,0.03851933032274246
1680006909157056097,21473,1680006909156945389,j2s6s300_link_base,-0.3866598308086395,-0.4324459731578827,-0.01380087435245514,0.5103972554206848,0.8590628504753113,0.004665618762373924,0.03851933032274246
1680006909257136144,21474,1680006909256976087,j2s6s300_link_base,-0.3866598308086395,-0.4324459731578827,-0.01380087435245514,0.5103972554206848,0.8590628504753113,0.004665618762373924,0.03851933032274246
1680006909357139680,21475,1680006909356976254,j2s6s300_link_base,-0.3866598308086395,-0.4324459731578827,-0.01380087435245514,0.5103972554206848,0.8590628504753113,0.004665618762373924,0.03851933032274246
1680006909457138289,21476,1680006909456975901,j2s6s300_link_base,-0.3866598308086395,-0.4324459731578827,-0.01380087435245514,0.5103972554206848,0.8590628504753113,0.004665618762373924,0.03851933032274246
1680006909557079244,21477,1680006909556937740,j2s6s300_link_base,-0.3866598308086395,-0.4324459731578827,-0.01380087435245514,0.5103972554206848,0.8590628504753113,0.004665618762373924,0.03851933032274246
1680006909657145259,21478,1680006909656975680,j2s6s300_link_base,-0.3866598308086395,-0.4324459731578827,-0.01380087435245514,0.5103972554206848,0.8590628504753113,0.004665618762373924,0.03851933032274246
1680006909757109061,21479,1680006909756972371,j2s6s300_link_base,-0.3866638243198395,-0.43244728446006775,-0.013799890875816345,0.5103976726531982,0.8590627908706665,0.00466102734208107,0.03851718083024025
1680006909857104457,21480,1680006909856976850,j2s6s300_link_base,-0.3866627514362335,-0.4324449896812439,-0.013803631067276001,0.5103984475135803,0.8590623140335083,0.004663814790546894,0.038517843931913376
1680006909957082963,21481,1680006909956974848,j2s6s300_link_base,-0.3866538107395172,-0.4324343204498291,-0.01383163034915924,0.5103999376296997,0.8590610027313232,0.00468660332262516,0.03852339833974838
1680006910057136136,21482,1680006910056978878,j2s6s300_link_base,-0.38660088181495667,-0.43238192796707153,-0.013987094163894653,0.5104026794433594,0.8590573668479919,0.004810169339179993,0.038553543388843536
1680006910157128801,21483,1680006910156976987,j2s6s300_link_base,-0.3865399956703186,-0.4323195815086365,-0.014201343059539795,0.5104079246520996,0.8590519428253174,0.004952867515385151,0.03858628869056702
1680006910257138052,21484,1680006910256977358,j2s6s300_link_base,-0.38661861419677734,-0.4323778450489044,-0.01443876326084137,0.5104289054870605,0.8590439558029175,0.004761700518429279,0.03851088136434555
1680006910357109162,21485,1680006910356971697,j2s6s300_link_base,-0.3861953616142273,-0.43193554878234863,-0.01599840819835663,0.5104733109474182,0.8590013384819031,0.005759440362453461,0.038737278431653976
1680006910457139144,21486,1680006910456976486,j2s6s300_link_base,-0.38433539867401123,-0.43004629015922546,-0.021311625838279724,0.5105801224708557,0.8588483333587646,0.010121154598891735,0.039811111986637115
1680006910557111950,21487,1680006910556982582,j2s6s300_link_base,-0.3814616799354553,-0.427113801240921,-0.029658600687980652,0.5107383131980896,0.8585752844810486,0.016722919419407845,0.04141518846154213
1680006910657112770,21488,1680006910656971208,j2s6s300_link_base,-0.38020941615104675,-0.4256766140460968,-0.03616945445537567,0.5109432935714722,0.8583701252937317,0.019531097263097763,0.04190443083643913
1680006910757079168,21489,1680006910756985939,j2s6s300_link_base,-0.38298287987709045,-0.4278563857078552,-0.04033893346786499,0.511276364326477,0.8584094047546387,0.013153070583939552,0.039455439895391464
1680006910857141802,21490,1680006910856978578,j2s6s300_link_base,-0.38617852330207825,-0.4305935502052307,-0.04308277368545532,0.5116875767707825,0.8583623170852661,0.00556532759219408,0.036863915622234344
1680006910957087474,21491,1680006910956942947,j2s6s300_link_base,-0.3879411816596985,-0.4320853650569916,-0.04477454721927643,0.5119143128395081,0.8583043813705444,0.0013978825882077217,0.035430166870355606
1680006911057132595,21492,1680006911056970514,j2s6s300_link_base,-0.3890324831008911,-0.43299219012260437,-0.046231552958488464,0.5120667219161987,0.8582506775856018,-0.0011678095906972885,0.03452415391802788
1680006911157107287,21493,1680006911156978837,j2s6s300_link_base,-0.38822564482688904,-0.432073712348938,-0.050271034240722656,0.5122154951095581,0.8581528067588806,0.00038840342313051224,0.034770578145980835
1680006911257106595,21494,1680006911256976907,j2s6s300_link_base,-0.38686880469322205,-0.4305329918861389,-0.05730310082435608,0.5124598145484924,0.8579848408699036,0.003016962669789791,0.035181768238544464
1680006911357034477,21495,1680006911356944355,j2s6s300_link_base,-0.3894346356391907,-0.43250805139541626,-0.06369294226169586,0.5129761695861816,0.8577784299850464,-0.004053437151014805,0.032483335584402084
1680006911457072446,21496,1680006911456946368,j2s6s300_link_base,-0.3924936354160309,-0.4355144500732422,-0.06771045923233032,0.5131187438964844,0.8577193021774292,-0.012721884995698929,0.029408711940050125
1680006911557074408,21497,1680006911556947664,j2s6s300_link_base,-0.3941444456577301,-0.43708622455596924,-0.07028885185718536,0.5132086277008057,0.8576391339302063,-0.017465144395828247,0.027696112170815468
1680006911657071644,21498,1680006911656944233,j2s6s300_link_base,-0.3955020010471344,-0.4383564293384552,-0.07146298885345459,0.5132634043693542,0.8575640916824341,-0.021121490746736526,0.026428569108247757
1680006911757072339,21499,1680006911756946282,j2s6s300_link_base,-0.3959152400493622,-0.439169317483902,-0.07227005064487457,0.5130645632743835,0.8576562404632568,-0.02291608229279518,0.02579433284699917
1680006911857073977,21500,1680006911856946343,j2s6s300_link_base,-0.39589670300483704,-0.4396710991859436,-0.0727418065071106,0.512802243232727,0.8578005433082581,-0.02368069440126419,0.025519009679555893
1680006911957076528,21501,1680006911956952394,j2s6s300_link_base,-0.3955865204334259,-0.4402417540550232,-0.0729420930147171,0.5123516917228699,0.8580620884895325,-0.02411193586885929,0.02537384070456028
1680006912057071916,21502,1680006912056945613,j2s6s300_link_base,-0.39427247643470764,-0.4416907727718353,-0.0730242133140564,0.510929524898529,0.8589029312133789,-0.02443227916955948,0.02529168501496315
1680006912157133932,21503,1680006912156986232,j2s6s300_link_base,-0.39278194308280945,-0.4431038498878479,-0.07313837110996246,0.5094375610351562,0.859786331653595,-0.024530915543437004,0.025280192494392395
1680006912257066165,21504,1680006912256943289,j2s6s300_link_base,-0.39134517312049866,-0.4445212781429291,-0.0731414407491684,0.5079647302627563,0.860653817653656,-0.024664148688316345,0.025264978408813477
1680006912357119515,21505,1680006912356986350,j2s6s300_link_base,-0.38859835267066956,-0.4472399055957794,-0.0730908215045929,0.5051077604293823,0.8623279929161072,-0.024899926036596298,0.025227632373571396
1680006912457069780,21506,1680006912456948119,j2s6s300_link_base,-0.38529670238494873,-0.45020702481269836,-0.07315260171890259,0.5016987323760986,0.8643165826797485,-0.02496263198554516,0.025142017751932144
1680006912557065217,21507,1680006912556958716,j2s6s300_link_base,-0.3825939893722534,-0.45222610235214233,-0.07361632585525513,0.4991897940635681,0.8657763004302979,-0.024589456617832184,0.025224730372428894
1680006912657116376,21508,1680006912656973888,j2s6s300_link_base,-0.37963077425956726,-0.45462357997894287,-0.07415178418159485,0.49639514088630676,0.8673834800720215,-0.024488801136612892,0.0252608023583889
1680006912757106358,21509,1680006912756933690,j2s6s300_link_base,-0.37657082080841064,-0.45798176527023315,-0.07447740435600281,0.493056058883667,0.8692634105682373,-0.025548966601490974,0.024980558082461357
1680006912857099908,21510,1680006912856936856,j2s6s300_link_base,-0.37608814239501953,-0.4643237590789795,-0.07406289875507355,0.4895709455013275,0.8710341453552246,-0.033110298216342926,0.022881239652633667
1680006912957124263,21511,1680006912956933587,j2s6s300_link_base,-0.37867826223373413,-0.4744774401187897,-0.07276357710361481,0.4857885539531708,0.8725343942642212,-0.048390910029411316,0.018746696412563324
1680006913057106608,21512,1680006913056940624,j2s6s300_link_base,-0.37536296248435974,-0.4884493350982666,-0.07121571898460388,0.47700417041778564,0.8765483498573303,-0.062389954924583435,0.015409369021654129
1680006913157083790,21513,1680006913156933458,j2s6s300_link_base,-0.372845321893692,-0.5036149621009827,-0.06939104199409485,0.4681631028652191,0.8799558877944946,-0.07981321215629578,0.011435380205512047
1680006913257112703,21514,1680006913256946469,j2s6s300_link_base,-0.37387627363204956,-0.5181057453155518,-0.0667688250541687,0.4615227282047272,0.881345272064209,-0.10091391205787659,0.006603360176086426
1680006913357084585,21515,1680006913356978751,j2s6s300_link_base,-0.37333834171295166,-0.529202938079834,-0.06463032960891724,0.4557856619358063,0.8824791312217712,-0.1160963624715805,0.0034156180918216705
1680006913457093782,21516,1680006913456987891,j2s6s300_link_base,-0.3668164312839508,-0.5396915674209595,-0.06352239847183228,0.4474619925022125,0.8855635523796082,-0.12469694018363953,0.002383839339017868
1680006913557094482,21517,1680006913556952973,j2s6s300_link_base,-0.35731828212738037,-0.5488972067832947,-0.06367088854312897,0.43811482191085815,0.8896086812019348,-0.12901821732521057,0.0024685710668563843
1680006913657112383,21518,1680006913656948165,j2s6s300_link_base,-0.34892818331718445,-0.5552761554718018,-0.06573119759559631,0.43087902665138245,0.8929327130317688,-0.13040319085121155,0.003088954836130142
1680006913757123041,21519,1680006913756954909,j2s6s300_link_base,-0.3437233865261078,-0.560714602470398,-0.06651400029659271,0.42574208974838257,0.8950885534286499,-0.1324710100889206,0.003411412239074707
1680006913857018060,21520,1680006913856948294,j2s6s300_link_base,-0.34047383069992065,-0.5662158727645874,-0.06598733365535736,0.42162010073661804,0.8965593576431274,-0.13566821813583374,0.003474198281764984
1680006913957084202,21521,1680006913956986829,j2s6s300_link_base,-0.331691175699234,-0.5737900137901306,-0.06562505662441254,0.4136202931404114,0.8999596834182739,-0.13773973286151886,0.0043115392327308655
1680006914057103913,21522,1680006914056978382,j2s6s300_link_base,-0.322898805141449,-0.5801259279251099,-0.06550383567810059,0.40613171458244324,0.9031891226768494,-0.1388491988182068,0.0052443332970142365
1680006914157110591,21523,1680006914156948049,j2s6s300_link_base,-0.31668952107429504,-0.5844669938087463,-0.06509405374526978,0.40090224146842957,0.905396044254303,-0.13964349031448364,0.005925700068473816
1680006914257144483,21524,1680006914256981606,j2s6s300_link_base,-0.3063724637031555,-0.5905200242996216,-0.06480762362480164,0.3926694989204407,0.9089124798774719,-0.14013707637786865,0.007102679461240768
1680006914357065370,21525,1680006914356950148,j2s6s300_link_base,-0.29436230659484863,-0.5969720482826233,-0.06475768983364105,0.38318753242492676,0.9128943681716919,-0.14042900502681732,0.00842137262225151
1680006914457120521,21526,1680006914456980765,j2s6s300_link_base,-0.28567367792129517,-0.6012828350067139,-0.0647982656955719,0.3764113187789917,0.9156956076622009,-0.1404571831226349,0.009369269013404846
1680006914557122571,21527,1680006914556989670,j2s6s300_link_base,-0.2797752320766449,-0.6042013168334961,-0.06476543843746185,0.3718583285808563,0.9175347089767456,-0.14053654670715332,0.010046351701021194
1680006914657146983,21528,1680006914656981507,j2s6s300_link_base,-0.2727658450603485,-0.6075044274330139,-0.06471754610538483,0.3665023744106293,0.9196717143058777,-0.14057782292366028,0.010854464024305344
1680006914757129073,21529,1680006914756983976,j2s6s300_link_base,-0.26194748282432556,-0.6126542091369629,-0.06457662582397461,0.3581710457801819,0.9228758215904236,-0.14095479249954224,0.01206313818693161
1680006914857138862,21530,1680006914856976571,j2s6s300_link_base,-0.25344642996788025,-0.6178197860717773,-0.06378664076328278,0.35121774673461914,0.9253103733062744,-0.14239931106567383,0.013011142611503601
1680006914957108680,21531,1680006914956979764,j2s6s300_link_base,-0.24629171192646027,-0.6221671104431152,-0.06298892199993134,0.34536823630332947,0.9272949695587158,-0.14371423423290253,0.013823356479406357
1680006915057151657,21532,1680006915056987153,j2s6s300_link_base,-0.2327015995979309,-0.6283303499221802,-0.062474459409713745,0.3349449038505554,0.9309676289558411,-0.14448030292987823,0.015381492674350739
1680006915157112685,21533,1680006915156982869,j2s6s300_link_base,-0.21915993094444275,-0.6336638927459717,-0.06224186718463898,0.32478129863739014,0.9344896674156189,-0.14477382600307465,0.01693435199558735
1680006915257108567,21534,1680006915256981080,j2s6s300_link_base,-0.209544375538826,-0.6371668577194214,-0.062096014618873596,0.31762704253196716,0.9369062781333923,-0.1448940485715866,0.018036464229226112
1680006915357116623,21535,1680006915356985035,j2s6s300_link_base,-0.19828245043754578,-0.6408082842826843,-0.06207001209259033,0.30934345722198486,0.9396668672561646,-0.1447755992412567,0.019313069060444832
1680006915457069303,21536,1680006915456944103,j2s6s300_link_base,-0.1820625364780426,-0.6455779075622559,-0.062123239040374756,0.2974773943424225,0.9434962868690491,-0.14448285102844238,0.02113461308181286
1680006915557086793,21537,1680006915556968339,j2s6s300_link_base,-0.16850851476192474,-0.6492047309875488,-0.06220877170562744,0.28759998083114624,0.9465633034706116,-0.14419220387935638,0.022644778713583946
1680006915657139075,21538,1680006915656969816,j2s6s300_link_base,-0.15780112147331238,-0.651871383190155,-0.06224521994590759,0.2798082232475281,0.9488998651504517,-0.14397412538528442,0.023830868303775787
1680006915757073477,21539,1680006915756946356,j2s6s300_link_base,-0.14341822266578674,-0.6551625728607178,-0.062290847301483154,0.2693268060684204,0.9519332647323608,-0.1436704844236374,0.025395400822162628
1680006915857038168,21540,1680006915856946967,j2s6s300_link_base,-0.1302712857723236,-0.6578546762466431,-0.06238391995429993,0.2597384750843048,0.9546051025390625,-0.1433418244123459,0.026797249913215637
1680006915957042251,21541,1680006915956949925,j2s6s300_link_base,-0.1203836053609848,-0.6596992611885071,-0.06245410442352295,0.25257614254951477,0.9565330147743225,-0.1430846005678177,0.02786889299750328
1680006916057112296,21542,1680006916056953749,j2s6s300_link_base,-0.11176798492670059,-0.6612088680267334,-0.06246304512023926,0.24633298814296722,0.9581606984138489,-0.14289329946041107,0.02880113385617733
1680006916157049304,21543,1680006916156943978,j2s6s300_link_base,-0.10007500648498535,-0.6630604267120361,-0.06249985098838806,0.23786164820194244,0.960303008556366,-0.14260640740394592,0.03005630522966385
1680006916257109350,21544,1680006916256977766,j2s6s300_link_base,-0.09028799831867218,-0.6644250750541687,-0.06255674362182617,0.23077932000160217,0.962037205696106,-0.14233063161373138,0.03110066056251526
1680006916357093916,21545,1680006916356985589,j2s6s300_link_base,-0.0824330747127533,-0.6643776893615723,-0.06319011747837067,0.22526875138282776,0.9635050296783447,-0.14106109738349915,0.03184087574481964
1680006916457126738,21546,1680006916456981722,j2s6s300_link_base,-0.07282283902168274,-0.662269115447998,-0.06508521735668182,0.21878567337989807,0.9654807448387146,-0.13755442202091217,0.032533783465623856
1680006916557041080,21547,1680006916556945806,j2s6s300_link_base,-0.062255412340164185,-0.6597757935523987,-0.06717784702777863,0.21158550679683685,0.967603862285614,-0.13367311656475067,0.033253930509090424
1680006916657033928,21548,1680006916656952990,j2s6s300_link_base,-0.049362488090991974,-0.6567656993865967,-0.06952334940433502,0.20260870456695557,0.9700998663902283,-0.12920773029327393,0.03407755121588707
1680006916757068624,21549,1680006916756984993,j2s6s300_link_base,-0.039494115859270096,-0.6543737649917603,-0.07124753296375275,0.19566285610198975,0.9719412326812744,-0.12587076425552368,0.03468407690525055
1680006916857096659,21550,1680006916856975387,j2s6s300_link_base,-0.027710847556591034,-0.6529948115348816,-0.0723496526479721,0.1870681792497635,0.9738959074020386,-0.12356570363044739,0.03554847091436386
1680006916957063780,21551,1680006916956970760,j2s6s300_link_base,-0.015282932668924332,-0.6516185402870178,-0.07335323095321655,0.17637017369270325,0.9761403203010559,-0.12153931707143784,0.035660210996866226
1680006917057056440,21552,1680006917056947389,j2s6s300_link_base,-0.006245760712772608,-0.6488719582557678,-0.07496313750743866,0.16676783561706543,0.9782272577285767,-0.11860725283622742,0.03452751040458679
1680006917157128322,21553,1680006917156983046,j2s6s300_link_base,0.002727261744439602,-0.6435860991477966,-0.0777825266122818,0.15765562653541565,0.9804109930992126,-0.11328483372926712,0.033251579850912094
1680006917257066637,21554,1680006917256978510,j2s6s300_link_base,0.01117192767560482,-0.6369434595108032,-0.08116434514522552,0.14889726042747498,0.9825568199157715,-0.10678718984127045,0.031751781702041626
1680006917357051245,21555,1680006917356985277,j2s6s300_link_base,0.020093530416488647,-0.6304358243942261,-0.08429490029811859,0.14001087844371796,0.9845572710037231,-0.10055794566869736,0.030530676245689392
1680006917457115263,21556,1680006917456978405,j2s6s300_link_base,0.030561191961169243,-0.6257818937301636,-0.08634300529956818,0.12938222289085388,0.986453115940094,-0.0963282361626625,0.029856648296117783
1680006917557073140,21557,1680006917556973070,j2s6s300_link_base,0.04060277342796326,-0.6225113272666931,-0.08762793242931366,0.11615673452615738,0.9883790612220764,-0.09375111013650894,0.028727393597364426
1680006917657125742,21558,1680006917656984267,j2s6s300_link_base,0.04765135422348976,-0.6204381585121155,-0.08836762607097626,0.10666633397340775,0.9896096587181091,-0.09226911514997482,0.027954500168561935
1680006917757110481,21559,1680006917756984271,j2s6s300_link_base,0.0546976663172245,-0.6190271377563477,-0.088754802942276,0.09880491346120834,0.9905104041099548,-0.0914338231086731,0.02768743969500065
1680006917857101206,21560,1680006917856977175,j2s6s300_link_base,0.06287625432014465,-0.6176844835281372,-0.08901743590831757,0.09123874455690384,0.9912904500961304,-0.09074980765581131,0.02798762172460556
1680006917957085087,21561,1680006917956948093,j2s6s300_link_base,0.07573004066944122,-0.6159014701843262,-0.08917488157749176,0.07964993268251419,0.9923251867294312,-0.09021773934364319,0.028413455933332443
1680006918057127309,21562,1680006918056951802,j2s6s300_link_base,0.08693268150091171,-0.6141793131828308,-0.08928586542606354,0.06878066062927246,0.9931679964065552,-0.08987414091825485,0.028444804251194
1680006918157124148,21563,1680006918156952145,j2s6s300_link_base,0.09335684776306152,-0.6126373410224915,-0.08955855667591095,0.06214083731174469,0.9936667084693909,-0.089278943836689,0.02818233147263527
1680006918257055830,21564,1680006918256913757,j2s6s300_link_base,0.0974753275513649,-0.6095393300056458,-0.09067586064338684,0.05793005973100662,0.9941433072090149,-0.08690270781517029,0.027769241482019424
1680006918357075920,21565,1680006918356948789,j2s6s300_link_base,0.10094743221998215,-0.6051637530326843,-0.09237536787986755,0.05400756746530533,0.9946948289871216,-0.08327564597129822,0.027031276375055313
1680006918457079362,21566,1680006918456984817,j2s6s300_link_base,0.10644931346178055,-0.6003967523574829,-0.09404659271240234,0.048664964735507965,0.9952855110168457,-0.07958170771598816,0.02655392698943615
1680006918557078950,21567,1680006918556986838,j2s6s300_link_base,0.11442375183105469,-0.5962305665016174,-0.09520351886749268,0.04150085896253586,0.995822548866272,-0.07689014822244644,0.026517238467931747
1680006918657125025,21568,1680006918656994049,j2s6s300_link_base,0.12404817342758179,-0.5925344824790955,-0.0959526002407074,0.03145013377070427,0.9963268041610718,-0.07510101795196533,0.026526203379034996
1680006918757108037,21569,1680006918756977611,j2s6s300_link_base,0.13408979773521423,-0.5888437628746033,-0.09657904505729675,0.019675835967063904,0.9967408776283264,-0.07358206808567047,0.02657274715602398
1680006918857057764,21570,1680006918856919685,j2s6s300_link_base,0.1430443376302719,-0.5840185284614563,-0.09769803285598755,0.002207319252192974,0.9971448183059692,-0.0714661255478859,0.024289380759000778
1680006918957038465,21571,1680006918956948644,j2s6s300_link_base,0.14741063117980957,-0.5806975960731506,-0.09860771894454956,0.018360013142228127,-0.9971608519554138,0.07057651877403259,-0.018761780112981796
1680006919057111672,21572,1680006919056950881,j2s6s300_link_base,0.14811168611049652,-0.5779163837432861,-0.09971821308135986,0.042894646525382996,-0.9965810179710388,0.06984714418649673,-0.010378198698163033
1680006919157133689,21573,1680006919156969548,j2s6s300_link_base,0.1481110155582428,-0.5736157894134521,-0.10139036178588867,0.060817208141088486,-0.9958899021148682,0.06699522584676743,-0.004017603117972612
1680006919257102778,21574,1680006919256941780,j2s6s300_link_base,0.15027092397212982,-0.5689516663551331,-0.10294395685195923,0.07519283145666122,-0.9951202273368835,0.06388896703720093,0.00010050181299448013
1680006919357161180,21575,1680006919356945450,j2s6s300_link_base,0.15366001427173615,-0.5631416440010071,-0.10476312041282654,0.08983009308576584,-0.9941602349281311,0.059737082570791245,0.0027262158691883087
1680006919458177578,21576,1680006919457946843,j2s6s300_link_base,0.1556771844625473,-0.5578439831733704,-0.10646829009056091,0.10594813525676727,-0.9927915334701538,0.05574732646346092,0.005672164261341095
1680006919557203172,21577,1680006919556949358,j2s6s300_link_base,0.1556970477104187,-0.5549213886260986,-0.10747504234313965,0.12733331322669983,-0.9903636574745178,0.053536273539066315,0.009997580200433731
1680006919657128297,21578,1680006919656931658,j2s6s300_link_base,0.1548926681280136,-0.5532186031341553,-0.10811617970466614,0.15554320812225342,-0.9863475561141968,0.0520155243575573,0.01480497233569622
1680006919757116328,21579,1680006919756957072,j2s6s300_link_base,0.15458858013153076,-0.5523025989532471,-0.10843837261199951,0.18331879377365112,-0.9815523624420166,0.05102188140153885,0.018599286675453186
1680006919857011467,21580,1680006919856916586,j2s6s300_link_base,0.15544889867305756,-0.551213264465332,-0.10871735215187073,0.2059207707643509,-0.9770685434341431,0.050003424286842346,0.02081880159676075
1680006919957055939,21581,1680006919956952528,j2s6s300_link_base,0.15790721774101257,-0.5499371290206909,-0.10890805721282959,0.22457613050937653,-0.9729592800140381,0.04925035312771797,0.022139757871627808
1680006920057144800,21582,1680006920056989044,j2s6s300_link_base,0.15965458750724792,-0.5475757122039795,-0.10953512787818909,0.23877595365047455,-0.9696452021598816,0.047367971390485764,0.023031964898109436
1680006920157132682,21583,1680006920156987643,j2s6s300_link_base,0.16052448749542236,-0.5435975790023804,-0.11077365279197693,0.2485436052083969,-0.9673370122909546,0.043870069086551666,0.023674195632338524
1680006920257151753,21584,1680006920256986004,j2s6s300_link_base,0.16101060807704926,-0.5393362641334534,-0.11211511492729187,0.25821277499198914,-0.964954674243927,0.040005769580602646,0.02425144612789154
1680006920357058117,21585,1680006920356955761,j2s6s300_link_base,0.1611919403076172,-0.5363233089447021,-0.11305883526802063,0.26735562086105347,-0.9625636339187622,0.037167251110076904,0.02471570111811161
1680006920457110573,21586,1680006920456987457,j2s6s300_link_base,0.1641053855419159,-0.5335721373558044,-0.1136440634727478,0.28147998452186584,-0.9585903882980347,0.03528856858611107,0.025061486288905144
1680006920557091489,21587,1680006920556987016,j2s6s300_link_base,0.17004674673080444,-0.5296968817710876,-0.11426052451133728,0.29806527495384216,-0.9536269307136536,0.033369552344083786,0.02528306469321251
1680006920657087914,21588,1680006920656988059,j2s6s300_link_base,0.17393387854099274,-0.5266488790512085,-0.11478719115257263,0.31236037611961365,-0.9490936994552612,0.03162243217229843,0.025537431240081787
1680006920757088204,21589,1680006920756995223,j2s6s300_link_base,0.1766977310180664,-0.5244075059890747,-0.11518290638923645,0.3233322203159332,-0.9454497694969177,0.030311230570077896,0.025732029229402542
1680006920857120540,21590,1680006920856987595,j2s6s300_link_base,0.1782771497964859,-0.5224323868751526,-0.11560565233230591,0.3311759829521179,-0.9427708387374878,0.028923895210027695,0.025867197662591934
1680006920957155950,21591,1680006920956990199,j2s6s300_link_base,0.17893008887767792,-0.5206360220909119,-0.11606058478355408,0.33540865778923035,-0.9413148760795593,0.027478281408548355,0.025927066802978516
1680006921057147762,21592,1680006921056988810,j2s6s300_link_base,0.17908239364624023,-0.5196231603622437,-0.11629906296730042,0.3374152183532715,-0.9406216144561768,0.02661120519042015,0.02595779486000538
1680006921157123158,21593,1680006921156993481,j2s6s300_link_base,0.17920063436031342,-0.5192244052886963,-0.11620348691940308,0.33832046389579773,-0.9403035640716553,0.026344459503889084,0.025970840826630592
1680006921257133255,21594,1680006921256989434,j2s6s300_link_base,0.17922961711883545,-0.5188001990318298,-0.11625552177429199,0.338958740234375,-0.9400833249092102,0.025990057736635208,0.025978194549679756
1680006921357155432,21595,1680006921356988416,j2s6s300_link_base,0.17932282388210297,-0.5188465118408203,-0.11610996723175049,0.3391571342945099,-0.9400087594985962,0.02609558030962944,0.025981098413467407
1680006921457131445,21596,1680006921456996448,j2s6s300_link_base,0.17939600348472595,-0.5189505815505981,-0.11593127250671387,0.33922070264816284,-0.9399813413619995,0.026253528892993927,0.025981880724430084
1680006921557121685,21597,1680006921556990889,j2s6s300_link_base,0.1794459968805313,-0.5190684199333191,-0.11575323343276978,0.33925479650497437,-0.9399644732475281,0.02641555294394493,0.02598370611667633
1680006921657159814,21598,1680006921656995799,j2s6s300_link_base,0.17948640882968903,-0.5192424654960632,-0.11549970507621765,0.3392486274242401,-0.939960241317749,0.02664276398718357,0.025986187160015106
1680006921757125134,21599,1680006921756995650,j2s6s300_link_base,0.179504856467247,-0.5193042755126953,-0.11540427803993225,0.33925139904022217,-0.9399568438529968,0.026725707575678825,0.025987178087234497
1680006921857129656,21600,1680006921856993316,j2s6s300_link_base,0.1795278936624527,-0.5194157958030701,-0.11524444818496704,0.3392379581928253,-0.9399574995040894,0.026869937777519226,0.025988630950450897
1680006921957120037,21601,1680006921956991886,j2s6s300_link_base,0.17964227497577667,-0.5199058055877686,-0.11453664302825928,0.33917370438575745,-0.9399620890617371,0.02750932052731514,0.02599456161260605
1680006922057154924,21602,1680006922056988889,j2s6s300_link_base,0.18016403913497925,-0.52168869972229,-0.11190471053123474,0.3390149474143982,-0.9399461150169373,0.02989140897989273,0.026013650000095367
1680006922157113423,21603,1680006922156988621,j2s6s300_link_base,0.181738018989563,-0.5266002416610718,-0.1043800413608551,0.3386635482311249,-0.9398331642150879,0.036622919142246246,0.026064865291118622
1680006922257126644,21604,1680006922256995457,j2s6s300_link_base,0.1834389716386795,-0.5321382284164429,-0.09518980979919434,0.33819445967674255,-0.9396600127220154,0.04450535401701927,0.026130378246307373
1680006922357133977,21605,1680006922356991561,j2s6s300_link_base,0.18466562032699585,-0.5356414318084717,-0.08888769149780273,0.3380126953125,-0.9394611120223999,0.049754396080970764,0.026168309152126312
1680006922457124506,21606,1680006922456990360,j2s6s300_link_base,0.18496185541152954,-0.536499559879303,-0.08535242080688477,0.3379710018634796,-0.9393675923347473,0.051756057888269424,0.02618453837931156
1680006922557162995,21607,1680006922556995389,j2s6s300_link_base,0.1845085173845291,-0.5353712439537048,-0.08346188068389893,0.33796605467796326,-0.9393863081932068,0.051445573568344116,0.02618682011961937
1680006922657124010,21608,1680006922656990514,j2s6s300_link_base,0.1841055005788803,-0.5342576503753662,-0.0824415385723114,0.33801838755607605,-0.9393998384475708,0.050850991159677505,0.026185190305113792
1680006922757045782,21609,1680006922756949319,j2s6s300_link_base,0.18383102118968964,-0.533495306968689,-0.08185479044914246,0.33813226222991943,-0.9393829703330994,0.05040335655212402,0.026187818497419357
1680006922857103316,21610,1680006922856955830,j2s6s300_link_base,0.18368859589099884,-0.5331217646598816,-0.08123549818992615,0.3383444845676422,-0.9393118619918823,0.050299592316150665,0.026199311017990112
1680006922957107061,21611,1680006922956988827,j2s6s300_link_base,0.18399129807949066,-0.5340114831924438,-0.07884436845779419,0.3383135199546814,-0.939232587814331,0.05195201560854912,0.026214148849248886
1680006923057158636,21612,1680006923056995761,j2s6s300_link_base,0.1846734583377838,-0.5361596941947937,-0.07409882545471191,0.3381194770336151,-0.9391149878501892,0.05519057437777519,0.026309611275792122
1680006923157096957,21613,1680006923156993623,j2s6s300_link_base,0.18371061980724335,-0.5348944067955017,-0.06898093223571777,0.33779752254486084,-0.9394127130508423,0.051603592932224274,0.02708706259727478
1680006923257124687,21614,1680006923256996637,j2s6s300_link_base,0.18018347024917603,-0.5279533267021179,-0.06591281294822693,0.33732864260673523,-0.9401807188987732,0.03814468905329704,0.028538845479488373
1680006923357119820,21615,1680006923356989661,j2s6s300_link_base,0.17758995294570923,-0.5227763056755066,-0.06325638294219971,0.33696138858795166,-0.9406335353851318,0.028049906715750694,0.029645822942256927
1680006923457126381,21616,1680006923456993842,j2s6s300_link_base,0.17620891332626343,-0.5201359987258911,-0.06064102053642273,0.3367110788822174,-0.9408442974090576,0.02276681736111641,0.030318401753902435
1680006923557124064,21617,1680006923556993998,j2s6s300_link_base,0.17576837539672852,-0.5196543335914612,-0.05737185478210449,0.3364962935447693,-0.9409398436546326,0.02145041897892952,0.030696984380483627
1680006923657119252,21618,1680006923656994464,j2s6s300_link_base,0.17612199485301971,-0.5211698412895203,-0.051906317472457886,0.3362495005130768,-0.9409719705581665,0.023400474339723587,0.030991051346063614
1680006923757121809,21619,1680006923756995468,j2s6s300_link_base,0.17686405777931213,-0.5239534378051758,-0.04494941234588623,0.3358719050884247,-0.9409798383712769,0.027842894196510315,0.0311724916100502
1680006923857121666,21620,1680006923856995130,j2s6s300_link_base,0.17745599150657654,-0.5263751745223999,-0.03962427377700806,0.3355026841163635,-0.9409827589988708,0.03180903196334839,0.03126494586467743
1680006923957144839,21621,1680006923957007723,j2s6s300_link_base,0.17789742350578308,-0.527701199054718,-0.03657174110412598,0.33538785576820374,-0.9409423470497131,0.034086477011442184,0.03131364658474922
1680006924057149023,21622,1680006924056991051,j2s6s300_link_base,0.17822055518627167,-0.5286538600921631,-0.034598976373672485,0.3353128433227539,-0.9409091472625732,0.03568160906434059,0.031339045614004135
1680006924157005126,21623,1680006924156919636,j2s6s300_link_base,0.1783522069454193,-0.5291165113449097,-0.03365984559059143,0.3352566063404083,-0.9408990740776062,0.036457616835832596,0.03134945034980774
1680006924257153589,21624,1680006924256991955,j2s6s300_link_base,0.17830964922904968,-0.5291386842727661,-0.03359821438789368,0.3352152109146118,-0.9409127831459045,0.03648330271244049,0.03135232999920845
1680006924357132532,21625,1680006924356994326,j2s6s300_link_base,0.17832478880882263,-0.5291796326637268,-0.033498793840408325,0.33521369099617004,-0.940910279750824,0.03655971586704254,0.03135335072875023
1680006924457125762,21626,1680006924456991898,j2s6s300_link_base,0.1783810704946518,-0.5292866826057434,-0.03327202796936035,0.33522021770477295,-0.9409002065658569,0.0367569625377655,0.03135405480861664
1680006924557107282,21627,1680006924556991860,j2s6s300_link_base,0.17845752835273743,-0.5292612314224243,-0.033260613679885864,0.33528903126716614,-0.9408755302429199,0.03676372393965721,0.03135159611701965
1680006924657163224,21628,1680006924656997208,j2s6s300_link_base,0.17846792936325073,-0.5292572379112244,-0.033258914947509766,0.3352985084056854,-0.9408721923828125,0.03676387295126915,0.03135138005018234
1680006924757128661,21629,1680006924756994934,j2s6s300_link_base,0.17848248779773712,-0.5292448401451111,-0.0332617461681366,0.33531391620635986,-0.940867006778717,0.03675747662782669,0.0313507542014122
1680006924857118738,21630,1680006924856992919,j2s6s300_link_base,0.17849786579608917,-0.5292317271232605,-0.03326445817947388,0.33532997965812683,-0.9408615231513977,0.03675004094839096,0.03135017305612564
1680006924957097675,21631,1680006924956959158,j2s6s300_link_base,0.17850063741207123,-0.5292251110076904,-0.03326660394668579,0.3353342115879059,-0.9408602118492126,0.036744967103004456,0.031349990516901016
