%time,field.header.seq,field.header.stamp,field.header.frame_id,field.pose.position.x,field.pose.position.y,field.pose.position.z,field.pose.orientation.x,field.pose.orientation.y,field.pose.orientation.z,field.pose.orientation.w
1680005765960405105,10041,1680005765959951766,j2s6s300_link_base,-0.375780314207077,-0.5524376630783081,-0.019141212105751038,0.5034874081611633,0.8623878359794617,-0.01789223961532116,0.04967593401670456
1680005766056933183,10042,1680005766056805084,j2s6s300_link_base,-0.375780314207077,-0.5524376630783081,-0.019141212105751038,0.5034874081611633,0.8623878359794617,-0.01789223961532116,0.04967593401670456
1680005766156964612,10043,1680005766156841371,j2s6s300_link_base,-0.375780314207077,-0.5524376630783081,-0.019141212105751038,0.5034874081611633,0.8623878359794617,-0.01789223961532116,0.04967593401670456
1680005766256980635,10044,1680005766256835747,j2s6s300_link_base,-0.375780314207077,-0.5524376630783081,-0.019141212105751038,0.5034874081611633,0.8623878359794617,-0.01789223961532116,0.04967593401670456
1680005766356924455,10045,1680005766356836280,j2s6s300_link_base,-0.375780314207077,-0.5524376630783081,-0.019141212105751038,0.5034874081611633,0.8623878359794617,-0.01789223961532116,0.04967593401670456
1680005766456973966,10046,1680005766456840765,j2s6s300_link_base,-0.375780314207077,-0.5524376630783081,-0.019141212105751038,0.5034874081611633,0.8623878359794617,-0.01789223961532116,0.04967593401670456
1680005766556983142,10047,1680005766556805653,j2s6s300_link_base,-0.375780314207077,-0.5524376630783081,-0.019141212105751038,0.5034874081611633,0.8623878359794617,-0.01789223961532116,0.04967593401670456
1680005766656955446,10048,1680005766656805142,j2s6s300_link_base,-0.375780314207077,-0.5524376630783081,-0.019141212105751038,0.5034874081611633,0.8623878359794617,-0.01789223961532116,0.04967593401670456
1680005766756902351,10049,1680005766756805327,j2s6s300_link_base,-0.37578076124191284,-0.5524381995201111,-0.019141212105751038,0.5034874677658081,0.8623876571655273,-0.01789349503815174,0.04967567324638367
1680005766856964750,10050,1680005766856839075,j2s6s300_link_base,-0.37578076124191284,-0.5524381995201111,-0.019141212105751038,0.5034874677658081,0.8623876571655273,-0.01789349503815174,0.04967567324638367
1680005766957002185,10051,1680005766956840964,j2s6s300_link_base,-0.37578076124191284,-0.5524381995201111,-0.019141212105751038,0.5034874677658081,0.8623876571655273,-0.01789349503815174,0.04967567324638367
1680005767056993136,10052,1680005767056832992,j2s6s300_link_base,-0.3757820129394531,-0.5524373054504395,-0.019141212105751038,0.5034884214401245,0.8623871803283691,-0.017893578857183456,0.04967569187283516
1680005767156969827,10053,1680005767156837752,j2s6s300_link_base,-0.3757820129394531,-0.5524373054504395,-0.019141212105751038,0.5034871697425842,0.8623878359794617,-0.017893651500344276,0.04967566579580307
1680005767256972346,10054,1680005767256841634,j2s6s300_link_base,-0.3757820129394531,-0.5524373054504395,-0.019141212105751038,0.5034871697425842,0.8623878359794617,-0.017893651500344276,0.04967566579580307
1680005767356985768,10055,1680005767356804534,j2s6s300_link_base,-0.3757820129394531,-0.5524373054504395,-0.019141212105751038,0.5034871697425842,0.8623878359794617,-0.017893651500344276,0.04967566579580307
1680005767456975331,10056,1680005767456805609,j2s6s300_link_base,-0.3757820129394531,-0.5524373054504395,-0.019141212105751038,0.5034871697425842,0.8623878359794617,-0.017893651500344276,0.04967566579580307
1680005767556950395,10057,1680005767556806031,j2s6s300_link_base,-0.3757820129394531,-0.5524373054504395,-0.019141212105751038,0.5034871697425842,0.8623878359794617,-0.017893651500344276,0.04967566579580307
1680005767656950789,10058,1680005767656805662,j2s6s300_link_base,-0.3757815361022949,-0.5524366497993469,-0.019141748547554016,0.5034872889518738,0.8623878359794617,-0.01789262890815735,0.049675751477479935
1680005767756955860,10059,1680005767756819745,j2s6s300_link_base,-0.3757815361022949,-0.5524366497993469,-0.019141748547554016,0.5034872889518738,0.8623878359794617,-0.01789262890815735,0.049675751477479935
1680005767856962240,10060,1680005767856798811,j2s6s300_link_base,-0.3757815361022949,-0.5524366497993469,-0.019141748547554016,0.5034872889518738,0.8623878359794617,-0.01789262890815735,0.049675751477479935
1680005767956902753,10061,1680005767956807341,j2s6s300_link_base,-0.3757815361022949,-0.5524366497993469,-0.019141748547554016,0.5034872889518738,0.8623878359794617,-0.01789262890815735,0.049675751477479935
1680005768056915574,10062,1680005768056807693,j2s6s300_link_base,-0.3757815361022949,-0.5524366497993469,-0.019141748547554016,0.5034872889518738,0.8623878359794617,-0.01789262890815735,0.049675751477479935
1680005768156901418,10063,1680005768156806732,j2s6s300_link_base,-0.3757815361022949,-0.5524366497993469,-0.019141748547554016,0.5034872889518738,0.8623878359794617,-0.01789262890815735,0.049675751477479935
1680005768256931295,10064,1680005768256806248,j2s6s300_link_base,-0.3757815361022949,-0.5524366497993469,-0.019141748547554016,0.5034872889518738,0.8623878359794617,-0.01789262890815735,0.049675751477479935
1680005768356909214,10065,1680005768356806371,j2s6s300_link_base,-0.37578025460243225,-0.5524349808692932,-0.019145667552947998,0.5034873485565186,0.8623878955841064,-0.017889367416501045,0.04967614263296127
1680005768456925636,10066,1680005768456806985,j2s6s300_link_base,-0.3757864236831665,-0.5524258017539978,-0.01915152370929718,0.503494381904602,0.8623837232589722,-0.01788386143743992,0.04967673495411873
1680005768556936798,10067,1680005768556802727,j2s6s300_link_base,-0.37578263878822327,-0.5524181723594666,-0.01916612684726715,0.5034961104393005,0.8623829483985901,-0.017871130257844925,0.04967830702662468
1680005768656982087,10068,1680005768656837599,j2s6s300_link_base,-0.3757290840148926,-0.5523465275764465,-0.019362807273864746,0.50350421667099,0.8623801469802856,-0.017722640186548233,0.0496969148516655
1680005768756960695,10069,1680005768756835570,j2s6s300_link_base,-0.37563708424568176,-0.5521837472915649,-0.019685983657836914,0.5035354495048523,0.8623657822608948,-0.017441002652049065,0.049731750041246414
1680005768856952580,10070,1680005768856811734,j2s6s300_link_base,-0.3756434917449951,-0.5519381761550903,-0.019871264696121216,0.50364750623703,0.8623035550117493,-0.017196131870150566,0.04975968599319458
1680005768956925539,10071,1680005768956801392,j2s6s300_link_base,-0.37558498978614807,-0.5517177581787109,-0.020297542214393616,0.5037205815315247,0.8622651696205139,-0.01686166785657406,0.04980000853538513
1680005769057055999,10072,1680005769056841077,j2s6s300_link_base,-0.37540924549102783,-0.5513485670089722,-0.021449655294418335,0.5038233995437622,0.862213671207428,-0.0162159726023674,0.04986652731895447
1680005769156960379,10073,1680005769156823823,j2s6s300_link_base,-0.3744940459728241,-0.5499465465545654,-0.025844857096672058,0.5040779113769531,0.8620940446853638,-0.013508547097444534,0.050168488174676895
1680005769257031502,10074,1680005769256838750,j2s6s300_link_base,-0.3731125593185425,-0.5480778217315674,-0.03224688768386841,0.5043558478355408,0.861958384513855,-0.009869944304227829,0.05055086314678192
1680005769356970633,10075,1680005769356834725,j2s6s300_link_base,-0.37250784039497375,-0.5471578240394592,-0.037284672260284424,0.5046364665031433,0.8618077635765076,-0.008451145142316818,0.05057654529809952
1680005769456983120,10076,1680005769456797006,j2s6s300_link_base,-0.3721669614315033,-0.5466033220291138,-0.04086117446422577,0.504848062992096,0.8616927266120911,-0.00773424468934536,0.0505385622382164
1680005769556996345,10077,1680005769556797930,j2s6s300_link_base,-0.37181204557418823,-0.5460842847824097,-0.043269917368888855,0.504973828792572,0.8616239428520203,-0.006915802136063576,0.05057555437088013
1680005769657047634,10078,1680005769656803787,j2s6s300_link_base,-0.3725842237472534,-0.5468422174453735,-0.04461957514286041,0.5051924586296082,0.8615034818649292,-0.009113183245062828,0.0500926598906517
1680005769756957432,10079,1680005769756790904,j2s6s300_link_base,-0.3763760030269623,-0.5511229038238525,-0.04534786939620972,0.5057058334350586,0.861139714717865,-0.01986881159245968,0.048013102263212204
1680005769856988658,10080,1680005769856815114,j2s6s300_link_base,-0.38187745213508606,-0.5574508309364319,-0.04572203755378723,0.5062627196311951,0.8604691028594971,-0.03559374064207077,0.044989366084337234
1680005769956960121,10081,1680005769956816177,j2s6s300_link_base,-0.38551419973373413,-0.56169193983078,-0.04594063758850098,0.5065478086471558,0.8599047064781189,-0.04612130671739578,0.04296715185046196
1680005770056959733,10082,1680005770056836500,j2s6s300_link_base,-0.387069970369339,-0.5644422173500061,-0.04600006341934204,0.5063123106956482,0.8597583174705505,-0.05206800624728203,0.04186320677399635
1680005770156974782,10083,1680005770156836847,j2s6s300_link_base,-0.3881455361843109,-0.5662781596183777,-0.04587472975254059,0.5061410069465637,0.8596442341804504,-0.05606137588620186,0.041111718863248825
1680005770256972880,10084,1680005770256813206,j2s6s300_link_base,-0.38809946179389954,-0.5665417313575745,-0.04739198088645935,0.5061021447181702,0.8596243858337402,-0.05689334124326706,0.040862493216991425
1680005770356955989,10085,1680005770356810626,j2s6s300_link_base,-0.3864600956439972,-0.5652576684951782,-0.05156174302101135,0.5060163736343384,0.8598214983940125,-0.054469991475343704,0.04107854142785072
1680005770456955659,10086,1680005770456809761,j2s6s300_link_base,-0.3853687644004822,-0.5639318227767944,-0.05469045042991638,0.5061530470848083,0.8598684072494507,-0.05224335193634033,0.04130659997463226
1680005770556977650,10087,1680005770556838360,j2s6s300_link_base,-0.38475513458251953,-0.5632274746894836,-0.0567021518945694,0.5062239170074463,0.8598906993865967,-0.05110059306025505,0.0414024256169796
1680005770656951958,10088,1680005770656809325,j2s6s300_link_base,-0.3841570317745209,-0.5627470016479492,-0.05797508358955383,0.5061808228492737,0.8599660396575928,-0.05016971752047539,0.04150178283452988
1680005770756974924,10089,1680005770756839594,j2s6s300_link_base,-0.3840433359146118,-0.5626769661903381,-0.058335885405540466,0.5061699151992798,0.8599792718887329,-0.05005082115530968,0.04150336608290672
1680005770857008401,10090,1680005770856842594,j2s6s300_link_base,-0.38394829630851746,-0.5626311302185059,-0.058703914284706116,0.5061575174331665,0.859991729259491,-0.04996311292052269,0.04150082916021347
1680005770957002719,10091,1680005770956840433,j2s6s300_link_base,-0.3838275074958801,-0.5625478029251099,-0.05904780328273773,0.5061460733413696,0.860007643699646,-0.04979442432522774,0.04151424765586853
1680005771057013702,10092,1680005771056847027,j2s6s300_link_base,-0.38385656476020813,-0.5626435279846191,-0.059240445494651794,0.506136417388916,0.860000729560852,-0.05006701871752739,0.04144826531410217
1680005771156994438,10093,1680005771156844349,j2s6s300_link_base,-0.3838667571544647,-0.5628712773323059,-0.059681132435798645,0.506081223487854,0.8600077033042908,-0.05060882121324539,0.04131830111145973
1680005771256939198,10094,1680005771256807768,j2s6s300_link_base,-0.383901983499527,-0.5631023645401001,-0.059937670826911926,0.5060223937034607,0.8600199818611145,-0.05106670409440994,0.041219282895326614
1680005771356978957,10095,1680005771356836008,j2s6s300_link_base,-0.3839486837387085,-0.5633591413497925,-0.06030374765396118,0.5059640407562256,0.8600285649299622,-0.05159391090273857,0.04110169783234596
1680005771456996499,10096,1680005771456846380,j2s6s300_link_base,-0.3846002519130707,-0.5642297863960266,-0.06090943515300751,0.5059869885444641,0.8599020838737488,-0.053785745054483414,0.04065226763486862
1680005771557007845,10097,1680005771556842554,j2s6s300_link_base,-0.38470229506492615,-0.5644637942314148,-0.06264562904834747,0.5060363411903381,0.8598313927650452,-0.054629113525152206,0.040409233421087265
1680005771657010042,10098,1680005771656842450,j2s6s300_link_base,-0.38407543301582336,-0.5647270679473877,-0.06486886739730835,0.505731463432312,0.8600035905838013,-0.054834820330142975,0.04028237611055374
1680005771756998657,10099,1680005771756836571,j2s6s300_link_base,-0.3821822702884674,-0.5663115382194519,-0.06649073958396912,0.5042939186096191,0.8608028888702393,-0.055601440370082855,0.04018261283636093
1680005771856973721,10100,1680005771856842067,j2s6s300_link_base,-0.37931519746780396,-0.5694217085838318,-0.06790466606616974,0.501722514629364,0.8621824979782104,-0.05768096074461937,0.03985997661948204
1680005771956982286,10101,1680005771956840596,j2s6s300_link_base,-0.379364013671875,-0.5754488110542297,-0.0697091817855835,0.4994974434375763,0.8628312945365906,-0.06765582412481308,0.03804299607872963
1680005772057025822,10102,1680005772056843283,j2s6s300_link_base,-0.3791513442993164,-0.5798125267028809,-0.07449279725551605,0.49788588285446167,0.8631743788719177,-0.07557863742113113,0.03643455728888512
1680005772156968257,10103,1680005772156804971,j2s6s300_link_base,-0.37771761417388916,-0.5811653733253479,-0.08066484332084656,0.496909499168396,0.8635581731796265,-0.07790439575910568,0.03576541319489479
1680005772256967866,10104,1680005772256842834,j2s6s300_link_base,-0.3715772330760956,-0.5855656266212463,-0.0846242606639862,0.49236002564430237,0.8660058379173279,-0.0796578899025917,0.03563790023326874
1680005772356965589,10105,1680005772356836612,j2s6s300_link_base,-0.3628288507461548,-0.5907520055770874,-0.08775143325328827,0.4861186146736145,0.869490921497345,-0.07988949120044708,0.03594426438212395
1680005772456995754,10106,1680005772456846192,j2s6s300_link_base,-0.3558219373226166,-0.5932466983795166,-0.09174516797065735,0.4817691147327423,0.8720597624778748,-0.07801039516925812,0.03639652580022812
1680005772556978893,10107,1680005772556838153,j2s6s300_link_base,-0.35017329454421997,-0.5945296287536621,-0.09561802446842194,0.4785345196723938,0.8740289211273193,-0.07564131915569305,0.03683000057935715
1680005772656970346,10108,1680005772656842386,j2s6s300_link_base,-0.3462236821651459,-0.5956422090530396,-0.09772263467311859,0.47615382075309753,0.8754375576972961,-0.07421660423278809,0.03712864965200424
1680005772757006040,10109,1680005772756846311,j2s6s300_link_base,-0.3440297842025757,-0.5962997078895569,-0.09881192445755005,0.4748084545135498,0.876222550868988,-0.07348829507827759,0.03728765994310379
1680005772856983847,10110,1680005772856838453,j2s6s300_link_base,-0.3423909544944763,-0.5969352722167969,-0.0994112640619278,0.4737390875816345,0.8768271207809448,-0.07312440127134323,0.03739307448267937
1680005772956973106,10111,1680005772956839231,j2s6s300_link_base,-0.3413960337638855,-0.5972872972488403,-0.09981152415275574,0.47310274839401245,0.8771894574165344,-0.07286317646503448,0.0374598428606987
1680005773057017840,10112,1680005773056845338,j2s6s300_link_base,-0.3408626317977905,-0.5975062251091003,-0.09997057914733887,0.4727482199668884,0.877388060092926,-0.07275684177875519,0.037494365125894547
1680005773156950671,10113,1680005773156831400,j2s6s300_link_base,-0.3404073119163513,-0.5977619290351868,-0.10002979636192322,0.47241830825805664,0.8775647878646851,-0.07275526225566864,0.037517428398132324
1680005773256969861,10114,1680005773256840231,j2s6s300_link_base,-0.3387255370616913,-0.5987217426300049,-0.10008223354816437,0.4711841344833374,0.8782262206077576,-0.07272864878177643,0.037613559514284134
1680005773356969216,10115,1680005773356843694,j2s6s300_link_base,-0.3365226984024048,-0.5998170375823975,-0.10037466883659363,0.4696328341960907,0.8790687918663025,-0.07251369208097458,0.03774777054786682
1680005773456973162,10116,1680005773456843854,j2s6s300_link_base,-0.33353689312934875,-0.6014895439147949,-0.10050249099731445,0.46744829416275024,0.8802284598350525,-0.07247453927993774,0.0379122756421566
1680005773556957420,10117,1680005773556843632,j2s6s300_link_base,-0.3304051458835602,-0.603340744972229,-0.10050956904888153,0.4651137590408325,0.8814479112625122,-0.07259021699428558,0.03807219862937927
1680005773657004141,10118,1680005773656844856,j2s6s300_link_base,-0.3272281587123871,-0.6050950884819031,-0.10050696134567261,0.46278566122055054,0.8826692700386047,-0.07253152132034302,0.03825780376791954
1680005773756971872,10119,1680005773756841022,j2s6s300_link_base,-0.3244674503803253,-0.6065841317176819,-0.10050880908966064,0.4607728123664856,0.8837209939956665,-0.0724518895149231,0.03842268884181976
1680005773857026387,10120,1680005773856859772,j2s6s300_link_base,-0.31970128417015076,-0.6091278195381165,-0.10050694644451141,0.45729708671569824,0.8855223059654236,-0.07233057171106339,0.038702961057424545
1680005773956944761,10121,1680005773956846845,j2s6s300_link_base,-0.31367528438568115,-0.6123250126838684,-0.10049910843372345,0.452897310256958,0.8877713680267334,-0.0722588524222374,0.039045918732881546
1680005774057010084,10122,1680005774056846488,j2s6s300_link_base,-0.30842992663383484,-0.6156283617019653,-0.10046716034412384,0.44887804985046387,0.8897255063056946,-0.07319782674312592,0.03923146426677704
1680005774156958720,10123,1680005774156833098,j2s6s300_link_base,-0.30077868700027466,-0.6200882196426392,-0.10062259435653687,0.4431324005126953,0.8925043344497681,-0.07420364022254944,0.03953990340232849
1680005774256965000,10124,1680005774256838492,j2s6s300_link_base,-0.29326575994491577,-0.6264036893844604,-0.10044021904468536,0.43683019280433655,0.8952220678329468,-0.07870598137378693,0.03952564671635628
1680005774356923121,10125,1680005774356828560,j2s6s300_link_base,-0.28885287046432495,-0.6353629231452942,-0.09944756329059601,0.43138113617897034,0.896779477596283,-0.0905320793390274,0.03874112665653229
1680005774456967970,10126,1680005774456861766,j2s6s300_link_base,-0.28469517827033997,-0.6425331830978394,-0.09857262670993805,0.42668628692626953,0.8980772495269775,-0.09965264052152634,0.03827991336584091
1680005774557014098,10127,1680005774556849982,j2s6s300_link_base,-0.2804766893386841,-0.647792637348175,-0.09794650971889496,0.42260921001434326,0.8993405699729919,-0.10551127791404724,0.03815091773867607
1680005774656949986,10128,1680005774656817758,j2s6s300_link_base,-0.27562880516052246,-0.6518341898918152,-0.09757794439792633,0.41860032081604004,0.900810956954956,-0.10884254425764084,0.038297511637210846
1680005774757049319,10129,1680005774756846750,j2s6s300_link_base,-0.26986896991729736,-0.6550742983818054,-0.09743043780326843,0.4143543839454651,0.9025953412055969,-0.11016460508108139,0.03867778927087784
1680005774856985209,10130,1680005774856851471,j2s6s300_link_base,-0.2603502571582794,-0.659480094909668,-0.09733317792415619,0.4076266884803772,0.90553218126297,-0.11089811474084854,0.03941354528069496
1680005774956910505,10131,1680005774956813166,j2s6s300_link_base,-0.25075361132621765,-0.6629106998443604,-0.09823758900165558,0.40115582942962646,0.9084432721138,-0.1104142889380455,0.0401681549847126
1680005775056978308,10132,1680005775056850709,j2s6s300_link_base,-0.2408248633146286,-0.6658299565315247,-0.09991368651390076,0.3946303725242615,0.9113969206809998,-0.1093059703707695,0.040923215448856354
1680005775156937410,10133,1680005775156812522,j2s6s300_link_base,-0.23008418083190918,-0.6690160632133484,-0.10117393732070923,0.3874933421611786,0.914536714553833,-0.10829928517341614,0.04174679517745972
1680005775256939340,10134,1680005775256813163,j2s6s300_link_base,-0.2191096544265747,-0.672404944896698,-0.10173015296459198,0.38009560108184814,0.9176766276359558,-0.1076173409819603,0.04260820150375366
1680005775356939744,10135,1680005775356809359,j2s6s300_link_base,-0.21118572354316711,-0.6748090386390686,-0.10196395218372345,0.3747325539588928,0.919898271560669,-0.10721005499362946,0.04323001205921173
1680005775456945126,10136,1680005775456813303,j2s6s300_link_base,-0.20307545363903046,-0.677154541015625,-0.10221785306930542,0.36924925446510315,0.9221335053443909,-0.10677643865346909,0.04385846108198166
1680005775556956444,10137,1680005775556810341,j2s6s300_link_base,-0.19440799951553345,-0.6795758605003357,-0.10244663059711456,0.3633876144886017,0.9244759678840637,-0.106352798640728,0.044527649879455566
1680005775656953542,10138,1680005775656810305,j2s6s300_link_base,-0.18584612011909485,-0.6817927956581116,-0.10276709496974945,0.3576166033744812,0.9267493486404419,-0.10585425049066544,0.045177023857831955
1680005775756961004,10139,1680005775756833436,j2s6s300_link_base,-0.17777040600776672,-0.6838932633399963,-0.1028706431388855,0.3521439731121063,0.9288491606712341,-0.10553039610385895,0.04579559713602066
1680005775856942524,10140,1680005775856796361,j2s6s300_link_base,-0.16786079108715057,-0.686237633228302,-0.1031058132648468,0.34545832872390747,0.9313784241676331,-0.105009526014328,0.04653868079185486
1680005775956974912,10141,1680005775956803395,j2s6s300_link_base,-0.1568666249513626,-0.68851637840271,-0.10368651151657104,0.33808615803718567,0.9341263175010681,-0.10423358529806137,0.04733830317854881
1680005776056963396,10142,1680005776056804170,j2s6s300_link_base,-0.149089515209198,-0.6900261044502258,-0.10408635437488556,0.33286619186401367,0.9360309839248657,-0.10369235277175903,0.04789639636874199
1680005776157979224,10143,1680005776157804896,j2s6s300_link_base,-0.14420728385448456,-0.6910569667816162,-0.10409717261791229,0.32955557107925415,0.937202513217926,-0.10351547598838806,0.04826165735721588
1680005776257099628,10144,1680005776256835037,j2s6s300_link_base,-0.14059297740459442,-0.6918022036552429,-0.10409660637378693,0.32710355520248413,0.9380609393119812,-0.10339008271694183,0.04853206127882004
1680005776356993417,10145,1680005776356811903,j2s6s300_link_base,-0.13455793261528015,-0.6930029392242432,-0.10409468412399292,0.32256603240966797,0.9396306872367859,-0.10320267081260681,0.04893339425325394
1680005776456998840,10146,1680005776456823401,j2s6s300_link_base,-0.1266264021396637,-0.6944942474365234,-0.10409581661224365,0.3101300001144409,0.9438084959983826,-0.10328737646341324,0.04875010624527931
1680005776556944964,10147,1680005776556810435,j2s6s300_link_base,-0.11751526594161987,-0.6960948705673218,-0.10409392416477203,0.28650686144828796,0.9512459635734558,-0.10385800898075104,0.047523193061351776
1680005776656937487,10148,1680005776656817388,j2s6s300_link_base,-0.10822010785341263,-0.6976043581962585,-0.10408571362495422,0.25805240869522095,0.9593552947044373,-0.10463057458400726,0.045810870826244354
1680005776757027450,10149,1680005776756841285,j2s6s300_link_base,-0.09817561507225037,-0.6990679502487183,-0.10410092771053314,0.23608796298503876,0.9649980664253235,-0.10499047487974167,0.044923800975084305
1680005776857045595,10150,1680005776856854911,j2s6s300_link_base,-0.08902713656425476,-0.7000182271003723,-0.1042831540107727,0.2211364060640335,0.9685671329498291,-0.10479990392923355,0.044647373259067535
1680005776956945735,10151,1680005776956826846,j2s6s300_link_base,-0.08148612082004547,-0.700394868850708,-0.10464215278625488,0.21071632206439972,0.9709528684616089,-0.10421085357666016,0.04460092633962631
1680005777057024387,10152,1680005777056860146,j2s6s300_link_base,-0.07046234607696533,-0.6987303495407104,-0.10653258860111237,0.20096798241138458,0.9733563661575317,-0.10085244476795197,0.04492256045341492
1680005777156972156,10153,1680005777156845360,j2s6s300_link_base,-0.058851830661296844,-0.6949245929718018,-0.10964004695415497,0.19228631258010864,0.9756590723991394,-0.0952378362417221,0.045221760869026184
1680005777256968451,10154,1680005777256838307,j2s6s300_link_base,-0.04931611195206642,-0.6913293600082397,-0.1115681380033493,0.18525904417037964,0.9774672389030457,-0.09041257947683334,0.04541432112455368
1680005777356986764,10155,1680005777356839176,j2s6s300_link_base,-0.04241358861327171,-0.6898764967918396,-0.1108611524105072,0.18000878393650055,0.9786131381988525,-0.08847660571336746,0.045662324875593185
1680005777456995691,10156,1680005777456857850,j2s6s300_link_base,-0.037760794162750244,-0.6890577077865601,-0.10934469103813171,0.1764327883720398,0.9793383479118347,-0.08755005151033401,0.04585741460323334
1680005777556939599,10157,1680005777556844945,j2s6s300_link_base,-0.02964015118777752,-0.6873878240585327,-0.10859927535057068,0.17078596353530884,0.9805111885070801,-0.08541886508464813,0.04619094729423523
1680005777656989178,10158,1680005777656856452,j2s6s300_link_base,-0.016688965260982513,-0.6821246147155762,-0.11055201292037964,0.1620665341615677,0.9825052618980408,-0.07914695888757706,0.04640622437000275
1680005777756971447,10159,1680005777756843525,j2s6s300_link_base,-0.006891664117574692,-0.6763859391212463,-0.11218118667602539,0.15541672706604004,0.984067440032959,-0.07286980748176575,0.046334169805049896
1680005777856982773,10160,1680005777856849288,j2s6s300_link_base,-0.0011299699544906616,-0.6725738048553467,-0.11285112798213959,0.15123409032821655,0.9850102663040161,-0.06890358775854111,0.04620928317308426
1680005777956949485,10161,1680005777956851585,j2s6s300_link_base,0.002751307561993599,-0.6707874536514282,-0.11201024055480957,0.14840568602085114,0.9855539202690125,-0.06724698841571808,0.04622938483953476
1680005778056954779,10162,1680005778056849248,j2s6s300_link_base,0.006224359385669231,-0.6695610880851746,-0.11139394342899323,0.14590096473693848,0.9860018491744995,-0.06611113995313644,0.046287305653095245
1680005778156947058,10163,1680005778156852740,j2s6s300_link_base,0.013693282380700111,-0.667874276638031,-0.11149938404560089,0.14047665894031525,0.9868970513343811,-0.06434749066829681,0.04647435247898102
1680005778256943349,10164,1680005778256849668,j2s6s300_link_base,0.022474560886621475,-0.664991021156311,-0.11198943853378296,0.1341005116701126,0.9879629611968994,-0.06145995110273361,0.04657122865319252
1680005778356979712,10165,1680005778356851915,j2s6s300_link_base,0.030212556943297386,-0.6624264717102051,-0.11250588297843933,0.12841184437274933,0.9888668656349182,-0.05897276848554611,0.046635836362838745
1680005778456985362,10166,1680005778456857244,j2s6s300_link_base,0.03581579774618149,-0.660545825958252,-0.11291109025478363,0.12425326555967331,0.9895031452178955,-0.05715043097734451,0.04667360708117485
1680005778556946943,10167,1680005778556850883,j2s6s300_link_base,0.039678893983364105,-0.6560807228088379,-0.11368077993392944,0.12133411318063736,0.9902525544166565,-0.05027631297707558,0.04637068510055542
1680005778656980889,10168,1680005778656849372,j2s6s300_link_base,0.042810507118701935,-0.6496668457984924,-0.11456023156642914,0.11889088898897171,0.9910609722137451,-0.03954412043094635,0.045818693935871124
1680005778756978885,10169,1680005778756851466,j2s6s300_link_base,0.04670972377061844,-0.6421285271644592,-0.11539509892463684,0.11574839800596237,0.9919008016586304,-0.026407672092318535,0.045139897614717484
1680005778856981839,10170,1680005778856851075,j2s6s300_link_base,0.05182033032178879,-0.6336788535118103,-0.11584250628948212,0.11152996867895126,0.9927064180374146,-0.011388203129172325,0.044331010431051254
1680005778956962459,10171,1680005778956845081,j2s6s300_link_base,0.05754169076681137,-0.6271942257881165,-0.11600744724273682,0.10677892714738846,0.9933238625526428,-0.00010838499292731285,0.04365690052509308
1680005779056978653,10172,1680005779056848434,j2s6s300_link_base,0.06229346990585327,-0.6230536699295044,-0.11611123383045197,-0.10282286256551743,-0.9937387108802795,-0.006797724403440952,-0.0431818887591362
1680005779156968139,10173,1680005779156846913,j2s6s300_link_base,0.06687036156654358,-0.6204059720039368,-0.11613823473453522,-0.0990351065993309,-0.9940998554229736,-0.010966961272060871,-0.0428619310259819
1680005779256977569,10174,1680005779256851780,j2s6s300_link_base,0.07056859880685806,-0.6175991296768188,-0.1163007915019989,-0.09593591094017029,-0.9943639636039734,-0.015220386907458305,-0.042483922094106674
1680005779356915203,10175,1680005779356816271,j2s6s300_link_base,0.07268141210079193,-0.6132469177246094,-0.11651603877544403,-0.09399740397930145,-0.9944427013397217,-0.02228035032749176,-0.04185466468334198
1680005779456987938,10176,1680005779456817564,j2s6s300_link_base,0.07496903091669083,-0.6064826250076294,-0.1163712739944458,-0.09168808162212372,-0.9943748116493225,-0.03381365165114403,-0.0408485122025013
1680005779556975559,10177,1680005779556848051,j2s6s300_link_base,0.07684971392154694,-0.5966384410858154,-0.11643053591251373,-0.08798041939735413,-0.9940882921218872,-0.049960680305957794,-0.03939271345734596
1680005779657020731,10178,1680005779656850774,j2s6s300_link_base,0.08003801107406616,-0.5891160368919373,-0.11637294292449951,-0.08195801824331284,-0.9939838647842407,-0.06173183396458626,-0.03831721097230911
1680005779757017943,10179,1680005779756849831,j2s6s300_link_base,0.08332690596580505,-0.5845219492912292,-0.11639390885829926,-0.07551558315753937,-0.99408358335495,-0.06835724413394928,-0.03771685063838959
1680005779857015166,10180,1680005779856850106,j2s6s300_link_base,0.08624008297920227,-0.5812199711799622,-0.11628411710262299,-0.0694173127412796,-0.9942089915275574,-0.07304354012012482,-0.037341292947530746
1680005779957020384,10181,1680005779956850424,j2s6s300_link_base,0.09002166241407394,-0.5791367888450623,-0.11614838242530823,-0.06349721550941467,-0.9944308400154114,-0.07551112771034241,-0.037061017006635666
1680005780057004562,10182,1680005780056850639,j2s6s300_link_base,0.09393606334924698,-0.5775094032287598,-0.11613981425762177,-0.058309901505708694,-0.9946343302726746,-0.07713508605957031,-0.036778490990400314
1680005780156983558,10183,1680005780156852409,j2s6s300_link_base,0.09670954197645187,-0.5753329396247864,-0.1159614771604538,-0.05481888726353645,-0.9946001768112183,-0.08025691658258438,-0.03639087453484535
1680005780257023458,10184,1680005780256855157,j2s6s300_link_base,0.09854061901569366,-0.5704951286315918,-0.1154569685459137,-0.052255406975746155,-0.9940676689147949,-0.08850813657045364,-0.035568322986364365
1680005780356988517,10185,1680005780356851921,j2s6s300_link_base,0.10167418420314789,-0.563322901725769,-0.11564427614212036,-0.04860721901059151,-0.9933240413665771,-0.09886446595191956,-0.034211039543151855
1680005780457019837,10186,1680005780456852597,j2s6s300_link_base,0.10495460033416748,-0.556933581829071,-0.11572933197021484,-0.04480217397212982,-0.9926697015762329,-0.10730762779712677,-0.03293578699231148
1680005780556978909,10187,1680005780556847933,j2s6s300_link_base,0.10732278227806091,-0.5527363419532776,-0.11532069742679596,-0.04226483032107353,-0.9922142624855042,-0.11268234997987747,-0.03205011039972305
1680005780656973645,10188,1680005780656855249,j2s6s300_link_base,0.10908815264701843,-0.5505017042160034,-0.11500515043735504,-0.040451791137456894,-0.9920064806938171,-0.11529086530208588,-0.03153981640934944
1680005780756966962,10189,1680005780756851731,j2s6s300_link_base,0.11257486790418625,-0.548326849937439,-0.11492222547531128,-0.037136420607566833,-0.9919266700744629,-0.11724868416786194,-0.03090585023164749
1680005780856974545,10190,1680005780856845459,j2s6s300_link_base,0.11712423712015152,-0.5455824136734009,-0.11500366032123566,-0.03283506631851196,-0.9918580055236816,-0.1193092092871666,-0.030081061646342278
1680005780957084603,10191,1680005780956921265,j2s6s300_link_base,0.12130331248044968,-0.5432683229446411,-0.11503860354423523,-0.028880467638373375,-0.9918112754821777,-0.12089074403047562,-0.02935447357594967
1680005781056942311,10192,1680005781056811357,j2s6s300_link_base,0.12411370873451233,-0.5419178605079651,-0.11495999991893768,-0.02622411400079727,-0.9918062090873718,-0.12164345383644104,-0.02890772558748722
1680005781156948259,10193,1680005781156813356,j2s6s300_link_base,0.1265026330947876,-0.5409740805625916,-0.11500318348407745,-0.02397281304001808,-0.9918163418769836,-0.12210587412118912,-0.028562679886817932
1680005781256977908,10194,1680005781256818826,j2s6s300_link_base,0.12831738591194153,-0.5401670932769775,-0.11504161357879639,-0.022244704887270927,-0.9918093681335449,-0.12255358695983887,-0.02828321047127247
1680005781356947017,10195,1680005781356818585,j2s6s300_link_base,0.13069410622119904,-0.539429783821106,-0.11496737599372864,-0.01992497593164444,-0.9918317198753357,-0.12283854931592941,-0.02799377217888832
1680005781456976226,10196,1680005781456815113,j2s6s300_link_base,0.13428738713264465,-0.5384366512298584,-0.11492936313152313,-0.016026291996240616,-0.9918814301490784,-0.12308907508850098,-0.027630332857370377
1680005781557016469,10197,1680005781556852596,j2s6s300_link_base,0.13807179033756256,-0.5373886227607727,-0.11489298939704895,-0.006169782020151615,-0.9919794201850891,-0.12311659753322601,-0.027949700132012367
1680005781657012585,10198,1680005781656850929,j2s6s300_link_base,0.14199256896972656,-0.5363361835479736,-0.11482040584087372,-0.011654635891318321,0.991927444934845,0.12283667176961899,0.029243525117635727
1680005781757004249,10199,1680005781756854410,j2s6s300_link_base,0.14446717500686646,-0.5358189940452576,-0.1145002692937851,-0.024366168305277824,0.9917173981666565,0.12242060899734497,0.030265843495726585
1680005781857016969,10200,1680005781856857671,j2s6s300_link_base,0.1461612433195114,-0.5356584191322327,-0.11395914852619171,-0.031638287007808685,0.9915575981140137,0.12190733850002289,0.030839214101433754
1680005781957002410,10201,1680005781956853206,j2s6s300_link_base,0.14750346541404724,-0.5351118445396423,-0.11373405158519745,-0.037017591297626495,0.991355836391449,0.1219504177570343,0.03116709366440773
1680005782057014687,10202,1680005782056820833,j2s6s300_link_base,0.14798003435134888,-0.5341421365737915,-0.11372780799865723,-0.039833322167396545,0.9911516904830933,0.12270385026931763,0.03123100847005844
1680005782156934882,10203,1680005782156815214,j2s6s300_link_base,0.1480463296175003,-0.5313935875892639,-0.11398904025554657,-0.04187273234128952,0.9907562732696533,0.1252654641866684,0.03093860298395157
1680005782256985765,10204,1680005782256833052,j2s6s300_link_base,0.14901933073997498,-0.5283522009849548,-0.11428371071815491,-0.044613465666770935,0.9903169274330139,0.12786971032619476,0.030516251921653748
1680005782356910945,10205,1680005782356788042,j2s6s300_link_base,0.1517229974269867,-0.5260764360427856,-0.11377295851707458,-0.04830719530582428,0.9899862408638,0.12918999791145325,0.030060505494475365
1680005782456998371,10206,1680005782456808819,j2s6s300_link_base,0.1547371745109558,-0.5243263840675354,-0.1132328063249588,-0.05313901603221893,0.989654541015625,0.1298954039812088,0.0297895185649395
1680005782556980960,10207,1680005782556806936,j2s6s300_link_base,0.15760357677936554,-0.523061990737915,-0.11287601292133331,-0.06810953468084335,0.9887023568153381,0.12989282608032227,0.030932091176509857
1680005782657008387,10208,1680005782656811687,j2s6s300_link_base,0.15975908935070038,-0.5220548510551453,-0.11259537935256958,-0.08757828921079636,0.9871360063552856,0.12965604662895203,0.03288932889699936
1680005782756977373,10209,1680005782756815045,j2s6s300_link_base,0.16158069670200348,-0.5212681293487549,-0.11234505474567413,-0.10211624950170517,0.9857194423675537,0.12942920625209808,0.03431473672389984
1680005782858054455,10210,1680005782857811222,j2s6s300_link_base,0.1628197282552719,-0.5205456018447876,-0.11235424876213074,-0.1111815944314003,0.9846988320350647,0.12950512766838074,0.035145051777362823
1680005782957004001,10211,1680005782956807004,j2s6s300_link_base,0.16422200202941895,-0.5193386673927307,-0.11257199943065643,-0.11676571518182755,0.9839574098587036,0.1301545351743698,0.03540422022342682
1680005783056990617,10212,1680005783056850578,j2s6s300_link_base,0.16573534905910492,-0.517778217792511,-0.11288002133369446,-0.12033721804618835,0.9833921790122986,0.13119158148765564,0.035319387912750244
1680005783156968704,10213,1680005783156832108,j2s6s300_link_base,0.16680356860160828,-0.5166380405426025,-0.11310519278049469,-0.12299235910177231,0.9829635620117188,0.13195237517356873,0.03527161478996277
1680005783256964542,10214,1680005783256858296,j2s6s300_link_base,0.167374387383461,-0.5159956216812134,-0.11323440074920654,-0.12462428957223892,0.9827002286911011,0.13238243758678436,0.03526809439063072
1680005783357066707,10215,1680005783356818734,j2s6s300_link_base,0.16788092255592346,-0.5156561732292175,-0.11327975988388062,-0.12561152875423431,0.9825525879859924,0.1325523406267166,0.03524180129170418
1680005783456988206,10216,1680005783456855192,j2s6s300_link_base,0.1680416315793991,-0.515800952911377,-0.11291305720806122,-0.1261097937822342,0.98252272605896,0.13228146731853485,0.03531111031770706
1680005783556946292,10217,1680005783556852548,j2s6s300_link_base,0.16835805773735046,-0.5163560509681702,-0.11198113858699799,-0.1263923943042755,0.9825912117958069,0.13147777318954468,0.0353977307677269
1680005783657000514,10218,1680005783656865356,j2s6s300_link_base,0.16861703991889954,-0.5169083476066589,-0.11111095547676086,-0.12659327685832977,0.9826653599739075,0.13070502877235413,0.03548333793878555
1680005783756996584,10219,1680005783756858408,j2s6s300_link_base,0.16891030967235565,-0.5178699493408203,-0.10968606173992157,-0.1267758011817932,0.982806384563446,0.1294189989566803,0.03563976287841797
1680005783856982310,10220,1680005783856853966,j2s6s300_link_base,0.1693660020828247,-0.5195170044898987,-0.1072375476360321,-0.12698960304260254,0.9830558896064758,0.12722210586071014,0.0359061136841774
1680005783957009647,10221,1680005783956859531,j2s6s300_link_base,0.16979867219924927,-0.5211508870124817,-0.1047561764717102,-0.12716849148273468,0.9833046793937683,0.12502722442150116,0.036170877516269684
1680005784056982685,10222,1680005784056823714,j2s6s300_link_base,0.17014457285404205,-0.522504985332489,-0.10271057486534119,-0.1272982656955719,0.9835092425346375,0.12320873141288757,0.036390725523233414
1680005784156949409,10223,1680005784156817496,j2s6s300_link_base,0.17041780054569244,-0.5235840082168579,-0.10108347237110138,-0.12739820778369904,0.9836704134941101,0.12175782024860382,0.03656631335616112
1680005784257009925,10224,1680005784256861998,j2s6s300_link_base,0.17067575454711914,-0.5246042013168335,-0.09952454268932343,-0.12749190628528595,0.9838215708732605,0.12038078904151917,0.03673328086733818
1680005784356969280,10225,1680005784356851765,j2s6s300_link_base,0.1710180640220642,-0.5259454846382141,-0.09740836918354034,-0.1276187002658844,0.9840149283409119,0.11858460307121277,0.03695597127079964
1680005784457019311,10226,1680005784456854747,j2s6s300_link_base,0.17161066830158234,-0.5283446907997131,-0.09368304908275604,-0.12782512605190277,0.984361469745636,0.1153167188167572,0.03735239803791046
1680005784556981840,10227,1680005784556854039,j2s6s300_link_base,0.172362819314003,-0.5313898921012878,-0.08889460563659668,-0.12808600068092346,0.9847923517227173,0.11110691726207733,0.037859849631786346
1680005784656982804,10228,1680005784656848456,j2s6s300_link_base,0.17293334007263184,-0.5336907505989075,-0.08515138924121857,-0.12828660011291504,0.9851111769676208,0.10786744207143784,0.03824988380074501
1680005784757013319,10229,1680005784756857077,j2s6s300_link_base,0.17335687577724457,-0.5353861451148987,-0.08240315318107605,-0.128437340259552,0.9853400588035583,0.10546858608722687,0.038537949323654175
1680005784856980141,10230,1680005784856820839,j2s6s300_link_base,0.17365330457687378,-0.5365738272666931,-0.08045890927314758,-0.12854357063770294,0.9854975938796997,0.10377933084964752,0.0387398861348629
1680005784957021988,10231,1680005784956857935,j2s6s300_link_base,0.1738976538181305,-0.5374237895011902,-0.07819682359695435,-0.12868855893611908,0.9855733513832092,0.10280564427375793,0.03892752155661583
1680005785057022253,10232,1680005785056859755,j2s6s300_link_base,0.1742718517780304,-0.5386542081832886,-0.07405887544155121,-0.12895946204662323,0.9856504201889038,0.10160206258296967,0.0392393097281456
1680005785156961449,10233,1680005785156829778,j2s6s300_link_base,0.17459315061569214,-0.5400469899177551,-0.06829789280891418,-0.12924087047576904,0.9857091307640076,0.1005103662610054,0.03964920714497566
1680005785256981134,10234,1680005785256823150,j2s6s300_link_base,0.1747186928987503,-0.5405096411705017,-0.06311510503292084,-0.1295066475868225,0.9856396913528442,0.1007324606180191,0.03994164615869522
1680005785357001083,10235,1680005785356870384,j2s6s300_link_base,0.17483282089233398,-0.5409501194953918,-0.05946172773838043,-0.12968897819519043,0.9856303334236145,0.10050356388092041,0.04015649855136871
1680005785456962938,10236,1680005785456861652,j2s6s300_link_base,0.1748049557209015,-0.5406387448310852,-0.05730460584163666,-0.12980595231056213,0.9855672121047974,0.1009460985660553,0.04021872952580452
1680005785557027783,10237,1680005785556867260,j2s6s300_link_base,0.17477984726428986,-0.5404527187347412,-0.056069374084472656,-0.1298578828573227,0.985551655292511,0.10101912170648575,0.04024989902973175
1680005785657077507,10238,1680005785656872749,j2s6s300_link_base,0.17471611499786377,-0.5399889945983887,-0.05492030084133148,-0.1299424022436142,0.9854560494422913,0.10183685272932053,0.040255118161439896
1680005785757007361,10239,1680005785756849793,j2s6s300_link_base,0.17429696023464203,-0.5376336574554443,-0.0533691942691803,-0.13015101850032806,0.9849429130554199,0.10649134963750839,0.04009709879755974
1680005785857030865,10240,1680005785856854432,j2s6s300_link_base,0.1739341914653778,-0.5354343056678772,-0.050839707255363464,-0.1304374486207962,0.9843876361846924,0.11120755225419998,0.04000011831521988
1680005785957023502,10241,1680005785956860842,j2s6s300_link_base,0.17398415505886078,-0.53521728515625,-0.04644978046417236,-0.13076859712600708,0.9841896295547485,0.11249705404043198,0.04018481820821762
1680005786056977108,10242,1680005786056858669,j2s6s300_link_base,0.17412622272968292,-0.5354121327400208,-0.04273782670497894,-0.13105645775794983,0.9841086268424988,0.11280111968517303,0.04037855193018913
1680005786156952410,10243,1680005786156820999,j2s6s300_link_base,0.17426836490631104,-0.5357846021652222,-0.040477365255355835,-0.13122567534446716,0.9841174483299255,0.1124749481678009,0.040522124618291855
1680005786256953383,10244,1680005786256823928,j2s6s300_link_base,0.17434252798557281,-0.5360002517700195,-0.03941866755485535,-0.1313045769929886,0.9841312170028687,0.11223690211772919,0.040593221783638
1680005786356923023,10245,1680005786356837638,j2s6s300_link_base,0.17436833679676056,-0.5359913110733032,-0.03902450203895569,-0.13135391473770142,0.9841169714927673,0.11229892075061798,0.04060857743024826
1680005786456993544,10246,1680005786456857452,j2s6s300_link_base,0.17440469563007355,-0.5361090302467346,-0.038617461919784546,-0.1313844919204712,0.9841299653053284,0.11213730275630951,0.04063945263624191
1680005786557015859,10247,1680005786556849647,j2s6s300_link_base,0.17443908751010895,-0.5362733006477356,-0.03828977048397064,-0.13140152394771576,0.9841556549072266,0.11188008636236191,0.04067222401499748
1680005786656999153,10248,1680005786656857970,j2s6s300_link_base,0.17446903884410858,-0.5363900065422058,-0.03806057572364807,-0.131417915225029,0.9841736555099487,0.11169344931840897,0.04069497808814049
1680005786757028619,10249,1680005786756865081,j2s6s300_link_base,0.17446951568126678,-0.5363904237747192,-0.03804679214954376,-0.13142146170139313,0.984173059463501,0.11169489473104477,0.04069594293832779
1680005786856991265,10250,1680005786856858753,j2s6s300_link_base,0.17447368800640106,-0.536382794380188,-0.03804725408554077,-0.13142773509025574,0.9841710329055786,0.11170551180839539,0.04069489613175392
1680005786957004646,10251,1680005786956858439,j2s6s300_link_base,0.17452776432037354,-0.5363607406616211,-0.038048550486564636,-0.1314793825149536,0.9841632843017578,0.11171476542949677,0.04068881273269653
1680005787056992494,10252,1680005787056822818,j2s6s300_link_base,0.17452937364578247,-0.536353349685669,-0.03805208206176758,-0.13148315250873566,0.9841616153717041,0.11172495782375336,0.04068779572844505
1680005787156985664,10253,1680005787156858121,j2s6s300_link_base,0.17453619837760925,-0.5363438725471497,-0.038057565689086914,-0.13149192929267883,0.9841594099998474,0.1117350161075592,0.04068613797426224
1680005787256993164,10254,1680005787256861607,j2s6s300_link_base,0.17453575134277344,-0.5363321304321289,-0.03806768357753754,-0.13149309158325195,0.9841576814651489,0.11174993962049484,0.04068426042795181
1680005787356950410,10255,1680005787356858261,j2s6s300_link_base,0.1745329201221466,-0.5363208055496216,-0.038076251745224,-0.13149338960647583,0.9841560125350952,0.11176459491252899,0.04068278521299362
