%time,field.header.seq,field.header.stamp,field.header.frame_id,field.pose.position.x,field.pose.position.y,field.pose.position.z,field.pose.orientation.x,field.pose.orientation.y,field.pose.orientation.z,field.pose.orientation.w
1680006601557090696,18397,1680006601556880758,j2s6s300_link_base,-0.371717631816864,-0.5558294057846069,-0.03705152869224548,0.48566147685050964,0.8726029992103577,0.005701607093214989,0.051616549491882324
1680006601656802528,18398,1680006601656638672,j2s6s300_link_base,-0.371717631816864,-0.5558294057846069,-0.03705152869224548,0.48566147685050964,0.8726029992103577,0.005701607093214989,0.051616549491882324
1680006601756807208,18399,1680006601756638356,j2s6s300_link_base,-0.371717631816864,-0.5558294057846069,-0.03705152869224548,0.48566147685050964,0.8726029992103577,0.005701607093214989,0.051616549491882324
1680006601856771754,18400,1680006601856640810,j2s6s300_link_base,-0.37171798944473267,-0.5558298826217651,-0.03705115616321564,0.48566150665283203,0.8726030588150024,0.005700865760445595,0.05161644518375397
1680006601956800668,18401,1680006601956640619,j2s6s300_link_base,-0.37171798944473267,-0.5558298826217651,-0.03705115616321564,0.48566150665283203,0.8726030588150024,0.005700865760445595,0.05161644518375397
1680006602056826029,18402,1680006602056634321,j2s6s300_link_base,-0.37171798944473267,-0.5558298826217651,-0.03705115616321564,0.48566150665283203,0.8726030588150024,0.005700865760445595,0.05161644518375397
1680006602156813855,18403,1680006602156635453,j2s6s300_link_base,-0.37171798944473267,-0.5558298826217651,-0.03705115616321564,0.48566150665283203,0.8726030588150024,0.005700865760445595,0.05161644518375397
1680006602256799961,18404,1680006602256638931,j2s6s300_link_base,-0.3717183470726013,-0.5558303594589233,-0.037049874663352966,0.4856613874435425,0.872603178024292,0.005699958652257919,0.05161629617214203
1680006602356815923,18405,1680006602356641879,j2s6s300_link_base,-0.37172070145606995,-0.5558288097381592,-0.037049874663352966,0.4856632351875305,0.8726021647453308,0.005699818953871727,0.051616329699754715
1680006602456772929,18406,1680006602456638950,j2s6s300_link_base,-0.37171703577041626,-0.555831253528595,-0.037049874663352966,0.4856603443622589,0.8726037740707397,0.005700020119547844,0.051616277545690536
1680006602556839583,18407,1680006602556682328,j2s6s300_link_base,-0.37171560525894165,-0.5558314919471741,-0.03705115616321564,0.4856596291065216,0.8726041316986084,0.005701003596186638,0.05161641538143158
1680006602656797655,18408,1680006602656665113,j2s6s300_link_base,-0.371715784072876,-0.5558295845985413,-0.037053465843200684,0.48566049337387085,0.8726036548614502,0.0057030245661735535,0.05161676183342934
1680006602756801328,18409,1680006602756671512,j2s6s300_link_base,-0.3716944456100464,-0.5558366775512695,-0.03706531226634979,0.48564690351486206,0.8726111054420471,0.0057131387293338776,0.05161786824464798
1680006602856788926,18410,1680006602856667497,j2s6s300_link_base,-0.3716820478439331,-0.5558403134346008,-0.03707355260848999,0.4856393337249756,0.8726152181625366,0.005719676613807678,0.05161872133612633
1680006602956821778,18411,1680006602956670053,j2s6s300_link_base,-0.3716675639152527,-0.5558192729949951,-0.03712718188762665,0.48564228415489197,0.8726127743721008,0.005759768187999725,0.051625266671180725
1680006603056854010,18412,1680006603056638338,j2s6s300_link_base,-0.37140488624572754,-0.5554691553115845,-0.03767281770706177,0.4856651723384857,0.8725911974906921,0.00635438971221447,0.051706463098526
1680006603156792705,18413,1680006603156638382,j2s6s300_link_base,-0.3703037202358246,-0.5539996027946472,-0.04022568464279175,0.4857616126537323,0.8724943399429321,0.00891270861029625,0.05205594375729561
1680006603256804603,18414,1680006603256636746,j2s6s300_link_base,-0.368594765663147,-0.5517215728759766,-0.04461166262626648,0.4859073758125305,0.8723293542861938,0.012959550134837627,0.05260744318366051
1680006603356731412,18415,1680006603356632196,j2s6s300_link_base,-0.3671189844608307,-0.5497432351112366,-0.048874497413635254,0.4860466718673706,0.8721646070480347,0.01645883172750473,0.053072284907102585
1680006603456772777,18416,1680006603456638315,j2s6s300_link_base,-0.36616086959838867,-0.5484545230865479,-0.05178371071815491,0.48613715171813965,0.8720495104789734,0.01874633878469467,0.05337493121623993
1680006603556697215,18417,1680006603556602152,j2s6s300_link_base,-0.36593055725097656,-0.5480599403381348,-0.0540594607591629,0.4863085150718689,0.8719542622566223,0.01893305405974388,0.05330228805541992
1680006603656784143,18418,1680006603656637657,j2s6s300_link_base,-0.36810702085494995,-0.5505977869033813,-0.05576865375041962,0.4867941439151764,0.8718820214271545,0.012317980639636517,0.05197468400001526
1680006603756746229,18419,1680006603756637811,j2s6s300_link_base,-0.37178805470466614,-0.5550171136856079,-0.05726739764213562,0.4874390959739685,0.8717362284660339,0.001158200204372406,0.049776703119277954
1680006603856822191,18420,1680006603856671498,j2s6s300_link_base,-0.3739185333251953,-0.5576087236404419,-0.05942028760910034,0.48784351348876953,0.8715710639953613,-0.005627842620015144,0.04838203638792038
1680006603956824018,18421,1680006603956672414,j2s6s300_link_base,-0.3745270371437073,-0.5586511492729187,-0.06252418458461761,0.48798006772994995,0.8715091943740845,-0.008499212563037872,0.04769859090447426
1680006604056843761,18422,1680006604056671691,j2s6s300_link_base,-0.37433984875679016,-0.5585011839866638,-0.0658467710018158,0.48811185359954834,0.8714432716369629,-0.008758030831813812,0.047505684196949005
1680006604156816127,18423,1680006604156671336,j2s6s300_link_base,-0.37429410219192505,-0.5584527254104614,-0.06771129369735718,0.48820582032203674,0.8713950514793396,-0.009033028036355972,0.04737302288413048
1680006604256800035,18424,1680006604256670723,j2s6s300_link_base,-0.3745206296443939,-0.5587100386619568,-0.06887182593345642,0.4883003830909729,0.8713444471359253,-0.00992116704583168,0.04715201258659363
1680006604356815789,18425,1680006604356674471,j2s6s300_link_base,-0.37463289499282837,-0.5588372349739075,-0.06945119798183441,0.4883471727371216,0.8713189363479614,-0.010362664237618446,0.0470418781042099
1680006604456828354,18426,1680006604456667774,j2s6s300_link_base,-0.37454792857170105,-0.5588778257369995,-0.06991134583950043,0.4883122742176056,0.8713394403457642,-0.010436007753014565,0.047008804976940155
1680006604556837227,18427,1680006604556672742,j2s6s300_link_base,-0.37371909618377686,-0.5596732497215271,-0.07020114362239838,0.48759666085243225,0.87173992395401,-0.01083536446094513,0.046920932829380035
1680006604656813723,18428,1680006604656635626,j2s6s300_link_base,-0.37387803196907043,-0.5624027252197266,-0.07051241397857666,0.4867316484451294,0.8722025156021118,-0.015269454568624496,0.046065881848335266
1680006604756809619,18429,1680006604756677654,j2s6s300_link_base,-0.3758666217327118,-0.5680733323097229,-0.07052704691886902,0.4857732057571411,0.8725844025611877,-0.02614263817667961,0.04401569068431854
1680006604856748504,18430,1680006604856636586,j2s6s300_link_base,-0.3759549558162689,-0.5722757577896118,-0.07133446633815765,0.48435190320014954,0.8732072710990906,-0.032969482243061066,0.042726002633571625
1680006604956882691,18431,1680006604956668500,j2s6s300_link_base,-0.3747060298919678,-0.5749853849411011,-0.07364565134048462,0.4828327000141144,0.873944878578186,-0.03642502427101135,0.04202381521463394
1680006605056863945,18432,1680006605056663703,j2s6s300_link_base,-0.3724523186683655,-0.5767306685447693,-0.07595133781433105,0.4811316132545471,0.8748541474342346,-0.03734651952981949,0.041807301342487335
1680006605156713855,18433,1680006605156633165,j2s6s300_link_base,-0.36992743611335754,-0.5782240629196167,-0.07758505642414093,0.4793427884578705,0.8758322596549988,-0.03746059536933899,0.04177287966012955
1680006605256791914,18434,1680006605256624840,j2s6s300_link_base,-0.36800357699394226,-0.57929527759552,-0.07872562110424042,0.4779975116252899,0.8765681385993958,-0.03743983805179596,0.04177096486091614
1680006605356800430,18435,1680006605356630468,j2s6s300_link_base,-0.36650973558425903,-0.5800690054893494,-0.07945699989795685,0.47696560621261597,0.8771344423294067,-0.03731260821223259,0.04179510846734047
1680006605457874807,18436,1680006605457626820,j2s6s300_link_base,-0.36527419090270996,-0.5805476307868958,-0.08001932501792908,0.47616851329803467,0.8775789737701416,-0.03697163239121437,0.04185512661933899
1680006605556781040,18437,1680006605556628020,j2s6s300_link_base,-0.3644573390483856,-0.5808740854263306,-0.08044721186161041,0.47563862800598145,0.8778733015060425,-0.03676356375217438,0.04189017787575722
1680006605656798869,18438,1680006605656636579,j2s6s300_link_base,-0.3627719581127167,-0.581713855266571,-0.08084912598133087,0.4744609296321869,0.8785191774368286,-0.03646800294518471,0.04196342080831528
1680006605756762097,18439,1680006605756639274,j2s6s300_link_base,-0.35883811116218567,-0.5839630961418152,-0.08122718334197998,0.47157713770866394,0.8800780177116394,-0.03612815588712692,0.04210072010755539
1680006605856772986,18440,1680006605856669681,j2s6s300_link_base,-0.355287104845047,-0.5860539674758911,-0.08139966428279877,0.4689389765262604,0.8814895153045654,-0.03592286631464958,0.04221443086862564
1680006605956804227,18441,1680006605956643279,j2s6s300_link_base,-0.3526518642902374,-0.5876264572143555,-0.08144453167915344,0.4669667184352875,0.8825365304946899,-0.03581242263317108,0.04229523986577988
1680006606056822710,18442,1680006606056631893,j2s6s300_link_base,-0.35017725825309753,-0.5890829563140869,-0.08149091899394989,0.4651193916797638,0.8835123181343079,-0.035700809210538864,0.04237182438373566
1680006606156805258,18443,1680006606156640922,j2s6s300_link_base,-0.34637701511383057,-0.5912871360778809,-0.0815640389919281,0.46228915452957153,0.8849980235099792,-0.035521283745765686,0.04248964041471481
1680006606256805034,18444,1680006606256634808,j2s6s300_link_base,-0.34086161851882935,-0.5943958163261414,-0.08172355592250824,0.45820507407188416,0.887123167514801,-0.03522219881415367,0.042662013322114944
1680006606356841050,18445,1680006606356675761,j2s6s300_link_base,-0.3336864113807678,-0.5984889268875122,-0.0817539244890213,0.452849417924881,0.889866828918457,-0.03503045812249184,0.042861200869083405
1680006606456843466,18446,1680006606456676836,j2s6s300_link_base,-0.32796353101730347,-0.601690948009491,-0.08176295459270477,0.44858625531196594,0.892021119594574,-0.03490561619400978,0.04301612451672554
1680006606556801023,18447,1680006606556674839,j2s6s300_link_base,-0.32328304648399353,-0.6042371392250061,-0.08176301419734955,0.44511476159095764,0.8937574028968811,-0.03476925194263458,0.04314706474542618
1680006606656830577,18448,1680006606656670315,j2s6s300_link_base,-0.3190775513648987,-0.6064819097518921,-0.08176316320896149,0.44200417399406433,0.895298957824707,-0.03464166074991226,0.043265603482723236
1680006606756817085,18449,1680006606756674981,j2s6s300_link_base,-0.31016436219215393,-0.6110889315605164,-0.0817679613828659,0.43543756008148193,0.8985111117362976,-0.03432632237672806,0.04351646453142166
1680006606856834972,18450,1680006606856669382,j2s6s300_link_base,-0.30041173100471497,-0.6160010099411011,-0.08177225291728973,0.4282648265361786,0.9019486904144287,-0.03408050537109375,0.043775878846645355
1680006606956910557,18451,1680006606956677947,j2s6s300_link_base,-0.2930009365081787,-0.6195984482765198,-0.08177120983600616,0.42283618450164795,0.9045042991638184,-0.03388235718011856,0.04397229850292206
1680006607056798179,18452,1680006607056640748,j2s6s300_link_base,-0.287213534116745,-0.6223089098930359,-0.08177046477794647,0.41861554980278015,0.9064649343490601,-0.033688947558403015,0.04412944242358208
1680006607156803681,18453,1680006607156640512,j2s6s300_link_base,-0.27634358406066895,-0.6272162199020386,-0.08177067339420319,0.4107111692428589,0.9100733995437622,-0.033311277627944946,0.04441805183887482
1680006607256796546,18454,1680006607256640425,j2s6s300_link_base,-0.26535865664482117,-0.6319457292556763,-0.08177360892295837,0.4027545154094696,0.9136223196983337,-0.03293045610189438,0.04470507800579071
1680006607356796074,18455,1680006607356641455,j2s6s300_link_base,-0.257391095161438,-0.6352317929267883,-0.08177456259727478,0.39700254797935486,0.9161365032196045,-0.032648373395204544,0.044911183416843414
1680006607456796482,18456,1680006607456637050,j2s6s300_link_base,-0.2498205453157425,-0.6382463574409485,-0.08177495002746582,0.39154958724975586,0.9184802770614624,-0.03238002210855484,0.04510442912578583
1680006607556795824,18457,1680006607556630002,j2s6s300_link_base,-0.24247606098651886,-0.6410693526268005,-0.0817769467830658,0.38627129793167114,0.9207126498222351,-0.03211705759167671,0.04528960585594177
1680006607656787064,18458,1680006607656641372,j2s6s300_link_base,-0.2346431314945221,-0.6439751386642456,-0.08177840709686279,0.38065290451049805,0.9230497479438782,-0.031837884336709976,0.04548456519842148
1680006607756762731,18459,1680006607756641605,j2s6s300_link_base,-0.22708827257156372,-0.6466736197471619,-0.0817817747592926,0.37524473667144775,0.9252616763114929,-0.031566083431243896,0.04567009210586548
1680006607856763908,18460,1680006607856632950,j2s6s300_link_base,-0.21820996701717377,-0.6497169137001038,-0.0817863941192627,0.36890149116516113,0.9278092980384827,-0.031245511025190353,0.0458851084113121
1680006607956737787,18461,1680006607956643664,j2s6s300_link_base,-0.20968236029148102,-0.6524906158447266,-0.08180370926856995,0.362826406955719,0.9302029013633728,-0.030912714079022408,0.04608820751309395
1680006608056793547,18462,1680006608056639059,j2s6s300_link_base,-0.2031169831752777,-0.654547929763794,-0.08181384205818176,0.35815420746803284,0.9320123195648193,-0.03066296875476837,0.04624250531196594
1680006608156811590,18463,1680006608156642655,j2s6s300_link_base,-0.1947399377822876,-0.6569972038269043,-0.08187256753444672,0.35221990942955017,0.9342746734619141,-0.030264962464571,0.04643337056040764
1680006608256774900,18464,1680006608256637968,j2s6s300_link_base,-0.18304507434368134,-0.6593038439750671,-0.0825367271900177,0.3441993296146393,0.937298059463501,-0.02868238463997841,0.04665370285511017
1680006608356811574,18465,1680006608356644224,j2s6s300_link_base,-0.17352183163166046,-0.6601700782775879,-0.08361105620861053,0.3378901183605194,0.9396507143974304,-0.02643962949514389,0.046774543821811676
1680006608456766471,18466,1680006608456637712,j2s6s300_link_base,-0.16408158838748932,-0.6590139269828796,-0.08583575487136841,0.3320990800857544,0.9418249726295471,-0.022118251770734787,0.04676227644085884
1680006608556749452,18467,1680006608556643108,j2s6s300_link_base,-0.14889885485172272,-0.6589407920837402,-0.08809567987918854,0.3221520185470581,0.9453706741333008,-0.017478154972195625,0.04676291346549988
1680006608656807511,18468,1680006608656642729,j2s6s300_link_base,-0.1338784396648407,-0.6590014696121216,-0.09001563489437103,0.31210920214653015,0.9488024115562439,-0.01341889426112175,0.04671071469783783
1680006608756824359,18469,1680006608756646839,j2s6s300_link_base,-0.12258490175008774,-0.6590684652328491,-0.09129652380943298,0.3044474720954895,0.9513271450996399,-0.010642379522323608,0.04663862660527229
1680006608856794502,18470,1680006608856642866,j2s6s300_link_base,-0.11311588436365128,-0.6595271825790405,-0.0920332819223404,0.29787275195121765,0.9534258246421814,-0.008930888026952744,0.04659741744399071
1680006608956788714,18471,1680006608956642325,j2s6s300_link_base,-0.10248104482889175,-0.660414457321167,-0.09254071116447449,0.29035520553588867,0.9557543396949768,-0.0076059745624661446,0.0465802326798439
1680006609056801921,18472,1680006609056643781,j2s6s300_link_base,-0.0922091007232666,-0.6608378887176514,-0.09318900108337402,0.283126562833786,0.9579349756240845,-0.006025382317602634,0.04651545360684395
1680006609156775662,18473,1680006609156644529,j2s6s300_link_base,-0.08275943249464035,-0.6604952216148376,-0.09413151443004608,0.27656131982803345,0.9598690271377563,-0.003911156207323074,0.046367473900318146
1680006609256792131,18474,1680006609256662610,j2s6s300_link_base,-0.07343962043523788,-0.660263180732727,-0.09491650760173798,0.2700132131576538,0.9617441296577454,-0.0020935311913490295,0.046224988996982574
1680006609356808591,18475,1680006609356676231,j2s6s300_link_base,-0.06349331140518188,-0.66019606590271,-0.09555985033512115,0.2629401981830597,0.9637104868888855,-0.00051877461373806,0.04609045386314392
1680006609456811754,18476,1680006609456670962,j2s6s300_link_base,-0.053014472126960754,-0.6600003242492676,-0.09621328115463257,0.25544974207878113,0.9657301902770996,0.0010969927534461021,0.04592852294445038
1680006609556827847,18477,1680006609556671721,j2s6s300_link_base,-0.04488448053598404,-0.6596218943595886,-0.09678374230861664,0.24958807229995728,0.9672685861587524,0.0024679554626345634,0.04572969675064087
1680006609656798323,18478,1680006609656669214,j2s6s300_link_base,-0.03779751807451248,-0.658662736415863,-0.09759512543678284,0.24453206360340118,0.9685654640197754,0.0042711542919278145,0.04546035826206207
1680006609756789760,18479,1680006609756678528,j2s6s300_link_base,-0.029334058985114098,-0.6574416160583496,-0.09854435920715332,0.23721355199813843,0.9703922271728516,0.00632640952244401,0.04503954201936722
1680006609856826378,18480,1680006609856683318,j2s6s300_link_base,-0.02012571319937706,-0.6560518145561218,-0.09953193366527557,0.21998462080955505,0.9744419455528259,0.008078368380665779,0.04477005824446678
1680006609956824761,18481,1680006609956678487,j2s6s300_link_base,-0.008614746853709221,-0.6543315052986145,-0.10064569115638733,-0.19562216103076935,-0.9796246886253357,-0.009913892485201359,-0.044374555349349976
1680006610056795278,18482,1680006610056641027,j2s6s300_link_base,0.0012262817472219467,-0.6525092720985413,-0.101692795753479,-0.1691146045923233,-0.9845377206802368,-0.011459375731647015,-0.044208183884620667
1680006610156773611,18483,1680006610156644631,j2s6s300_link_base,0.008357809856534004,-0.6511090397834778,-0.1024344265460968,-0.1484820693731308,-0.9878497123718262,-0.012508293613791466,-0.04415310174226761
1680006610256813069,18484,1680006610256635496,j2s6s300_link_base,0.015691889449954033,-0.6493195295333862,-0.10333870351314545,-0.13377512991428375,-0.9899329543113708,-0.014177590608596802,-0.04400034621357918
1680006610356821497,18485,1680006610356678177,j2s6s300_link_base,0.024788226932287216,-0.6465629935264587,-0.10467411577701569,-0.12119990587234497,-0.9915214776992798,-0.01696338877081871,-0.043679799884557724
1680006610456814190,18486,1680006610456677977,j2s6s300_link_base,0.03638794273138046,-0.6424159407615662,-0.10659487545490265,-0.1090112254023552,-0.9928851127624512,-0.02115388587117195,-0.04299140349030495
1680006610556776853,18487,1680006610556644731,j2s6s300_link_base,0.04545949399471283,-0.6369761824607849,-0.10912124812602997,-0.09945917874574661,-0.9937894940376282,-0.026653800159692764,-0.04218801483511925
1680006610656806862,18488,1680006610656646525,j2s6s300_link_base,0.05082970857620239,-0.6316055655479431,-0.11160621047019958,-0.08308639377355576,-0.9951618313789368,-0.0317058265209198,-0.04176541045308113
1680006610756803169,18489,1680006610756646219,j2s6s300_link_base,0.05447078123688698,-0.6269590854644775,-0.11373065412044525,-0.05859112739562988,-0.9967655539512634,-0.0356176495552063,-0.04191497340798378
1680006610856798365,18490,1680006610856644891,j2s6s300_link_base,0.05673680454492569,-0.622952401638031,-0.11523807048797607,-0.037199173122644424,-0.997655987739563,-0.03892046958208084,-0.04223772883415222
1680006610956829375,18491,1680006610956681666,j2s6s300_link_base,0.05855203792452812,-0.6203696131706238,-0.11583501100540161,-0.023174796253442764,-0.9979872703552246,-0.04095706716179848,-0.0425078421831131
1680006611056717407,18492,1680006611056633618,j2s6s300_link_base,0.06269640475511551,-0.6183565855026245,-0.1161680519580841,-0.013014695607125759,-0.9981065988540649,-0.04246734827756882,-0.042549557983875275
1680006611156773783,18493,1680006611156679765,j2s6s300_link_base,0.06752430647611618,-0.6170135140419006,-0.11625409126281738,-0.004653307609260082,-0.9981464743614197,-0.04328831657767296,-0.04252193868160248
1680006611256802948,18494,1680006611256673960,j2s6s300_link_base,0.07083231955766678,-0.6160098910331726,-0.11588230729103088,-0.000688034575432539,0.9981338381767273,0.04385581985116005,0.042486730962991714
1680006611356756369,18495,1680006611356646621,j2s6s300_link_base,0.07509350031614304,-0.6115269660949707,-0.11635549366474152,-0.005585882812738419,0.9979127049446106,0.04857461154460907,0.04218493029475212
1680006611456797914,18496,1680006611456672138,j2s6s300_link_base,0.08258549124002457,-0.6038068532943726,-0.11630742251873016,-0.012841125018894672,0.9974061846733093,0.05732195824384689,0.04159428924322128
1680006611556784746,18497,1680006611556662779,j2s6s300_link_base,0.08860170841217041,-0.5966270565986633,-0.11425641179084778,-0.018512442708015442,0.9968110918998718,0.06587854772806168,0.04104858636856079
1680006611656806721,18498,1680006611656674757,j2s6s300_link_base,0.0916115790605545,-0.5871431231498718,-0.11337995529174805,-0.021880635991692543,0.9959983825683594,0.07668900489807129,0.04034155607223511
1680006611756792976,18499,1680006611756628594,j2s6s300_link_base,0.09369733929634094,-0.5773410201072693,-0.11438073217868805,-0.024318963289260864,0.9951282143592834,0.08700371533632278,0.03948351740837097
1680006611856795405,18500,1680006611856636554,j2s6s300_link_base,0.09601625800132751,-0.5706584453582764,-0.11481055617332458,-0.0325801856815815,0.9943123459815979,0.09345225244760513,0.03934723138809204
1680006611956812650,18501,1680006611956635874,j2s6s300_link_base,0.10031116008758545,-0.5664583444595337,-0.11414463818073273,-0.04942239448428154,0.9932884573936462,0.09662514179944992,0.03998807072639465
1680006612059907989,18502,1680006612059680327,j2s6s300_link_base,0.1056196317076683,-0.5633599758148193,-0.11336171627044678,-0.0636356770992279,0.9922666549682617,0.09864268451929092,0.04033740609884262
1680006612156753796,18503,1680006612156624582,j2s6s300_link_base,0.10971206426620483,-0.5595921277999878,-0.11340409517288208,-0.07237639278173447,0.9913692474365234,0.10161979496479034,0.04027536138892174
1680006612256895189,18504,1680006612256650158,j2s6s300_link_base,0.11334169656038284,-0.5550051927566528,-0.11367525160312653,-0.07950171828269958,0.9904359579086304,0.10541323572397232,0.040048714727163315
1680006612356795650,18505,1680006612356650096,j2s6s300_link_base,0.11720401793718338,-0.5511143207550049,-0.11332905292510986,-0.08524198085069656,0.9896550178527832,0.10836128890514374,0.03968064486980438
1680006612456756990,18506,1680006612456616114,j2s6s300_link_base,0.1194123849272728,-0.5469503998756409,-0.11304627358913422,-0.0884595736861229,0.9889994859695435,0.11185307055711746,0.03929133340716362
1680006612556852027,18507,1680006612556666123,j2s6s300_link_base,0.1209501102566719,-0.5430033206939697,-0.11205986142158508,-0.09091468155384064,0.9884212613105774,0.11506728082895279,0.03895253688097
1680006612656802349,18508,1680006612656673079,j2s6s300_link_base,0.12369853258132935,-0.5390982031822205,-0.11082521080970764,-0.09442925453186035,0.987770140171051,0.11794658750295639,0.03849564120173454
1680006612756799954,18509,1680006612756681533,j2s6s300_link_base,0.1294930875301361,-0.5335229635238647,-0.11044494807720184,-0.10594575852155685,0.9861466884613037,0.12178012728691101,0.03820843994617462
1680006612856758271,18510,1680006612856638985,j2s6s300_link_base,0.13599206507205963,-0.5279417634010315,-0.1108117401599884,-0.12642493844032288,0.983269989490509,0.12523823976516724,0.038885995745658875
1680006612956804317,18511,1680006612956678691,j2s6s300_link_base,0.1423768252134323,-0.5235393047332764,-0.11090308427810669,-0.14388225972652435,0.9805486798286438,0.12757030129432678,0.03934527933597565
1680006613056827384,18512,1680006613056694107,j2s6s300_link_base,0.14794860780239105,-0.5203970074653625,-0.110958993434906,-0.1560077667236328,0.9785027503967285,0.12899808585643768,0.039415352046489716
1680006613156771319,18513,1680006613156680871,j2s6s300_link_base,0.15193644165992737,-0.5184056162834167,-0.11090223491191864,-0.16389711201190948,0.9771138429641724,0.12974964082241058,0.039386995136737823
1680006613256715055,18514,1680006613256616541,j2s6s300_link_base,0.15634147822856903,-0.5165594816207886,-0.1109706312417984,-0.17008879780769348,0.9759892225265503,0.13034550845623016,0.03905152902007103
1680006613356804857,18515,1680006613356649969,j2s6s300_link_base,0.16365355253219604,-0.513878583908081,-0.11106431484222412,-0.17811141908168793,0.9745049476623535,0.13097669184207916,0.03822806477546692
1680006613456734304,18516,1680006613456641643,j2s6s300_link_base,0.17010590434074402,-0.5116064548492432,-0.1110449731349945,-0.18473078310489655,0.97325199842453,0.1313493549823761,0.037449877709150314
1680006613556712111,18517,1680006613556643399,j2s6s300_link_base,0.17635510861873627,-0.5094951391220093,-0.11095081269741058,-0.19104862213134766,0.9720355868339539,0.13153178989887238,0.03669729083776474
1680006613656788481,18518,1680006613656661388,j2s6s300_link_base,0.18082308769226074,-0.5079470276832581,-0.11091583967208862,-0.19540973007678986,0.9711716771125793,0.13166195154190063,0.036135390400886536
1680006613756807238,18519,1680006613756674318,j2s6s300_link_base,0.1835879385471344,-0.5069773197174072,-0.1108827143907547,-0.1981160193681717,0.9706270098686218,0.13172878324985504,0.03578856959939003
1680006613856811913,18520,1680006613856681669,j2s6s300_link_base,0.1857193261384964,-0.5062161684036255,-0.11086034774780273,-0.200195774435997,0.9702027440071106,0.1317828893661499,0.035519156605005264
1680006613956847824,18521,1680006613956682791,j2s6s300_link_base,0.1868547797203064,-0.5058275461196899,-0.11082178354263306,-0.20131629705429077,0.969975471496582,0.1317857801914215,0.035381533205509186
1680006614056847564,18522,1680006614056670777,j2s6s300_link_base,0.18812766671180725,-0.5056634545326233,-0.11041493713855743,-0.20249825716018677,0.9697783589363098,0.13145703077316284,0.035263121128082275
1680006614156815559,18523,1680006614156681235,j2s6s300_link_base,0.19255143404006958,-0.5044226050376892,-0.10985557734966278,-0.2066817283630371,0.9689629077911377,0.1310947984457016,0.03475207835435867
1680006614256819798,18524,1680006614256686602,j2s6s300_link_base,0.19714656472206116,-0.5027135610580444,-0.10976542532444,-0.21110126376152039,0.9680206179618835,0.131168395280838,0.034164734184741974
1680006614356845570,18525,1680006614356682278,j2s6s300_link_base,0.1988915503025055,-0.5020952820777893,-0.10967396199703217,-0.21277384459972382,0.967665433883667,0.1311434954404831,0.03394705057144165
1680006614456785631,18526,1680006614456649609,j2s6s300_link_base,0.20037519931793213,-0.5015202164649963,-0.10965557396411896,-0.21420268714427948,0.9673523902893066,0.13117633759975433,0.03375570848584175
1680006614556815642,18527,1680006614556682864,j2s6s300_link_base,0.20130586624145508,-0.5011450052261353,-0.10965786874294281,-0.21510329842567444,0.9671521186828613,0.13121022284030914,0.0336327999830246
1680006614656825778,18528,1680006614656638460,j2s6s300_link_base,0.20200106501579285,-0.5008651614189148,-0.10965786874294281,-0.2157767117023468,0.9670020937919617,0.13123340904712677,0.033542074263095856
1680006614756785295,18529,1680006614756650025,j2s6s300_link_base,0.20260785520076752,-0.5006171464920044,-0.10966074466705322,-0.2163642942905426,0.9668703675270081,0.1312568634748459,0.03346223756670952
1680006614856767275,18530,1680006614856645260,j2s6s300_link_base,0.2028837352991104,-0.5004985928535461,-0.10966761410236359,-0.21663446724414825,0.9668089747428894,0.13127368688583374,0.033425383269786835
1680006614956812818,18531,1680006614956682593,j2s6s300_link_base,0.2032131850719452,-0.5003630518913269,-0.10966731607913971,-0.2169530689716339,0.9667373299598694,0.13128624856472015,0.03338189795613289
1680006615056837616,18532,1680006615056673067,j2s6s300_link_base,0.20325809717178345,-0.5003741979598999,-0.10963109135627747,-0.2169918268918991,0.9667330980300903,0.1312529295682907,0.03338083252310753
1680006615156806574,18533,1680006615156683826,j2s6s300_link_base,0.20336942374706268,-0.5006893873214722,-0.10916036367416382,-0.21703143417835236,0.9667807221412659,0.1308252364397049,0.03342197835445404
1680006615256796418,18534,1680006615256679629,j2s6s300_link_base,0.20385687053203583,-0.5021333694458008,-0.1069917380809784,-0.21718229353427887,0.9670017957687378,0.12887530028820038,0.033621612936258316
1680006615356855281,18535,1680006615356682510,j2s6s300_link_base,0.20513620972633362,-0.506518542766571,-0.1003158688545227,-0.21755649149417877,0.9676640033721924,0.12299232184886932,0.03418075293302536
1680006615456791277,18536,1680006615456682114,j2s6s300_link_base,0.19996672868728638,-0.5147943496704102,-0.09119400382041931,-0.21489974856376648,0.9693131446838379,0.11469718813896179,0.033084478229284286
1680006615556818842,18537,1680006615556684510,j2s6s300_link_base,0.19118881225585938,-0.5210378170013428,-0.08372180163860321,-0.21021850407123566,0.9708189368247986,0.11104201525449753,0.031439073383808136
1680006615656843920,18538,1680006615656686605,j2s6s300_link_base,0.18336302042007446,-0.5204781889915466,-0.07927240431308746,-0.2060977667570114,0.9712444543838501,0.11529359221458435,0.030254095792770386
1680006615756809787,18539,1680006615756683441,j2s6s300_link_base,0.1777612715959549,-0.5160067081451416,-0.07713237404823303,-0.20330022275447845,0.971034824848175,0.12203169614076614,0.029470127075910568
1680006615856820217,18540,1680006615856688412,j2s6s300_link_base,0.1744040697813034,-0.5132917761802673,-0.0757497102022171,-0.20152993500232697,0.9709606766700745,0.12560482323169708,0.02906036376953125
1680006615956830119,18541,1680006615956682698,j2s6s300_link_base,0.172027587890625,-0.5114454030990601,-0.07512320578098297,-0.20025040209293365,0.9708920121192932,0.12821990251541138,0.02877667173743248
1680006616056842604,18542,1680006616056684611,j2s6s300_link_base,0.17091694474220276,-0.5110384821891785,-0.07381671667098999,-0.19966818392276764,0.9709524512290955,0.12869949638843536,0.02864254079759121
1680006616156805479,18543,1680006616156679011,j2s6s300_link_base,0.1708075851202011,-0.5128723978996277,-0.06978343427181244,-0.19960077106952667,0.9713357090950012,0.12587501108646393,0.028673436492681503
1680006616256837151,18544,1680006616256688066,j2s6s300_link_base,0.17085926234722137,-0.5154321193695068,-0.06492160260677338,-0.19937600195407867,0.9718601703643799,0.12206873297691345,0.028917847201228142
1680006616356843967,18545,1680006616356689086,j2s6s300_link_base,0.17114578187465668,-0.5166890025138855,-0.06189936399459839,-0.19947874546051025,0.9720901846885681,0.12001854181289673,0.029058381915092468
1680006616456803749,18546,1680006616456679747,j2s6s300_link_base,0.1711113005876541,-0.5171398520469666,-0.06049653887748718,-0.19940337538719177,0.9722018241882324,0.11922100186347961,0.029126357287168503
1680006616556817328,18547,1680006616556685187,j2s6s300_link_base,0.17103253304958344,-0.5176595449447632,-0.05947160720825195,-0.19926711916923523,0.972320020198822,0.11846490949392319,0.029196683317422867
1680006616656817052,18548,1680006616656680785,j2s6s300_link_base,0.17109271883964539,-0.5182228684425354,-0.05848187208175659,-0.1992446333169937,0.9724229574203491,0.1176399514079094,0.029256517067551613
1680006616756812107,18549,1680006616756691361,j2s6s300_link_base,0.1711738556623459,-0.5185254812240601,-0.05788341164588928,-0.19927623867988586,0.9724717736244202,0.11717507988214493,0.029287099838256836
1680006616856813104,18550,1680006616856681814,j2s6s300_link_base,0.17122846841812134,-0.5187453031539917,-0.05744282901287079,-0.19930236041545868,0.9725066423416138,0.11683623492717743,0.02930413745343685
1680006616956776360,18551,1680006616956685123,j2s6s300_link_base,0.17125582695007324,-0.5189229249954224,-0.05709944665431976,-0.19932809472084045,0.9725333452224731,0.11657045781612396,0.029304485768079758
1680006617056818124,18552,1680006617056680214,j2s6s300_link_base,0.17122535407543182,-0.5189383029937744,-0.05705808103084564,-0.1993609219789505,0.9725300073623657,0.11655284464359283,0.0292590893805027
1680006617156812322,18553,1680006617156678122,j2s6s300_link_base,0.17122061550617218,-0.5189284682273865,-0.05703777074813843,-0.1993640661239624,0.9725285768508911,0.11656027287244797,0.029255222529172897
1680006617256768357,18554,1680006617256645558,j2s6s300_link_base,0.1712275892496109,-0.5189620852470398,-0.05696937441825867,-0.19936928153038025,0.9725337624549866,0.11650768667459488,0.029256999492645264
1680006617356778506,18555,1680006617356642230,j2s6s300_link_base,0.171260803937912,-0.5190857648849487,-0.0567435622215271,-0.19938184320926666,0.9725539088249207,0.11631488800048828,0.029268629848957062
1680006617456883327,18556,1680006617456652123,j2s6s300_link_base,0.17126694321632385,-0.5191102027893066,-0.05669665336608887,-0.19938628375530243,0.972557544708252,0.11627669632434845,0.02927030436694622
1680006617556720317,18557,1680006617556629556,j2s6s300_link_base,0.17126688361167908,-0.5191099643707275,-0.05669187009334564,-0.19938640296459198,0.9725576043128967,0.11627595126628876,0.029270397499203682
1680006617656811860,18558,1680006617656652339,j2s6s300_link_base,0.17130699753761292,-0.5192533135414124,-0.05637678503990173,-0.1994049847126007,0.9725781083106995,0.11606782674789429,0.02928643859922886
1680006617756845332,18559,1680006617756652782,j2s6s300_link_base,0.17171140015125275,-0.5207844376564026,-0.05326339602470398,-0.19957445561885834,0.972813606262207,0.11374175548553467,0.02943623624742031
1680006617856802634,18560,1680006617856656739,j2s6s300_link_base,0.1718623787164688,-0.5233989357948303,-0.04892110824584961,-0.19949962198734283,0.973270058631897,0.10986253619194031,0.02959110401570797
1680006617956762958,18561,1680006617956643165,j2s6s300_link_base,0.1722944676876068,-0.5250297784805298,-0.04592400789260864,-0.1996680349111557,0.9735212922096252,0.10725998133420944,0.02973749488592148
1680006618056795394,18562,1680006618056640646,j2s6s300_link_base,0.17261852324008942,-0.5260747075080872,-0.043800339102745056,-0.1998104751110077,0.9736714363098145,0.10558846592903137,0.02984573319554329
1680006618156822372,18563,1680006618156682310,j2s6s300_link_base,0.1728062480688095,-0.5267316102981567,-0.04252195358276367,-0.19988317787647247,0.9737680554389954,0.10453534871339798,0.029913978651165962
1680006618256805078,18564,1680006618256635810,j2s6s300_link_base,0.17285452783107758,-0.5269066691398621,-0.04196225106716156,-0.19990544021129608,0.9738008379936218,0.10418035089969635,0.029937855899333954
1680006618356808014,18565,1680006618356641925,j2s6s300_link_base,0.1728857010602951,-0.5270278453826904,-0.041494786739349365,-0.19992151856422424,0.973827064037323,0.10389814525842667,0.029955163598060608
1680006618456800665,18566,1680006618456637809,j2s6s300_link_base,0.17296504974365234,-0.5273193717002869,-0.04094071686267853,-0.19994916021823883,0.9738712906837463,0.10342094302177429,0.029985491186380386
1680006618556920194,18567,1680006618556644160,j2s6s300_link_base,0.17303867638111115,-0.5275872349739075,-0.04040747880935669,-0.1999761462211609,0.9739104509353638,0.10299082845449448,0.030014442279934883
1680006618656752712,18568,1680006618656629739,j2s6s300_link_base,0.17320816218852997,-0.5282188057899475,-0.03919126093387604,-0.20003467798233032,0.9740036725997925,0.10197075456380844,0.0300814937800169
1680006618756755793,18569,1680006618756624421,j2s6s300_link_base,0.17349384725093842,-0.5292907357215881,-0.037164896726608276,-0.2001303881406784,0.974163293838501,0.10020960867404938,0.03019334003329277
1680006618856821448,18570,1680006618856643340,j2s6s300_link_base,0.17367962002754211,-0.5299884080886841,-0.035821929574012756,-0.20019249618053436,0.9742676615715027,0.09904242306947708,0.03026655688881874
1680006618956803088,18571,1680006618956661212,j2s6s300_link_base,0.17374613881111145,-0.5302802324295044,-0.03513514995574951,-0.20021149516105652,0.9743168354034424,0.0985085666179657,0.030300918966531754
1680006619056848231,18572,1680006619056659903,j2s6s300_link_base,0.17379140853881836,-0.5304816961288452,-0.034731850028038025,-0.20022258162498474,0.9743484258651733,0.09816636145114899,0.030323030427098274
1680006619156826569,18573,1680006619156666963,j2s6s300_link_base,0.17372776567935944,-0.5305750966072083,-0.034600794315338135,-0.20015378296375275,0.9743737578392029,0.09805090725421906,0.0303376242518425
1680006619256752941,18574,1680006619256650847,j2s6s300_link_base,0.1737080067396164,-0.5305835008621216,-0.03458966314792633,-0.2001355141401291,0.9743779897689819,0.09804432839155197,0.030339840799570084
1680006619356812097,18575,1680006619356649132,j2s6s300_link_base,0.17368899285793304,-0.5305905938148499,-0.034584686160087585,-0.20011797547340393,0.9743818640708923,0.09804119914770126,0.03034178726375103
1680006619456787663,18576,1680006619456657695,j2s6s300_link_base,0.17368456721305847,-0.5305956602096558,-0.03457757830619812,-0.2001146376132965,0.9743831157684326,0.09803510457277298,0.030342767015099525
1680006619556783679,18577,1680006619556657702,j2s6s300_link_base,0.1736733615398407,-0.5306010246276855,-0.03457467257976532,-0.20010408759117126,0.9743855595588684,0.0980321615934372,0.030344007536768913
1680006619656824623,18578,1680006619656657182,j2s6s300_link_base,0.17355956137180328,-0.5306383967399597,-0.03457312285900116,-0.19999960064888,0.9744070768356323,0.09802822768688202,0.030354585498571396
1680006619756788069,18579,1680006619756656341,j2s6s300_link_base,0.17351730167865753,-0.5306533575057983,-0.03457123041152954,-0.19996069371700287,0.9744153022766113,0.0980253666639328,0.030358605086803436
1680006619856809593,18580,1680006619856651189,j2s6s300_link_base,0.173479825258255,-0.5306655168533325,-0.03457045555114746,-0.19992630183696747,0.97442227602005,0.09802403301000595,0.030362077057361603
1680006619956819882,18581,1680006619956657933,j2s6s300_link_base,0.1734279841184616,-0.5306835174560547,-0.03456854820251465,-0.1998784840106964,0.9744322299957275,0.09802094846963882,0.03036700189113617
1680006620056805346,18582,1680006620056649118,j2s6s300_link_base,0.17337891459465027,-0.5306985974311829,-0.034568920731544495,-0.19983364641666412,0.974441409111023,0.09802048653364182,0.03037145361304283
1680006620156791848,18583,1680006620156631325,j2s6s300_link_base,0.17335547506809235,-0.5307067036628723,-0.03456810116767883,-0.19981206953525543,0.9744459390640259,0.09801902621984482,0.03037365898489952
1680006620256748172,18584,1680006620256657483,j2s6s300_link_base,0.17334362864494324,-0.5307095646858215,-0.03456723690032959,-0.19980140030384064,0.9744479656219482,0.09802000969648361,0.030374713242053986
1680006620356778635,18585,1680006620356658831,j2s6s300_link_base,0.17333829402923584,-0.5307113528251648,-0.03456723690032959,-0.19979652762413025,0.9744490385055542,0.09801983833312988,0.03037521056830883
1680006620456796828,18586,1680006620456651592,j2s6s300_link_base,0.17333514988422394,-0.530712902545929,-0.03456646203994751,-0.19979354739189148,0.9744495749473572,0.0980190634727478,0.030375566333532333
1680006620556787836,18587,1680006620556657644,j2s6s300_link_base,0.17333395779132843,-0.5307125449180603,-0.03456674516201019,-0.19979248940944672,0.9744497537612915,0.0980197936296463,0.030375607311725616
1680006620656792464,18588,1680006620656652401,j2s6s300_link_base,0.1733323037624359,-0.5307130217552185,-0.03456677496433258,-0.1997925043106079,0.9744497537612915,0.09801977127790451,0.03037457913160324
1680006620756775290,18589,1680006620756658872,j2s6s300_link_base,0.17333129048347473,-0.5307133197784424,-0.03456677496433258,-0.1997915655374527,0.9744499921798706,0.09801963716745377,0.030374646186828613
1680006620856755755,18590,1680006620856657267,j2s6s300_link_base,0.17332905530929565,-0.5307131409645081,-0.03456707298755646,-0.1997908055782318,0.9744500517845154,0.09802044183015823,0.030374888330698013
1680006620956783844,18591,1680006620956689831,j2s6s300_link_base,0.1733291745185852,-0.5307137370109558,-0.034566015005111694,-0.1997908055782318,0.9744501709938049,0.09801958501338959,0.030374955385923386
1680006621056814677,18592,1680006621056693877,j2s6s300_link_base,0.17332790791988373,-0.5307140946388245,-0.034566015005111694,-0.19978973269462585,0.9744503498077393,0.09801944345235825,0.03037506714463234
1680006621156801605,18593,1680006621156696591,j2s6s300_link_base,0.17332790791988373,-0.5307140946388245,-0.034566015005111694,-0.19978973269462585,0.9744503498077393,0.09801944345235825,0.03037506714463234
1680006621256823059,18594,1680006621256688720,j2s6s300_link_base,0.17332692444324493,-0.5307143926620483,-0.034566015005111694,-0.19978879392147064,0.9744505882263184,0.09801943600177765,0.030375167727470398
1680006621356813847,18595,1680006621356656489,j2s6s300_link_base,0.17332161962985992,-0.5307121872901917,-0.034567445516586304,-0.19978462159633636,0.9744510054588318,0.09802332520484924,0.03037530928850174
1680006621456783431,18596,1680006621456641072,j2s6s300_link_base,0.1731756180524826,-0.5307497382164001,-0.034571126103401184,-0.19965234398841858,0.9744771122932434,0.09802943468093872,0.03038794733583927
1680006621556784430,18597,1680006621556690124,j2s6s300_link_base,0.17313362658023834,-0.5307062864303589,-0.03458970785140991,-0.19962364435195923,0.9744774103164673,0.09808550775051117,0.030387012287974358
1680006621656774961,18598,1680006621656683160,j2s6s300_link_base,0.173132985830307,-0.530918300151825,-0.034223929047584534,-0.1995926946401596,0.9745156764984131,0.09775989502668381,0.030411869287490845
1680006621756789292,18599,1680006621756691580,j2s6s300_link_base,0.17315366864204407,-0.5310512781143188,-0.03398296236991882,-0.19959168136119843,0.9745370149612427,0.09754488617181778,0.030426276847720146
1680006621856812508,18600,1680006621856683341,j2s6s300_link_base,0.17302320897579193,-0.531467616558075,-0.03334304690361023,-0.19942449033260345,0.9746274948120117,0.0969654843211174,0.030476586893200874
1680006621956863635,18601,1680006621956691107,j2s6s300_link_base,0.17310255765914917,-0.531821608543396,-0.0326937735080719,-0.199446439743042,0.9746800065040588,0.09638004004955292,0.030510254204273224
1680006622056791098,18602,1680006622056685864,j2s6s300_link_base,0.17327095568180084,-0.532532811164856,-0.03228425979614258,-0.1994624137878418,0.974805474281311,0.09505832195281982,0.030543144792318344
1680006622156794631,18603,1680006622156700513,j2s6s300_link_base,0.1744265854358673,-0.5377102494239807,-0.03273172676563263,-0.19936306774616241,0.9757552742958069,0.0849468931555748,0.030661296099424362
1680006622256846381,18604,1680006622256683706,j2s6s300_link_base,0.17578142881393433,-0.5441250801086426,-0.033387988805770874,-0.1991054117679596,0.9769075512886047,0.0711534321308136,0.03075294941663742
1680006622356830713,18605,1680006622356692687,j2s6s300_link_base,0.17517375946044922,-0.5426592230796814,-0.03526337444782257,-0.19865462183952332,0.9772868752479553,0.06724327057600021,0.030415372923016548
1680006622456818554,18606,1680006622456653771,j2s6s300_link_base,0.1730543076992035,-0.5352203845977783,-0.03550693392753601,-0.19813543558120728,0.9771736860275269,0.07059012353420258,0.029848158359527588
1680006622556812466,18607,1680006622556665964,j2s6s300_link_base,0.1716698855161667,-0.5305699706077576,-0.030371740460395813,-0.19787973165512085,0.977250337600708,0.07034534215927124,0.0296120997518301
1680006622656852804,18608,1680006622656693583,j2s6s300_link_base,0.1716671586036682,-0.5316091775894165,-0.022014781832695007,-0.1978626400232315,0.9777795672416687,0.06256800889968872,0.029710277915000916
1680006622756821817,18609,1680006622756685952,j2s6s300_link_base,0.17362692952156067,-0.5410541296005249,-0.016368061304092407,-0.1976006031036377,0.9789905548095703,0.040412962436676025,0.029971923679113388
1680006622856793541,18610,1680006622856690195,j2s6s300_link_base,0.1756659299135208,-0.5518357157707214,-0.0146055668592453,-0.19683972001075745,0.9798744320869446,0.014130420051515102,0.0300100389868021
1680006622956830959,18611,1680006622956691143,j2s6s300_link_base,0.17426353693008423,-0.548823356628418,-0.018049538135528564,-0.19593462347984314,0.9801539182662964,0.007096471264958382,0.02928285114467144
1680006623056845913,18612,1680006623056683041,j2s6s300_link_base,0.17147234082221985,-0.5392200350761414,-0.022825434803962708,-0.1953079253435135,0.9802749752998352,0.010698206722736359,0.02831021510064602
1680006623156853993,18613,1680006623156690692,j2s6s300_link_base,0.16929227113723755,-0.5319596529006958,-0.02608388662338257,-0.19482450187206268,0.9803399443626404,0.014606069773435593,0.027631476521492004
1680006623256840610,18614,1680006623256680789,j2s6s300_link_base,0.1683923602104187,-0.5291661620140076,-0.027335792779922485,-0.19457270205020905,0.9803913831710815,0.015087230131030083,0.027324896305799484
1680006623356807348,18615,1680006623356690847,j2s6s300_link_base,0.16896095871925354,-0.5315536260604858,-0.0263279527425766,-0.19456452131271362,0.9804401993751526,0.011350426822900772,0.027437765151262283
1680006623456811511,18616,1680006623456648817,j2s6s300_link_base,0.17060044407844543,-0.5378169417381287,-0.023888975381851196,-0.19469837844371796,0.9804576635360718,0.004434891045093536,0.027849407866597176
1680006623556787306,18617,1680006623556658946,j2s6s300_link_base,0.17189231514930725,-0.5428065657615662,-0.02180349826812744,-0.19479243457317352,0.9804388284683228,-0.0008769966661930084,0.0281907320022583
1680006623656831027,18618,1680006623656697489,j2s6s300_link_base,0.17272068560123444,-0.5458945631980896,-0.020460397005081177,-0.19487352669239044,0.980408251285553,-0.004150649532675743,0.028405141085386276
1680006623756818612,18619,1680006623756690375,j2s6s300_link_base,0.17325438559055328,-0.5478783249855042,-0.019598960876464844,0.19492562115192413,-0.9803826808929443,0.006257467437535524,-0.0285424143075943
1680006623856796145,18620,1680006623856653598,j2s6s300_link_base,0.17356501519680023,-0.5490269064903259,-0.019107773900032043,0.19495658576488495,-0.9803656339645386,0.007478785701096058,-0.02862142212688923
