%time,field.header.seq,field.header.stamp,field.header.frame_id,field.pose.position.x,field.pose.position.y,field.pose.position.z,field.pose.orientation.x,field.pose.orientation.y,field.pose.orientation.z,field.pose.orientation.w
1680005999557354874,12377,1680005999557174063,j2s6s300_link_base,-0.3614221215248108,-0.3079151511192322,-0.03160145878791809,-0.32716435194015503,0.944239616394043,0.029703933745622635,0.022201204672455788
1680005999658505449,12378,1680005999658157039,j2s6s300_link_base,-0.3614213764667511,-0.30791598558425903,-0.03160145878791809,-0.3271653354167938,0.9442392587661743,0.029703931882977486,0.022201165556907654
1680005999757310752,12379,1680005999757065195,j2s6s300_link_base,-0.3614213764667511,-0.30791598558425903,-0.03160145878791809,-0.3271653354167938,0.9442392587661743,0.029703931882977486,0.022201165556907654
1680005999857171954,12380,1680005999857045305,j2s6s300_link_base,-0.3614220917224884,-0.3079165816307068,-0.03160125017166138,-0.3271653652191162,0.9442391991615295,0.029703577980399132,0.022200366482138634
1680005999957164043,12381,1680005999957036510,j2s6s300_link_base,-0.3614223897457123,-0.30791690945625305,-0.03160172700881958,-0.3271639347076416,0.9442396759986877,0.029703643172979355,0.022200236096978188
1680006000057196739,12382,1680006000057038310,j2s6s300_link_base,-0.3614223897457123,-0.30791690945625305,-0.03160172700881958,-0.3271639347076416,0.9442396759986877,0.029703643172979355,0.022200236096978188
1680006000157168808,12383,1680006000157038277,j2s6s300_link_base,-0.3614223897457123,-0.30791690945625305,-0.03160172700881958,-0.3271639347076416,0.9442396759986877,0.029703643172979355,0.022200236096978188
1680006000257241677,12384,1680006000257080177,j2s6s300_link_base,-0.36142197251319885,-0.307916522026062,-0.0316026508808136,-0.3271639943122864,0.9442397356033325,0.02970397099852562,0.022201109677553177
1680006000357166293,12385,1680006000357031455,j2s6s300_link_base,-0.36142152547836304,-0.3079161047935486,-0.03160354495048523,-0.32716405391693115,0.944239616394043,0.029704293236136436,0.02220199629664421
1680006000457200365,12386,1680006000457038973,j2s6s300_link_base,-0.36142152547836304,-0.30791619420051575,-0.031604498624801636,-0.3271641135215759,0.9442396759986877,0.02970421500504017,0.022201845422387123
1680006000557202704,12387,1680006000557038662,j2s6s300_link_base,-0.36142227053642273,-0.3079153299331665,-0.031604498624801636,-0.3271629810333252,0.9442400932312012,0.029704106971621513,0.022201843559741974
1680006000657125137,12388,1680006000657037989,j2s6s300_link_base,-0.36142227053642273,-0.3079153299331665,-0.031604498624801636,-0.3271629810333252,0.9442400932312012,0.029704106971621513,0.022201843559741974
1680006000757126734,12389,1680006000756993771,j2s6s300_link_base,-0.36142319440841675,-0.3079149127006531,-0.031604886054992676,-0.32716208696365356,0.944240391254425,0.029704133048653603,0.02220180258154869
1680006000857213463,12390,1680006000857045839,j2s6s300_link_base,-0.36142343282699585,-0.30791395902633667,-0.03160560131072998,-0.32716113328933716,0.9442406296730042,0.029704295098781586,0.022202452644705772
1680006000957212277,12391,1680006000957048990,j2s6s300_link_base,-0.36142298579216003,-0.30791357159614563,-0.031606525182724,-0.3271602988243103,0.944240927696228,0.029704643413424492,0.022203296422958374
1680006001057182383,12392,1680006001057038467,j2s6s300_link_base,-0.36142513155937195,-0.30791154503822327,-0.031607210636138916,-0.3271573483943939,0.9442419409751892,0.029704606160521507,0.022203514352440834
1680006001157198553,12393,1680006001157039067,j2s6s300_link_base,-0.3614223599433899,-0.30790919065475464,-0.03161287307739258,-0.3271574378013611,0.9442417025566101,0.02970683015882969,0.02220907434821129
1680006001257204490,12394,1680006001257040006,j2s6s300_link_base,-0.36129090189933777,-0.30779191851615906,-0.03188970685005188,-0.3271558880805969,0.9442325234413147,0.029811697080731392,0.02247748151421547
1680006001357204559,12395,1680006001357039079,j2s6s300_link_base,-0.361250638961792,-0.30775755643844604,-0.03197142481803894,-0.32715660333633423,0.9442293643951416,0.02984296716749668,0.02255755104124546
1680006001457154746,12396,1680006001457038054,j2s6s300_link_base,-0.36121904850006104,-0.3077293634414673,-0.032036811113357544,-0.3271562159061432,0.9442271590232849,0.029868079349398613,0.022621668875217438
1680006001557198179,12397,1680006001557037566,j2s6s300_link_base,-0.36116698384284973,-0.3075982332229614,-0.032230108976364136,-0.3270937204360962,0.9442419409751892,0.029941076412796974,0.022812504321336746
1680006001657164206,12398,1680006001657034563,j2s6s300_link_base,-0.3613320589065552,-0.3072839379310608,-0.032353609800338745,-0.32675012946128845,0.9443565607070923,0.029978852719068527,0.02294173091650009
1680006001757128597,12399,1680006001756998424,j2s6s300_link_base,-0.36183297634124756,-0.30649447441101074,-0.03255084156990051,-0.3258270025253296,0.9446684122085571,0.030031578615307808,0.02316546067595482
1680006001857181403,12400,1680006001857047741,j2s6s300_link_base,-0.36229726672172546,-0.30571413040161133,-0.03278052806854248,-0.32493293285369873,0.9449678659439087,0.030097592622041702,0.023419324308633804
1680006001957173015,12401,1680006001957046676,j2s6s300_link_base,-0.36262208223342896,-0.3053170144557953,-0.03279194235801697,-0.3244086503982544,0.9451476335525513,0.030084019526839256,0.02344898134469986
1680006002057165130,12402,1680006002057047109,j2s6s300_link_base,-0.3625871539115906,-0.30500903725624084,-0.033046871423721313,-0.32403790950775146,0.9452653527259827,0.030123507604002953,0.023777831345796585
1680006002157185945,12403,1680006002157039545,j2s6s300_link_base,-0.36140090227127075,-0.30347567796707153,-0.0339074432849884,-0.3234899640083313,0.9453832507133484,0.03076157160103321,0.025660023093223572
1680006002257215988,12404,1680006002257068153,j2s6s300_link_base,-0.3587743043899536,-0.3008270859718323,-0.03624442219734192,-0.32303211092948914,0.9453750252723694,0.03221618011593819,0.029638856649398804
1680006002357216960,12405,1680006002357062860,j2s6s300_link_base,-0.3554444909095764,-0.2976348102092743,-0.041052043437957764,-0.32269906997680664,0.9452101588249207,0.03442677482962608,0.03546643257141113
1680006002457228693,12406,1680006002457080159,j2s6s300_link_base,-0.3523541986942291,-0.2950016260147095,-0.04650726914405823,-0.3226768970489502,0.9449157118797302,0.03652819246053696,0.04098356515169144
1680006002557171872,12407,1680006002557041550,j2s6s300_link_base,-0.35028067231178284,-0.2932779788970947,-0.05024832487106323,-0.3226919174194336,0.9446956515312195,0.037875279784202576,0.04455861449241638
1680006002657156904,12408,1680006002657041378,j2s6s300_link_base,-0.3489856421947479,-0.2921486496925354,-0.05259007215499878,-0.32265743613243103,0.9445601105690002,0.03875083476305008,0.046868644654750824
1680006002757148854,12409,1680006002757071226,j2s6s300_link_base,-0.3509747385978699,-0.2938912510871887,-0.05404841899871826,-0.32271674275398254,0.9447586536407471,0.03723108768463135,0.043576039373874664
1680006002857199078,12410,1680006002857081674,j2s6s300_link_base,-0.35595086216926575,-0.2982786297798157,-0.055745095014572144,-0.32287096977233887,0.9451482892036438,0.03391021117568016,0.03604236990213394
1680006002957218359,12411,1680006002957073049,j2s6s300_link_base,-0.3581582307815552,-0.3002816438674927,-0.05897340178489685,-0.32297074794769287,0.9452617764472961,0.032592713832855225,0.033283550292253494
1680006003057184546,12412,1680006003057080128,j2s6s300_link_base,-0.35777875781059265,-0.30005598068237305,-0.06412291526794434,-0.3230266571044922,0.9451698660850525,0.03305567800998688,0.0348568856716156
1680006003157147418,12413,1680006003157008269,j2s6s300_link_base,-0.35678520798683167,-0.29930421710014343,-0.06898832321166992,-0.3230798840522766,0.9450479745864868,0.033734701573848724,0.036956872791051865
1680006003257141595,12414,1680006003257038399,j2s6s300_link_base,-0.35548892617225647,-0.29825982451438904,-0.07250136137008667,-0.32311147451400757,0.944915771484375,0.03454810753464699,0.039239417761564255
1680006003357178338,12415,1680006003357045654,j2s6s300_link_base,-0.35461413860321045,-0.29753661155700684,-0.07458755373954773,-0.3231198489665985,0.9448327422142029,0.03506327420473099,0.04068339616060257
1680006003457172321,12416,1680006003457024848,j2s6s300_link_base,-0.35415300726890564,-0.2971615791320801,-0.07586213946342468,-0.32312870025634766,0.9447818398475647,0.0353674441576004,0.041524454951286316
1680006003557194574,12417,1680006003557029477,j2s6s300_link_base,-0.35356876254081726,-0.29667916893959045,-0.07719659805297852,-0.3231329917907715,0.944719135761261,0.0357571616768837,0.042570240795612335
1680006003657253337,12418,1680006003657036470,j2s6s300_link_base,-0.35221418738365173,-0.29553326964378357,-0.07964372634887695,-0.32312485575675964,0.9445793628692627,0.03665180131793022,0.04490932449698448
1680006003757252627,12419,1680006003757027745,j2s6s300_link_base,-0.35034582018852234,-0.2939671277999878,-0.08324286341667175,-0.3231193423271179,0.9443706274032593,0.0378994420170784,0.048181675374507904
1680006003857274795,12420,1680006003857027671,j2s6s300_link_base,-0.34812334179878235,-0.29211267828941345,-0.08699175715446472,-0.32311514019966125,0.9441143274307251,0.0393415205180645,0.051931627094745636
1680006003957233387,12421,1680006003957082192,j2s6s300_link_base,-0.3464743196964264,-0.2908405661582947,-0.08958703279495239,-0.3231911063194275,0.9438949823379517,0.040371496230363846,0.054590389132499695
1680006004057212838,12422,1680006004057071631,j2s6s300_link_base,-0.3454463481903076,-0.29028570652008057,-0.09099763631820679,-0.3234148323535919,0.9437090158462524,0.04094034060835838,0.056036293506622314
1680006004157183592,12423,1680006004157075418,j2s6s300_link_base,-0.3445872962474823,-0.2900597155094147,-0.09197381138801575,-0.3237118422985077,0.9435300827026367,0.04131916165351868,0.05704749375581741
1680006004257140691,12424,1680006004257014679,j2s6s300_link_base,-0.3441627025604248,-0.2901829183101654,-0.0922727882862091,-0.3240605890750885,0.9433865547180176,0.041448939591646194,0.05734577029943466
1680006004357132251,12425,1680006004357005954,j2s6s300_link_base,-0.3436586558818817,-0.29030272364616394,-0.09262892603874207,-0.3243623971939087,0.9432539939880371,0.04157271236181259,0.057728637009859085
1680006004457213965,12426,1680006004457078609,j2s6s300_link_base,-0.34060385823249817,-0.2933863401412964,-0.09297767281532288,-0.3252941071987152,0.9429284334182739,0.040628302842378616,0.058473698794841766
1680006004557169310,12427,1680006004557074877,j2s6s300_link_base,-0.33549177646636963,-0.2988603711128235,-0.09320506453514099,-0.3249138295650482,0.9430872797966003,0.03810179606080055,0.05971388518810272
1680006004657210266,12428,1680006004657082828,j2s6s300_link_base,-0.3311646282672882,-0.3034716844558716,-0.09332472085952759,-0.32546281814575195,0.9429147839546204,0.036281898617744446,0.06057468429207802
1680006004757208269,12429,1680006004757074092,j2s6s300_link_base,-0.32794883847236633,-0.30688565969467163,-0.09336298704147339,-0.32689034938812256,0.9424300193786621,0.03530231863260269,0.06100910156965256
1680006004857207965,12430,1680006004857076539,j2s6s300_link_base,-0.32593461871147156,-0.30899110436439514,-0.0933837890625,-0.32714447379112244,0.942348301410675,0.034458763897418976,0.06139019504189491
1680006004957176123,12431,1680006004957075397,j2s6s300_link_base,-0.324416846036911,-0.3105654716491699,-0.09339657425880432,-0.32699447870254517,0.9424053430557251,0.03369849920272827,0.061734914779663086
1680006005057214076,12432,1680006005057075244,j2s6s300_link_base,-0.32219398021698,-0.3128705620765686,-0.09340924024581909,-0.3232513666152954,0.9437066912651062,0.031267717480659485,0.06283785402774811
1680006005157178967,12433,1680006005157082638,j2s6s300_link_base,-0.3188401460647583,-0.31637904047966003,-0.09340909123420715,-0.31609907746315,0.9461266398429871,0.02703971415758133,0.06476571410894394
1680006005257216595,12434,1680006005257076456,j2s6s300_link_base,-0.31547337770462036,-0.31988728046417236,-0.0933917760848999,-0.3113587498664856,0.9476802349090576,0.02372063882648945,0.06629566103219986
1680006005357170658,12435,1680006005357075953,j2s6s300_link_base,-0.3112759590148926,-0.3241252899169922,-0.0933690071105957,-0.31053629517555237,0.9479287266731262,0.021517623215913773,0.06734547019004822
1680006005457211304,12436,1680006005457076010,j2s6s300_link_base,-0.30590781569480896,-0.3292984366416931,-0.09335264563560486,-0.3143036663532257,0.9466702342033386,0.020559104159474373,0.06786756962537766
1680006005557205335,12437,1680006005557076449,j2s6s300_link_base,-0.29887011647224426,-0.3358859717845917,-0.093319833278656,-0.31789252161979675,0.9454401731491089,0.018859654664993286,0.06878669559955597
1680006005657209963,12438,1680006005657082511,j2s6s300_link_base,-0.28999802470207214,-0.34386348724365234,-0.09326741099357605,-0.3216700851917267,0.9441094398498535,0.016539493575692177,0.07008688896894455
1680006005757204446,12439,1680006005757074047,j2s6s300_link_base,-0.283713161945343,-0.34927746653556824,-0.09322550892829895,-0.3246510326862335,0.9430477023124695,0.015077995136380196,0.07095999270677567
1680006005857213462,12440,1680006005857077053,j2s6s300_link_base,-0.27899524569511414,-0.3533779978752136,-0.09316009283065796,-0.3233812153339386,0.943419873714447,0.012692853808403015,0.07226631790399551
1680006005957170290,12441,1680006005957075432,j2s6s300_link_base,-0.27446937561035156,-0.3573850393295288,-0.09305879473686218,-0.3192064166069031,0.9447392225265503,0.009318893775343895,0.07408292591571808
1680006006057206484,12442,1680006006057080110,j2s6s300_link_base,-0.2666047513484955,-0.36441361904144287,-0.09282085299491882,-0.31122732162475586,0.9471761584281921,0.003180531784892082,0.07736209034919739
1680006006157161183,12443,1680006006157075933,j2s6s300_link_base,-0.2595701515674591,-0.37124180793762207,-0.09248051047325134,-0.3040800988674164,0.9492732286453247,-0.0026150234043598175,0.08005499839782715
1680006006257185476,12444,1680006006257079821,j2s6s300_link_base,-0.25151053071022034,-0.37921732664108276,-0.09200707077980042,-0.2969413995742798,0.9512524008750916,-0.008999986574053764,0.08284700661897659
1680006006357170300,12445,1680006006357084301,j2s6s300_link_base,-0.24467086791992188,-0.3858949542045593,-0.09157925844192505,-0.29293620586395264,0.9522663354873657,-0.013711578212678432,0.08478828519582748
1680006006457208004,12446,1680006006457083790,j2s6s300_link_base,-0.23959320783615112,-0.3917194902896881,-0.09106799960136414,-0.2867087721824646,0.9539106488227844,-0.0188174769282341,0.08659397810697556
1680006006557175981,12447,1680006006557083486,j2s6s300_link_base,-0.23368534445762634,-0.3986051678657532,-0.09042799472808838,-0.2816714942455292,0.9551485180854797,-0.024144461378455162,0.0881451740860939
1680006006657201839,12448,1680006006657070129,j2s6s300_link_base,-0.22763273119926453,-0.40726909041404724,-0.08950433135032654,0.2799747586250305,-0.9554900527000427,0.029608186334371567,-0.08818208426237106
1680006006757170508,12449,1680006006757076988,j2s6s300_link_base,-0.2208089977502823,-0.4174838960170746,-0.08834835886955261,0.28226280212402344,-0.9547502994537354,0.03489656746387482,-0.08695787936449051
1680006006857142950,12450,1680006006857040752,j2s6s300_link_base,-0.21282437443733215,-0.4262992739677429,-0.08770135045051575,0.2867678105831146,-0.9533122777938843,0.03855559229850769,-0.08644774556159973
1680006006957209424,12451,1680006006957078476,j2s6s300_link_base,-0.2017010599374771,-0.4346667528152466,-0.08806589245796204,0.2894710600376129,-0.9521585702896118,0.0421108640730381,-0.088471919298172
1680006007057163162,12452,1680006007057078506,j2s6s300_link_base,-0.19081570208072662,-0.4424225389957428,-0.0886279046535492,0.29063642024993896,-0.9513970613479614,0.045822709798812866,-0.09096391499042511
1680006007157144699,12453,1680006007157052221,j2s6s300_link_base,-0.18255355954170227,-0.4510687589645386,-0.08823353052139282,0.29288119077682495,-0.9504631161689758,0.05036386847496033,-0.0911257416009903
1680006007257137560,12454,1680006007257045043,j2s6s300_link_base,-0.17450396716594696,-0.4607240855693817,-0.0875348448753357,0.29508066177368164,-0.9495188593864441,0.055813267827034,-0.09069842100143433
1680006007357141595,12455,1680006007357077742,j2s6s300_link_base,-0.16759943962097168,-0.469277024269104,-0.0866355299949646,0.2949100732803345,-0.9492190480232239,0.06144735589623451,-0.09074857085943222
1680006007457144423,12456,1680006007457078078,j2s6s300_link_base,-0.1567678451538086,-0.47819623351097107,-0.08569729328155518,0.29459768533706665,-0.948739230632782,0.06729719042778015,-0.09261292219161987
1680006007557183989,12457,1680006007557053057,j2s6s300_link_base,-0.1466989815235138,-0.4849188029766083,-0.08580887317657471,0.29616421461105347,-0.9477896094322205,0.07098408788442612,-0.09456674754619598
1680006007657160816,12458,1680006007657052125,j2s6s300_link_base,-0.13762441277503967,-0.49315932393074036,-0.08560603857040405,0.2998124063014984,-0.9462800025939941,0.07540754228830338,-0.09476542472839355
1680006007757140693,12459,1680006007757077842,j2s6s300_link_base,-0.12994249165058136,-0.5023373961448669,-0.08496692776679993,0.30521804094314575,-0.9442923665046692,0.08033181726932526,-0.09327732026576996
1680006007857193019,12460,1680006007857078690,j2s6s300_link_base,-0.1201561912894249,-0.5103294849395752,-0.08508196473121643,0.30984917283058167,-0.9423897862434387,0.084488645195961,-0.09357637912034988
1680006007957185577,12461,1680006007957077999,j2s6s300_link_base,-0.10624028742313385,-0.517128050327301,-0.08607950806617737,0.3158532679080963,-0.9399093985557556,0.08729296922683716,-0.09584879875183105
1680006008057203857,12462,1680006008057097776,j2s6s300_link_base,-0.09550207853317261,-0.5232570767402649,-0.08652481436729431,0.3213452398777008,-0.9376776218414307,0.09013199806213379,-0.09682024270296097
1680006008157172449,12463,1680006008157078583,j2s6s300_link_base,-0.08962126076221466,-0.5286881923675537,-0.08619928359985352,0.32496681809425354,-0.9361767768859863,0.09326937049627304,-0.09628301858901978
1680006008257174925,12464,1680006008257079211,j2s6s300_link_base,-0.08632789552211761,-0.5332244038581848,-0.08542194962501526,0.32755279541015625,-0.9350967407226562,0.09617805480957031,-0.09514693915843964
1680006008357175195,12465,1680006008357079058,j2s6s300_link_base,-0.08346523344516754,-0.5364922881126404,-0.08486941456794739,0.32982370257377625,-0.9341638684272766,0.09819154441356659,-0.09440574049949646
1680006008457157854,12466,1680006008457080604,j2s6s300_link_base,-0.07645067572593689,-0.5397016406059265,-0.08449363708496094,0.3342401683330536,-0.9323936700820923,0.09967975318431854,-0.09481260180473328
1680006008557147238,12467,1680006008557079619,j2s6s300_link_base,-0.06902588158845901,-0.5421167612075806,-0.0842847228050232,0.33833208680152893,-0.9307084083557129,0.10069043934345245,-0.09578470885753632
1680006008657153024,12468,1680006008657086029,j2s6s300_link_base,-0.0595577210187912,-0.5445724725723267,-0.08385351300239563,0.3419301509857178,-0.9290415644645691,0.10205160081386566,-0.09772925078868866
1680006008757145287,12469,1680006008757079588,j2s6s300_link_base,-0.04965972900390625,-0.5463906526565552,-0.08369436860084534,0.3464585840702057,-0.9270719289779663,0.1027410477399826,-0.09974145889282227
1680006008857183966,12470,1680006008857086303,j2s6s300_link_base,-0.04173211008310318,-0.547639787197113,-0.08352893590927124,0.35110780596733093,-0.9251576662063599,0.1029820367693901,-0.10100099444389343
1680006008957139293,12471,1680006008957076533,j2s6s300_link_base,-0.03481189161539078,-0.5483846068382263,-0.08342593908309937,0.35545456409454346,-0.9233852624893188,0.10291095077991486,-0.10208332538604736
1680006009057178866,12472,1680006009057081312,j2s6s300_link_base,-0.028591111302375793,-0.5492015480995178,-0.08322709798812866,0.3578563332557678,-0.9222463369369507,0.10337638854980469,-0.1035076454281807
1680006009157143634,12473,1680006009157078295,j2s6s300_link_base,-0.017094023525714874,-0.5510538220405579,-0.08261033892631531,0.35873329639434814,-0.9212673902511597,0.10533693432807922,-0.10714953392744064
1680006009257164240,12474,1680006009257081224,j2s6s300_link_base,-0.005072511732578278,-0.5526670217514038,-0.08199453353881836,0.36036035418510437,-0.9199907183647156,0.1071418821811676,-0.11080697923898697
1680006009357184107,12475,1680006009357079113,j2s6s300_link_base,0.003107622265815735,-0.5535073280334473,-0.0816245973110199,0.3622171878814697,-0.9188715815544128,0.10808661580085754,-0.11309666931629181
1680006009457144474,12476,1680006009457045885,j2s6s300_link_base,0.008587993681430817,-0.5538658499717712,-0.08143913745880127,0.3642878830432892,-0.9178557395935059,0.10840506851673126,-0.11438357830047607
1680006009557128221,12477,1680006009557023628,j2s6s300_link_base,0.0140475332736969,-0.5539819002151489,-0.08134382963180542,0.3674154281616211,-0.9164972305297852,0.10832345485687256,-0.11534672975540161
1680006009657219612,12478,1680006009657083450,j2s6s300_link_base,0.02499256283044815,-0.5537386536598206,-0.08128693699836731,0.37557223439216614,-0.9131149649620056,0.10747721791267395,-0.11668458580970764
1680006009757169884,12479,1680006009757045484,j2s6s300_link_base,0.03611857816576958,-0.5532357096672058,-0.08126336336135864,0.38391852378845215,-0.9095738530158997,0.10654670000076294,-0.11802469938993454
1680006009857140286,12480,1680006009857039355,j2s6s300_link_base,0.04439881816506386,-0.5526390075683594,-0.08127695322036743,0.39057114720344543,-0.9067270755767822,0.10568545013666153,-0.11887268722057343
1680006009957172863,12481,1680006009957030397,j2s6s300_link_base,0.050723910331726074,-0.5521200299263,-0.08128851652145386,0.3954589068889618,-0.9045840501785278,0.10507205128669739,-0.11958122253417969
1680006010057243675,12482,1680006010057030132,j2s6s300_link_base,0.05791303142905235,-0.5514271855354309,-0.08129572868347168,0.4011850953102112,-0.9020471572875977,0.10432884097099304,-0.12031979858875275
1680006010157192488,12483,1680006010157032775,j2s6s300_link_base,0.06837828457355499,-0.5502156019210815,-0.08130544424057007,0.4097203314304352,-0.898202657699585,0.10316964983940125,-0.12131470441818237
1680006010257212255,12484,1680006010257039896,j2s6s300_link_base,0.07640637457370758,-0.5489740967750549,-0.08136823773384094,0.41622504591941833,-0.8952139019966125,0.1021234542131424,-0.12214583158493042
1680006010357202173,12485,1680006010357031658,j2s6s300_link_base,0.08125351369380951,-0.5470451712608337,-0.08177199959754944,0.42000797390937805,-0.893493115901947,0.10053612291812897,-0.12310951203107834
1680006010457220476,12486,1680006010457039013,j2s6s300_link_base,0.08494804054498672,-0.5436835289001465,-0.08267790079116821,0.4226594567298889,-0.8923446536064148,0.09774085879325867,-0.12460675835609436
1680006010557228917,12487,1680006010557085013,j2s6s300_link_base,0.08986129611730576,-0.5398163795471191,-0.08364894986152649,0.4263066053390503,-0.8907114863395691,0.09456360340118408,-0.12630684673786163
1680006010657167173,12488,1680006010657056640,j2s6s300_link_base,0.09627071768045425,-0.5364011526107788,-0.08436566591262817,0.431273490190506,-0.8883849382400513,0.09185675531625748,-0.1278194934129715
1680006010757166738,12489,1680006010757049913,j2s6s300_link_base,0.10181728005409241,-0.5341075658798218,-0.08474600315093994,0.43534088134765625,-0.8864073753356934,0.09018225222826004,-0.12894807755947113
1680006010857184683,12490,1680006010857066514,j2s6s300_link_base,0.11055266112089157,-0.5316486954689026,-0.08495175838470459,0.4417871832847595,-0.8831889629364014,0.08858919143676758,-0.13020482659339905
1680006010957258405,12491,1680006010957093413,j2s6s300_link_base,0.12087544798851013,-0.5301969051361084,-0.084567129611969,0.4380088448524475,-0.8845332264900208,0.08831910043954849,-0.1339738368988037
1680006011057240339,12492,1680006011057080917,j2s6s300_link_base,0.13328765332698822,-0.5298979878425598,-0.083396777510643,0.41755783557891846,-0.8930092453956604,0.08948473632335663,-0.1420293003320694
1680006011157237759,12493,1680006011157078243,j2s6s300_link_base,0.1438256800174713,-0.5294845700263977,-0.08239661157131195,0.4043969213962555,-0.8979599475860596,0.09048274159431458,-0.14813482761383057
1680006011257242163,12494,1680006011257075170,j2s6s300_link_base,0.1510912925004959,-0.5288962721824646,-0.08178626000881195,0.39715591073036194,-0.9005323052406311,0.09078288078308105,-0.15187887847423553
1680006011357205174,12495,1680006011357081920,j2s6s300_link_base,0.158051997423172,-0.5277740955352783,-0.08140245079994202,0.3955741822719574,-0.9008219838142395,0.09070579707622528,-0.1543148308992386
1680006011457226774,12496,1680006011457048495,j2s6s300_link_base,0.16389138996601105,-0.5267836451530457,-0.08106884360313416,0.3943672776222229,-0.9010012149810791,0.09066255390644073,-0.15636973083019257
1680006011557184289,12497,1680006011557079979,j2s6s300_link_base,0.17096269130706787,-0.5267121195793152,-0.08015607297420502,0.38826656341552734,-0.9026889204978943,0.09257549792528152,-0.16072244942188263
1680006011657241065,12498,1680006011657082126,j2s6s300_link_base,0.17739146947860718,-0.5273559093475342,-0.07899565994739532,0.3796132206916809,-0.9051464200019836,0.0954197496175766,-0.1658276617527008
1680006011757261427,12499,1680006011757091420,j2s6s300_link_base,0.18302831053733826,-0.5288549065589905,-0.07755410671234131,0.3678049147129059,-0.9085063934326172,0.09920209646224976,-0.17173941433429718
1680006011857247282,12500,1680006011857081050,j2s6s300_link_base,0.18893250823020935,-0.5305720567703247,-0.07601316273212433,0.35650956630706787,-0.9114838242530823,0.1031222864985466,-0.1773807406425476
1680006011957217063,12501,1680006011957090379,j2s6s300_link_base,0.19560667872428894,-0.5341809391975403,-0.07402665913105011,0.34755438566207886,-0.9134286642074585,0.108808234333992,-0.18169955909252167
1680006012057247009,12502,1680006012057081711,j2s6s300_link_base,0.19980746507644653,-0.5382255911827087,-0.07322010397911072,0.3412778675556183,-0.914934515953064,0.11424948275089264,-0.18267840147018433
1680006012157176080,12503,1680006012157049011,j2s6s300_link_base,0.20211495459079742,-0.5420806407928467,-0.07356835901737213,0.33357885479927063,-0.9170481562614441,0.11888525635004044,-0.18334193527698517
1680006012257215457,12504,1680006012257050464,j2s6s300_link_base,0.20400580763816833,-0.546491265296936,-0.07332511246204376,0.3236028552055359,-0.9197571277618408,0.1240985244512558,-0.18419428169727325
1680006012357188948,12505,1680006012357049950,j2s6s300_link_base,0.20532682538032532,-0.5495165586471558,-0.0732685774564743,0.3164638578891754,-0.921734631061554,0.12781143188476562,-0.18417416512966156
1680006012457167096,12506,1680006012457049657,j2s6s300_link_base,0.20590785145759583,-0.551253080368042,-0.07314030826091766,0.3123951256275177,-0.9228238463401794,0.12991654872894287,-0.1841929703950882
1680006012557190210,12507,1680006012557092680,j2s6s300_link_base,0.20613068342208862,-0.5523198246955872,-0.07295277714729309,0.31026411056518555,-0.9233770966529846,0.13120266795158386,-0.18411076068878174
1680006012657180343,12508,1680006012657084913,j2s6s300_link_base,0.20617184042930603,-0.5528405904769897,-0.07296843826770782,0.3090536892414093,-0.9237215518951416,0.13182003796100616,-0.18397821485996246
1680006012757175443,12509,1680006012757080270,j2s6s300_link_base,0.20617732405662537,-0.5533751845359802,-0.07285356521606445,0.30844196677207947,-0.9238827228546143,0.13240568339824677,-0.18377399444580078
1680006012857261313,12510,1680006012857091385,j2s6s300_link_base,0.20620153844356537,-0.5536074638366699,-0.07278759777545929,0.3080701231956482,-0.9239740371704102,0.13266032934188843,-0.18375541269779205
1680006012957242405,12511,1680006012957082894,j2s6s300_link_base,0.20618724822998047,-0.5536413788795471,-0.07278324663639069,0.3079970180988312,-0.9239965677261353,0.1326967179775238,-0.18373823165893555
1680006013057227375,12512,1680006013057083340,j2s6s300_link_base,0.20616884529590607,-0.5536888837814331,-0.07277558743953705,0.3079755902290344,-0.9240078330039978,0.1327519416809082,-0.18367768824100494
1680006013157195081,12513,1680006013157088797,j2s6s300_link_base,0.20612919330596924,-0.553999125957489,-0.07250644266605377,0.3079785108566284,-0.9240016341209412,0.13315045833587646,-0.1834152638912201
1680006013257158423,12514,1680006013257050240,j2s6s300_link_base,0.2061576098203659,-0.5541737079620361,-0.07230842113494873,0.3080228567123413,-0.9239767789840698,0.13338997960090637,-0.1832917332649231
1680006013357174785,12515,1680006013357076737,j2s6s300_link_base,0.20584964752197266,-0.5537716746330261,-0.07252231240272522,0.3103601932525635,-0.9234537482261658,0.1328258216381073,-0.1823926568031311
1680006013457174256,12516,1680006013457048720,j2s6s300_link_base,0.2032574713230133,-0.5511060357093811,-0.07386478781700134,0.32677727937698364,-0.919583261013031,0.1288507729768753,-0.17601332068443298
1680006013557216799,12517,1680006013557044689,j2s6s300_link_base,0.19852706789970398,-0.5477036237716675,-0.07555335760116577,0.35082823038101196,-0.9133267402648926,0.12310509383678436,-0.16612957417964935
1680006013657231333,12518,1680006013657085284,j2s6s300_link_base,0.19527959823608398,-0.5464352965354919,-0.07511068880558014,0.367301344871521,-0.9084792733192444,0.12036126852035522,-0.15895986557006836
1680006013757169570,12519,1680006013757049586,j2s6s300_link_base,0.19366365671157837,-0.546975314617157,-0.0727599561214447,0.37704208493232727,-0.9052585959434509,0.12047432363033295,-0.15437684953212738
1680006013857191823,12520,1680006013857050515,j2s6s300_link_base,0.19307157397270203,-0.5487489104270935,-0.06893222033977509,0.3828165829181671,-0.9030755758285522,0.12257799506187439,-0.15126317739486694
1680006013957113767,12521,1680006013957006753,j2s6s300_link_base,0.19289396703243256,-0.5512256622314453,-0.06420809030532837,0.3852938711643219,-0.9019730091094971,0.12562820315361023,-0.1490332931280136
1680006014057194489,12522,1680006014057051038,j2s6s300_link_base,0.19265979528427124,-0.5523391962051392,-0.06119850277900696,0.3854171931743622,-0.9019238948822021,0.12697160243988037,-0.14786843955516815
1680006014157144383,12523,1680006014157007084,j2s6s300_link_base,0.1918811798095703,-0.5489695072174072,-0.06065204739570618,0.38442161679267883,-0.9027017951011658,0.12405326217412949,-0.14819000661373138
1680006014257165825,12524,1680006014257051312,j2s6s300_link_base,0.19106024503707886,-0.5445102453231812,-0.06104600429534912,0.3828897774219513,-0.9037466049194336,0.12005924433469772,-0.1490747183561325
1680006014357200978,12525,1680006014357057909,j2s6s300_link_base,0.19066263735294342,-0.5425291061401367,-0.0595373809337616,0.381929874420166,-0.9042783975601196,0.118816077709198,-0.14930810034275055
1680006014457169860,12526,1680006014457058206,j2s6s300_link_base,0.19073447585105896,-0.5433640480041504,-0.05460307002067566,0.38156387209892273,-0.904218852519989,0.12118043750524521,-0.14870315790176392
1680006014557303826,12527,1680006014557088082,j2s6s300_link_base,0.19086575508117676,-0.5445318818092346,-0.04982505738735199,0.38145583868026733,-0.9040185213088989,0.12382544577121735,-0.1480179727077484
1680006014657201836,12528,1680006014657085503,j2s6s300_link_base,0.1910349428653717,-0.5456148386001587,-0.04641720652580261,0.3814285397529602,-0.9038170576095581,0.1259632408618927,-0.14751403033733368
1680006014757193456,12529,1680006014757084125,j2s6s300_link_base,0.19123852252960205,-0.5468719005584717,-0.0437958687543869,0.3813985586166382,-0.9036280512809753,0.1279372125864029,-0.1470491886138916
1680006014857157845,12530,1680006014857052563,j2s6s300_link_base,0.19137021899223328,-0.5477874279022217,-0.04164262115955353,0.3816350996494293,-0.9033740162849426,0.1294996738433838,-0.14662839472293854
1680006014957213858,12531,1680006014957084011,j2s6s300_link_base,0.19160676002502441,-0.5494630932807922,-0.03834676742553711,0.3821289539337158,-0.9029031991958618,0.13212087750434875,-0.14590175449848175
1680006015057219659,12532,1680006015057078070,j2s6s300_link_base,0.19177460670471191,-0.5506477355957031,-0.03523452579975128,0.3824934661388397,-0.9025200009346008,0.1343086212873459,-0.145318865776062
1680006015157218135,12533,1680006015157089961,j2s6s300_link_base,0.19149824976921082,-0.5491197109222412,-0.033823996782302856,0.38239336013793945,-0.9026293754577637,0.1337083876132965,-0.14545655250549316
1680006015257218287,12534,1680006015257084202,j2s6s300_link_base,0.1911121904850006,-0.5468953847885132,-0.03286805748939514,0.3821979761123657,-0.9028552770614624,0.13238972425460815,-0.14577369391918182
1680006015357231170,12535,1680006015357087998,j2s6s300_link_base,0.19115960597991943,-0.5472072958946228,-0.0285157710313797,0.38245725631713867,-0.9025166630744934,0.13448850810527802,-0.14526909589767456
1680006015457186894,12536,1680006015457087237,j2s6s300_link_base,0.19155359268188477,-0.5496745109558105,-0.021336063742637634,0.3831029534339905,-0.9016773104667664,0.13950257003307343,-0.14404557645320892
1680006015557200508,12537,1680006015557070017,j2s6s300_link_base,0.1918613165616989,-0.5517400503158569,-0.015539586544036865,0.383699506521225,-0.9009419679641724,0.143637552857399,-0.1429911106824875
1680006015657222407,12538,1680006015657085934,j2s6s300_link_base,0.19198715686798096,-0.5528988838195801,-0.012219071388244629,0.38433194160461426,-0.9004159569740295,0.1459682285785675,-0.14224332571029663
1680006015757218332,12539,1680006015757088735,j2s6s300_link_base,0.191635400056839,-0.5532605648040771,-0.01045273244380951,0.38647496700286865,-0.8995682001113892,0.1467800736427307,-0.1409602016210556
1680006015857197996,12540,1680006015857064083,j2s6s300_link_base,0.1887015849351883,-0.5518856644630432,-0.010389924049377441,0.39927753806114197,-0.8953915238380432,0.14399966597557068,-0.1345941424369812
1680006015957196422,12541,1680006015957052169,j2s6s300_link_base,0.18287673592567444,-0.5490438938140869,-0.011983245611190796,0.4231870770454407,-0.8871140480041504,0.13744191825389862,-0.12268278002738953
1680006016057195489,12542,1680006016057049734,j2s6s300_link_base,0.1782863438129425,-0.5472384095191956,-0.01296447217464447,0.44096121191978455,-0.8804174065589905,0.1324707716703415,-0.11344550549983978
1680006016157189680,12543,1680006016157043415,j2s6s300_link_base,0.17537516355514526,-0.5463201999664307,-0.013566583395004272,0.443155974149704,-0.8804609775543213,0.12846991419792175,-0.10907141119241714
1680006016257193891,12544,1680006016257039390,j2s6s300_link_base,0.1732085794210434,-0.5459822416305542,-0.01406601071357727,0.42622753977775574,-0.8894615173339844,0.12405869364738464,-0.10861751437187195
1680006016357162940,12545,1680006016357048836,j2s6s300_link_base,0.17204108834266663,-0.545558750629425,-0.014468282461166382,0.4030640125274658,-0.9006218910217285,0.1195744201540947,-0.1100972592830658
1680006016457256136,12546,1680006016457046220,j2s6s300_link_base,0.17141121625900269,-0.545494556427002,-0.01430577039718628,0.38762134313583374,-0.9075919985771179,0.11702252924442291,-0.11105025559663773
1680006016557268136,12547,1680006016557041093,j2s6s300_link_base,0.17134511470794678,-0.5471266508102417,-0.010873138904571533,0.37921610474586487,-0.9109721183776855,0.11842973530292511,-0.11090224981307983
1680006016657232573,12548,1680006016657043673,j2s6s300_link_base,0.17179244756698608,-0.5513818264007568,-0.0015377402305603027,0.37490689754486084,-0.9120239615440369,0.1252414882183075,-0.10941571742296219
1680006016757833442,12549,1680006016757676189,j2s6s300_link_base,0.17165729403495789,-0.5546631813049316,0.006992638111114502,0.3737853467464447,-0.9118505120277405,0.13132402300834656,-0.10755115747451782
1680006016857165665,12550,1680006016857029483,j2s6s300_link_base,0.16924035549163818,-0.5514878630638123,0.009773492813110352,0.3786124289035797,-0.9106165766716003,0.12903015315532684,-0.10383278131484985
1680006016957183173,12551,1680006016957065225,j2s6s300_link_base,0.1658952236175537,-0.5444360375404358,0.009053975343704224,0.3850814998149872,-0.9092495441436768,0.12205620110034943,-0.10039819777011871
1680006017057234591,12552,1680006017057095626,j2s6s300_link_base,0.1635323464870453,-0.5391266345977783,0.00832301378250122,0.38962221145629883,-0.9082337021827698,0.11686822772026062,-0.09822411835193634
1680006017157152872,12553,1680006017157050567,j2s6s300_link_base,0.16148823499679565,-0.5371904373168945,0.00775572657585144,0.39134055376052856,-0.9079457521438599,0.11569429934024811,-0.09540403634309769
1680006017257147172,12554,1680006017257054951,j2s6s300_link_base,0.15899944305419922,-0.5390100479125977,0.007058590650558472,0.39148351550102234,-0.9080120325088501,0.11948362737894058,-0.08932273089885712
1680006017357134299,12555,1680006017357048884,j2s6s300_link_base,0.1567806601524353,-0.5406467318534851,0.006567627191543579,0.3913232982158661,-0.9081178307533264,0.12243401259183884,-0.08484089374542236
1680006017457207677,12556,1680006017457065978,j2s6s300_link_base,0.1552743911743164,-0.5418936610221863,0.006695747375488281,0.39052823185920715,-0.9083988666534424,0.12445301562547684,-0.08252625167369843
1680006017557163681,12557,1680006017557058386,j2s6s300_link_base,0.15400418639183044,-0.5424597263336182,0.006544351577758789,0.3897051215171814,-0.908746600151062,0.12525486946105957,-0.08136843144893646
1680006017657188274,12558,1680006017657061466,j2s6s300_link_base,0.152845099568367,-0.542829692363739,0.0064009130001068115,0.3890261948108673,-0.909049928188324,0.1256876438856125,-0.08055789768695831
1680006017757200464,12559,1680006017757068112,j2s6s300_link_base,0.15220347046852112,-0.5431995987892151,0.006399184465408325,0.38850703835487366,-0.9092538356781006,0.12608498334884644,-0.08013871312141418
1680006017857198779,12560,1680006017857059287,j2s6s300_link_base,0.15199175477027893,-0.5434592962265015,0.006417363882064819,0.3883276581764221,-0.9093101620674133,0.12642917037010193,-0.07982751727104187
1680006017957180139,12561,1680006017957067355,j2s6s300_link_base,0.151966392993927,-0.5435243248939514,0.0064289867877960205,0.3883019983768463,-0.9093148708343506,0.12652572989463806,-0.0797450840473175
1680006018057218919,12562,1680006018057050725,j2s6s300_link_base,0.15192943811416626,-0.5435904860496521,0.006432950496673584,0.3882633149623871,-0.9093255996704102,0.12661977112293243,-0.0796613097190857
