%time,field.header.seq,field.header.stamp,field.header.frame_id,field.pose.position.x,field.pose.position.y,field.pose.position.z,field.pose.orientation.x,field.pose.orientation.y,field.pose.orientation.z,field.pose.orientation.w
1680005565859336492,8040,1680005565859040438,j2s6s300_link_base,-0.39575132727622986,-0.3520486354827881,-0.0060308873653411865,0.5224376916885376,0.8440209627151489,-0.120781809091568,0.009960152208805084
1680005565956713716,8041,1680005565956607076,j2s6s300_link_base,-0.39575132727622986,-0.3520486354827881,-0.0060308873653411865,0.5224376916885376,0.8440209627151489,-0.120781809091568,0.009960152208805084
1680005566056730049,8042,1680005566056606195,j2s6s300_link_base,-0.39575132727622986,-0.3520486354827881,-0.0060308873653411865,0.5224376916885376,0.8440209627151489,-0.120781809091568,0.009960152208805084
1680005566156731391,8043,1680005566156638548,j2s6s300_link_base,-0.39575132727622986,-0.3520486354827881,-0.0060308873653411865,0.5224376916885376,0.8440209627151489,-0.120781809091568,0.009960152208805084
1680005566256743976,8044,1680005566256638812,j2s6s300_link_base,-0.39575132727622986,-0.3520486354827881,-0.0060308873653411865,0.5224376916885376,0.8440209627151489,-0.120781809091568,0.009960152208805084
1680005566356744896,8045,1680005566356640005,j2s6s300_link_base,-0.39575132727622986,-0.3520486354827881,-0.0060308873653411865,0.5224376916885376,0.8440209627151489,-0.120781809091568,0.009960152208805084
1680005566456732116,8046,1680005566456639125,j2s6s300_link_base,-0.39575132727622986,-0.3520486354827881,-0.0060308873653411865,0.5224376916885376,0.8440209627151489,-0.120781809091568,0.009960152208805084
1680005566556698147,8047,1680005566556611440,j2s6s300_link_base,-0.39575132727622986,-0.3520486354827881,-0.0060308873653411865,0.5224376916885376,0.8440209627151489,-0.120781809091568,0.009960152208805084
1680005566656783401,8048,1680005566656621281,j2s6s300_link_base,-0.39575132727622986,-0.3520486354827881,-0.0060308873653411865,0.5224376916885376,0.8440209627151489,-0.120781809091568,0.009960152208805084
1680005566756764624,8049,1680005566756640075,j2s6s300_link_base,-0.39575132727622986,-0.3520486354827881,-0.0060308873653411865,0.5224376916885376,0.8440209627151489,-0.120781809091568,0.009960152208805084
1680005566856789406,8050,1680005566856635417,j2s6s300_link_base,-0.39575132727622986,-0.3520486354827881,-0.0060308873653411865,0.5224376916885376,0.8440209627151489,-0.120781809091568,0.009960152208805084
1680005566956801046,8051,1680005566956640459,j2s6s300_link_base,-0.39575132727622986,-0.3520486354827881,-0.0060308873653411865,0.5224376916885376,0.8440209627151489,-0.120781809091568,0.009960152208805084
1680005567056695361,8052,1680005567056607527,j2s6s300_link_base,-0.39575132727622986,-0.3520486354827881,-0.0060308873653411865,0.5224376916885376,0.8440209627151489,-0.120781809091568,0.009960152208805084
1680005567156805937,8053,1680005567156648370,j2s6s300_link_base,-0.39575132727622986,-0.3520486354827881,-0.0060308873653411865,0.5224376916885376,0.8440209627151489,-0.120781809091568,0.009960152208805084
1680005567256696534,8054,1680005567256607590,j2s6s300_link_base,-0.39575132727622986,-0.3520486354827881,-0.0060308873653411865,0.5224376916885376,0.8440209627151489,-0.120781809091568,0.009960152208805084
1680005567356720513,8055,1680005567356608727,j2s6s300_link_base,-0.39575132727622986,-0.3520486354827881,-0.0060308873653411865,0.5224376916885376,0.8440209627151489,-0.120781809091568,0.009960152208805084
1680005567456769088,8056,1680005567456607755,j2s6s300_link_base,-0.39575132727622986,-0.3520486354827881,-0.0060308873653411865,0.5224376916885376,0.8440209627151489,-0.120781809091568,0.009960152208805084
1680005567556765679,8057,1680005567556607714,j2s6s300_link_base,-0.39575132727622986,-0.3520486354827881,-0.0060308873653411865,0.5224376916885376,0.8440209627151489,-0.120781809091568,0.009960152208805084
1680005567656756473,8058,1680005567656608127,j2s6s300_link_base,-0.39575132727622986,-0.3520486354827881,-0.0060308873653411865,0.5224376916885376,0.8440209627151489,-0.120781809091568,0.009960152208805084
1680005567756773534,8059,1680005567756608473,j2s6s300_link_base,-0.39575132727622986,-0.3520486354827881,-0.0060308873653411865,0.5224376916885376,0.8440209627151489,-0.120781809091568,0.009960152208805084
1680005567856769741,8060,1680005567856607455,j2s6s300_link_base,-0.39575132727622986,-0.3520486354827881,-0.0060308873653411865,0.5224376916885376,0.8440209627151489,-0.120781809091568,0.009960152208805084
1680005567956803771,8061,1680005567956641612,j2s6s300_link_base,-0.39575132727622986,-0.3520486354827881,-0.0060308873653411865,0.5224376916885376,0.8440209627151489,-0.120781809091568,0.009960152208805084
1680005568056742147,8062,1680005568056642412,j2s6s300_link_base,-0.3957521319389343,-0.3520492911338806,-0.006030440330505371,0.5224376916885376,0.8440209031105042,-0.12078270316123962,0.009959835559129715
1680005568156743466,8063,1680005568156646161,j2s6s300_link_base,-0.3957521319389343,-0.3520492911338806,-0.006030440330505371,0.5224376916885376,0.8440209031105042,-0.12078270316123962,0.009959835559129715
1680005568256806432,8064,1680005568256640178,j2s6s300_link_base,-0.3957521319389343,-0.3520492911338806,-0.006030440330505371,0.5224376916885376,0.8440209031105042,-0.12078270316123962,0.009959835559129715
1680005568356771547,8065,1680005568356644702,j2s6s300_link_base,-0.3957521319389343,-0.3520492911338806,-0.006030440330505371,0.5224376916885376,0.8440209031105042,-0.12078270316123962,0.009959835559129715
1680005568456774432,8066,1680005568456609859,j2s6s300_link_base,-0.3957521319389343,-0.3520492911338806,-0.006030440330505371,0.5224376916885376,0.8440209031105042,-0.12078270316123962,0.009959835559129715
1680005568556741976,8067,1680005568556602495,j2s6s300_link_base,-0.3957521319389343,-0.3520492911338806,-0.006030440330505371,0.5224376916885376,0.8440209031105042,-0.12078270316123962,0.009959835559129715
1680005568656813045,8068,1680005568656646844,j2s6s300_link_base,-0.3957521319389343,-0.3520492911338806,-0.006030440330505371,0.5224376916885376,0.8440209031105042,-0.12078270316123962,0.009959835559129715
1680005568756765693,8069,1680005568756640727,j2s6s300_link_base,-0.3957521319389343,-0.3520492911338806,-0.006030440330505371,0.5224376916885376,0.8440209031105042,-0.12078270316123962,0.009959835559129715
1680005568856798781,8070,1680005568856642258,j2s6s300_link_base,-0.3957526981830597,-0.35204973816871643,-0.006030172109603882,0.5224375128746033,0.8440209031105042,-0.12078337371349335,0.009959593415260315
1680005568956802607,8071,1680005568956602574,j2s6s300_link_base,-0.3957526981830597,-0.35204973816871643,-0.006030172109603882,0.5224375128746033,0.8440209031105042,-0.12078337371349335,0.009959593415260315
1680005569056794323,8072,1680005569056642117,j2s6s300_link_base,-0.3957526981830597,-0.35204973816871643,-0.006030172109603882,0.5224375128746033,0.8440209031105042,-0.12078337371349335,0.009959593415260315
1680005569156749590,8073,1680005569156638861,j2s6s300_link_base,-0.39575356245040894,-0.3520503640174866,-0.0060298144817352295,0.5224374532699585,0.8440208435058594,-0.12078426033258438,0.009959261864423752
1680005569256799835,8074,1680005569256642550,j2s6s300_link_base,-0.3957526683807373,-0.35204970836639404,-0.006031900644302368,0.5224376916885376,0.8440209031105042,-0.12078248709440231,0.009959958493709564
1680005569356772529,8075,1680005569356641557,j2s6s300_link_base,-0.3957594037055969,-0.3520428538322449,-0.0060336291790008545,0.5224453806877136,0.8440161943435669,-0.12078189849853516,0.009959105402231216
1680005569456781178,8076,1680005569456646691,j2s6s300_link_base,-0.3957193195819855,-0.3520064651966095,-0.006135463714599609,0.5224586129188538,0.8440204858779907,-0.12069239467382431,0.009992174804210663
1680005569556761637,8077,1680005569556609507,j2s6s300_link_base,-0.3955894708633423,-0.35190626978874207,-0.006444215774536133,0.5224881172180176,0.8440396785736084,-0.1204213798046112,0.01009402796626091
1680005569656745804,8078,1680005569656610119,j2s6s300_link_base,-0.3955231308937073,-0.35184839367866516,-0.006608188152313232,0.5225082039833069,0.8440473079681396,-0.12027657777070999,0.010147757828235626
1680005569756729818,8079,1680005569756609265,j2s6s300_link_base,-0.3953893780708313,-0.35174521803855896,-0.0069242119789123535,0.5225386023521423,0.8440666794776917,-0.11999858915805817,0.010252252221107483
1680005569856771873,8080,1680005569856609010,j2s6s300_link_base,-0.39535391330718994,-0.3517136573791504,-0.007014423608779907,0.5225496292114258,0.8440707325935364,-0.11991959810256958,0.010281477123498917
1680005569956775832,8081,1680005569956613138,j2s6s300_link_base,-0.3952573835849762,-0.35163408517837524,-0.007248610258102417,0.5225754380226135,0.8440830707550049,-0.11971355974674225,0.010358419269323349
1680005570056770912,8082,1680005570056607804,j2s6s300_link_base,-0.39521700143814087,-0.35159310698509216,-0.007357180118560791,0.5225920081138611,0.8440858721733093,-0.11961846798658371,0.010393284261226654
1680005570156748841,8083,1680005570156611825,j2s6s300_link_base,-0.39522528648376465,-0.3515527546405792,-0.007399916648864746,0.5226255655288696,0.8440700769424438,-0.11958272755146027,0.010402675718069077
1680005570256746761,8084,1680005570256612529,j2s6s300_link_base,-0.3950907588005066,-0.35136640071868896,-0.00781896710395813,0.5227189064025879,0.8440627455711365,-0.11921417713165283,0.010534033179283142
1680005570356763582,8085,1680005570356638017,j2s6s300_link_base,-0.3940940201282501,-0.3505921959877014,-0.010159283876419067,0.5229450464248657,0.8442016243934631,-0.1171504557132721,0.011308595538139343
1680005570456820614,8086,1680005570456645146,j2s6s300_link_base,-0.392267107963562,-0.34891119599342346,-0.015093386173248291,0.523565411567688,0.8443693518638611,-0.11293302476406097,0.012869376689195633
1680005570556788832,8087,1680005570556640656,j2s6s300_link_base,-0.3906519412994385,-0.3476018011569977,-0.019535869359970093,0.5239871144294739,0.8445690274238586,-0.10925984382629395,0.014242924749851227
1680005570656834918,8088,1680005570656638389,j2s6s300_link_base,-0.3896660804748535,-0.346815288066864,-0.02251794934272766,0.5242444276809692,0.8446962833404541,-0.10689815878868103,0.015126559883356094
1680005570756747658,8089,1680005570756603956,j2s6s300_link_base,-0.389639288187027,-0.3466997742652893,-0.024070680141448975,0.5243896245956421,0.8447058796882629,-0.10606233775615692,0.015432845801115036
1680005570856842247,8090,1680005570856592491,j2s6s300_link_base,-0.39126428961753845,-0.34791332483291626,-0.024163872003555298,0.524276614189148,0.8446130752563477,-0.10742563009262085,0.014918401837348938
1680005570956837582,8091,1680005570956598480,j2s6s300_link_base,-0.394384503364563,-0.3503190875053406,-0.023375362157821655,0.5239555835723877,0.844429075717926,-0.11054997146129608,0.013745743781328201
1680005571056768636,8092,1680005571056600845,j2s6s300_link_base,-0.3966292142868042,-0.3520544767379761,-0.022707462310791016,0.5237129926681519,0.8442894816398621,-0.11284512281417847,0.012884337455034256
1680005571156805192,8093,1680005571156601315,j2s6s300_link_base,-0.3980719745159149,-0.3531665802001953,-0.02231776714324951,0.5235598087310791,0.8441972732543945,-0.11429767310619354,0.0123387910425663
1680005571256768764,8094,1680005571256598216,j2s6s300_link_base,-0.3987047076225281,-0.35365381836891174,-0.022259116172790527,0.5234982371330261,0.8441596627235413,-0.11487939208745956,0.012120172381401062
1680005571356751706,8095,1680005571356597048,j2s6s300_link_base,-0.3990370035171509,-0.3539097309112549,-0.022303998470306396,0.5234697461128235,0.8441420793533325,-0.11514806002378464,0.012019198387861252
1680005571456728364,8096,1680005571456591265,j2s6s300_link_base,-0.39911627769470215,-0.35397103428840637,-0.02286192774772644,0.5234922170639038,0.8441544771194458,-0.11494682729244232,0.012095373123884201
1680005571556806406,8097,1680005571556651819,j2s6s300_link_base,-0.39838993549346924,-0.35342270135879517,-0.024687200784683228,0.5236458778381348,0.8442555665969849,-0.11343260109424591,0.012665566056966782
1680005571656778752,8098,1680005571656646328,j2s6s300_link_base,-0.3970215916633606,-0.35237014293670654,-0.027914345264434814,0.523931622505188,0.8444276452064514,-0.1106795147061348,0.013699647039175034
1680005571756728237,8099,1680005571756627631,j2s6s300_link_base,-0.39598557353019714,-0.3515724837779999,-0.030712544918060303,0.5241631269454956,0.8445614576339722,-0.10843169689178467,0.014543946832418442
1680005571856807016,8100,1680005571856642453,j2s6s300_link_base,-0.3950597941875458,-0.35085684061050415,-0.03277990221977234,0.5243470668792725,0.844664454460144,-0.10663198679685593,0.015219129621982574
1680005571956774484,8101,1680005571956643486,j2s6s300_link_base,-0.394687294960022,-0.35056716203689575,-0.033855140209198,0.5244331955909729,0.8447107672691345,-0.10579347610473633,0.015533555299043655
1680005572056850998,8102,1680005572056647276,j2s6s300_link_base,-0.3943718671798706,-0.35032421350479126,-0.034663259983062744,0.5244991183280945,0.8447476625442505,-0.10513337701559067,0.01578117534518242
1680005572156771546,8103,1680005572156646396,j2s6s300_link_base,-0.3941430449485779,-0.35014796257019043,-0.035171300172805786,0.5245431661605835,0.8447721004486084,-0.10469149053096771,0.01594686135649681
1680005572256829581,8104,1680005572256658931,j2s6s300_link_base,-0.39405307173728943,-0.3500787019729614,-0.03545105457305908,0.5245640873908997,0.8447837233543396,-0.10448037087917328,0.016026031225919724
1680005572356797653,8105,1680005572356644923,j2s6s300_link_base,-0.39433491230010986,-0.3502957820892334,-0.03543272614479065,0.5245383381843567,0.8447694182395935,-0.10473991930484772,0.015928756445646286
1680005572456741711,8106,1680005572456612654,j2s6s300_link_base,-0.39464566111564636,-0.3505350649356842,-0.03575637936592102,0.5245258808135986,0.8447625041007996,-0.10486534237861633,0.01588168367743492
1680005572556772171,8107,1680005572556613643,j2s6s300_link_base,-0.39542755484580994,-0.3511374890804291,-0.037360966205596924,0.5245318412780762,0.8447643518447876,-0.10481639206409454,0.015900570899248123
1680005572656786637,8108,1680005572656613167,j2s6s300_link_base,-0.3964104950428009,-0.3518945574760437,-0.03967675566673279,0.5245506167411804,0.8447749018669128,-0.10462825745344162,0.015971127897500992
1680005572756775991,8109,1680005572756612772,j2s6s300_link_base,-0.39845311641693115,-0.3534718453884125,-0.04111894965171814,0.5244308114051819,0.844711184501648,-0.10580237209796906,0.01553099974989891
1680005572856815325,8110,1680005572856654199,j2s6s300_link_base,-0.4002763628959656,-0.3548760414123535,-0.04179176688194275,0.524296760559082,0.8446356654167175,-0.10713285207748413,0.015031781047582626
1680005572956783974,8111,1680005572956654917,j2s6s300_link_base,-0.4011138677597046,-0.355521023273468,-0.04238748550415039,0.5242478251457214,0.8446077704429626,-0.10761666297912598,0.014850296080112457
1680005573056806930,8112,1680005573056646553,j2s6s300_link_base,-0.4016244113445282,-0.3559202551841736,-0.04274287819862366,0.524214506149292,0.8445918560028076,-0.10791874676942825,0.014737781137228012
1680005573156801754,8113,1680005573156640810,j2s6s300_link_base,-0.4018232822418213,-0.35607343912124634,-0.043064117431640625,0.524211049079895,0.8445897102355957,-0.10795393586158752,0.01472460851073265
1680005573256772560,8114,1680005573256646497,j2s6s300_link_base,-0.4010635316371918,-0.3554978370666504,-0.0451454222202301,0.5243681073188782,0.844684898853302,-0.10635076463222504,0.015327244997024536
1680005573356782354,8115,1680005573356649463,j2s6s300_link_base,-0.39920300245285034,-0.3540865182876587,-0.04933500289916992,0.5247050523757935,0.8448857069015503,-0.10283825546503067,0.01664675772190094
1680005573456801165,8116,1680005573456646708,j2s6s300_link_base,-0.39750024676322937,-0.35277360677719116,-0.053264737129211426,0.5250238180160522,0.8450523614883423,-0.09958548843860626,0.017866365611553192
1680005573556776553,8117,1680005573556644221,j2s6s300_link_base,-0.3965812623500824,-0.3520565330982208,-0.05561688542366028,0.5252071619033813,0.8451398015022278,-0.09773249179124832,0.018560022115707397
1680005573656804458,8118,1680005573656640107,j2s6s300_link_base,-0.3967258334159851,-0.35216790437698364,-0.05681374669075012,0.5252432823181152,0.845158040523529,-0.09735291451215744,0.01870218850672245
1680005573756772032,8119,1680005573756613369,j2s6s300_link_base,-0.3982577919960022,-0.35334938764572144,-0.056872397661209106,0.525111198425293,0.8450919389724731,-0.09872729331254959,0.018187370151281357
1680005573856743643,8120,1680005573856613613,j2s6s300_link_base,-0.4005964398384094,-0.3551545739173889,-0.05641034245491028,0.5248835682868958,0.8449760675430298,-0.10105892270803452,0.0173138827085495
1680005573956793247,8121,1680005573956613938,j2s6s300_link_base,-0.4024147093296051,-0.35656461119651794,-0.056087881326675415,0.5247026085853577,0.8448849320411682,-0.10285762697458267,0.016640689224004745
1680005574056805372,8122,1680005574056647052,j2s6s300_link_base,-0.4036579132080078,-0.3575400412082672,-0.05576831102371216,0.5245654582977295,0.8448230624198914,-0.10413350909948349,0.016163498163223267
1680005574156758480,8123,1680005574156626156,j2s6s300_link_base,-0.40422049164772034,-0.3579734265804291,-0.05580034852027893,0.5245168805122375,0.8447951078414917,-0.104632668197155,0.01597650721669197
1680005574256765396,8124,1680005574256642174,j2s6s300_link_base,-0.4039762616157532,-0.35780203342437744,-0.05712622404098511,0.5245840549468994,0.8448429703712463,-0.10386206209659576,0.01626705378293991
1680005574356776500,8125,1680005574356644818,j2s6s300_link_base,-0.40263691544532776,-0.35678789019584656,-0.06012025475502014,0.5248160362243652,0.8449795246124268,-0.10140030831098557,0.017191678285598755
1680005574456781391,8126,1680005574456648101,j2s6s300_link_base,-0.40109187364578247,-0.35561299324035645,-0.06371691823005676,0.5250869393348694,0.8451305031776428,-0.09850941598415375,0.018276343122124672
1680005574556743694,8127,1680005574556650974,j2s6s300_link_base,-0.39990559220314026,-0.35471802949905396,-0.06633737683296204,0.5252793431282043,0.8452410101890564,-0.09635861217975616,0.019083110615611076
1680005574656779546,8128,1680005574656647905,j2s6s300_link_base,-0.39947277307510376,-0.35438549518585205,-0.06770330667495728,0.5253682732582092,0.8452855944633484,-0.09540711343288422,0.01943943277001381
1680005574756751926,8129,1680005574756614520,j2s6s300_link_base,-0.3998357355594635,-0.3546988070011139,-0.06836363673210144,0.5253391861915588,0.8452947735786438,-0.09549248218536377,0.019409658387303352
1680005574856776382,8130,1680005574856615364,j2s6s300_link_base,-0.40047958493232727,-0.3552181124687195,-0.06833726167678833,0.5252664685249329,0.8452752232551575,-0.09610913693904877,0.019180331379175186
1680005574956750842,8131,1680005574956614629,j2s6s300_link_base,-0.40085190534591675,-0.3555307388305664,-0.06850370764732361,0.5252230763435364,0.8452717065811157,-0.09639871120452881,0.019073667004704475
1680005575056774574,8132,1680005575056615977,j2s6s300_link_base,-0.40115833282470703,-0.3557669520378113,-0.06847873330116272,0.525195300579071,0.8452578783035278,-0.09669198095798492,0.018963856622576714
1680005575156740563,8133,1680005575156615124,j2s6s300_link_base,-0.40131616592407227,-0.355890154838562,-0.06858336925506592,0.5251845121383667,0.8452535271644592,-0.09679675847291946,0.018924742937088013
1680005575256748586,8134,1680005575256617127,j2s6s300_link_base,-0.4013686776161194,-0.3559305965900421,-0.06856781244277954,0.5251792669296265,0.8452509045600891,-0.09685151278972626,0.01890425942838192
1680005575356745664,8135,1680005575356615862,j2s6s300_link_base,-0.40142813324928284,-0.355972021818161,-0.06854426860809326,0.5251752138137817,0.8452469110488892,-0.09691324830055237,0.01888086460530758
1680005575456747785,8136,1680005575456616567,j2s6s300_link_base,-0.40142813324928284,-0.355972021818161,-0.06854426860809326,0.5251752138137817,0.8452469110488892,-0.09691324830055237,0.01888086460530758
1680005575556705691,8137,1680005575556616562,j2s6s300_link_base,-0.4014325439929962,-0.3559754192829132,-0.06854248046875,0.5251746773719788,0.8452467322349548,-0.09691806137561798,0.01887907274067402
1680005575656727804,8138,1680005575656608104,j2s6s300_link_base,-0.401430606842041,-0.35598519444465637,-0.06854364275932312,0.5251674652099609,0.8452508449554443,-0.09692104160785675,0.0188786331564188
1680005575756850941,8139,1680005575756644836,j2s6s300_link_base,-0.4014349579811096,-0.35601943731307983,-0.06853601336479187,0.525145947933197,0.8452619314193726,-0.09694274514913559,0.018872587010264397
1680005575856767780,8140,1680005575856641690,j2s6s300_link_base,-0.40143993496894836,-0.3560677468776703,-0.06852802634239197,0.5251153111457825,0.8452778458595276,-0.09697160869836807,0.018864784389734268
1680005575956776901,8141,1680005575956649948,j2s6s300_link_base,-0.40126365423202515,-0.35625067353248596,-0.06855660676956177,0.5249179005622864,0.8454024195671082,-0.09694800525903702,0.01889478601515293
1680005576056772686,8142,1680005576056642048,j2s6s300_link_base,-0.4010372459888458,-0.3564746677875519,-0.06859439611434937,0.5246724486351013,0.8455579280853271,-0.0969124436378479,0.018935032188892365
1680005576156744792,8143,1680005576156652395,j2s6s300_link_base,-0.4006694257259369,-0.3568880558013916,-0.06860500574111938,0.5242368578910828,0.8458284735679626,-0.09689798951148987,0.01898714154958725
1680005576256797177,8144,1680005576256664631,j2s6s300_link_base,-0.3994714915752411,-0.35817956924438477,-0.06865906715393066,0.5228540897369385,0.846688985824585,-0.0968211442232132,0.019162895157933235
1680005576356773836,8145,1680005576356649731,j2s6s300_link_base,-0.3977930545806885,-0.36016348004341125,-0.06865429878234863,0.5207940936088562,0.8479509949684143,-0.09683597087860107,0.01937534473836422
1680005576456777830,8146,1680005576456650194,j2s6s300_link_base,-0.3952181339263916,-0.3629438281059265,-0.06872949004173279,0.5178032517433167,0.8497860431671143,-0.0967152863740921,0.01973581872880459
1680005576556784909,8147,1680005576556657337,j2s6s300_link_base,-0.3930058479309082,-0.3655166029930115,-0.06873691082000732,0.51510089635849,0.8514177799224854,-0.09673933684825897,0.020010212436318398
1680005576656807358,8148,1680005576656649544,j2s6s300_link_base,-0.3930269777774811,-0.3686630129814148,-0.0680399239063263,0.51299649477005,0.8524883389472961,-0.09856884181499481,0.01955699920654297
1680005576756890878,8149,1680005576756651076,j2s6s300_link_base,-0.3948683738708496,-0.3719417154788971,-0.06686502695083618,0.5116158127784729,0.8529771566390991,-0.1016584113240242,0.018569795414805412
1680005576856797921,8150,1680005576856627833,j2s6s300_link_base,-0.3963121473789215,-0.37410447001457214,-0.06603699922561646,0.5108098983764648,0.8532123565673828,-0.10384246706962585,0.017857056111097336
1680005576956748271,8151,1680005576956616957,j2s6s300_link_base,-0.3972652852535248,-0.3754662275314331,-0.06551465392112732,0.5103234052658081,0.8533414006233215,-0.10524173825979233,0.017398487776517868
1680005577056875670,8152,1680005577056654575,j2s6s300_link_base,-0.3977174460887909,-0.3762449324131012,-0.06534808874130249,0.5100095272064209,0.8534473180770874,-0.10593830794095993,0.017178915441036224
1680005577156799511,8153,1680005577156584433,j2s6s300_link_base,-0.39733365178108215,-0.37686577439308167,-0.0657685399055481,0.5094516277313232,0.8537873029708862,-0.10586834698915482,0.017270352691411972
1680005577256763776,8154,1680005577256614982,j2s6s300_link_base,-0.39565885066986084,-0.3788321614265442,-0.06605705618858337,0.5074334144592285,0.8549892902374268,-0.10581820458173752,0.01752358302474022
1680005577356768593,8155,1680005577356616949,j2s6s300_link_base,-0.3936520516872406,-0.381242036819458,-0.06626006960868835,0.5049704909324646,0.8564363121986389,-0.10585330426692963,0.017797160893678665
1680005577456798488,8156,1680005577456611439,j2s6s300_link_base,-0.3932497203350067,-0.38425958156585693,-0.06602135300636292,0.5028260350227356,0.8575291633605957,-0.10724642127752304,0.017546910792589188
1680005577556779549,8157,1680005577556605593,j2s6s300_link_base,-0.39506858587265015,-0.3885170817375183,-0.06477749347686768,0.5008650422096252,0.8582373261451721,-0.11086490750312805,0.01648728922009468
1680005577656791204,8158,1680005577656605554,j2s6s300_link_base,-0.396098792552948,-0.394397109746933,-0.06332841515541077,0.49752458930015564,0.8596580028533936,-0.11497330665588379,0.015442095696926117
1680005577756823240,8159,1680005577756606406,j2s6s300_link_base,-0.3946648836135864,-0.39993956685066223,-0.06333908438682556,0.4933716058731079,0.8617722988128662,-0.1170499175786972,0.015244387090206146
1680005577856775655,8160,1680005577856630490,j2s6s300_link_base,-0.3917706608772278,-0.4045566916465759,-0.06477084755897522,0.48920443654060364,0.8640949130058289,-0.11735884100198746,0.01567717269062996
1680005577956766012,8161,1680005577956601963,j2s6s300_link_base,-0.3901805579662323,-0.40848609805107117,-0.06668823957443237,0.48609471321105957,0.8657785058021545,-0.11784005165100098,0.015915710479021072
1680005578056750742,8162,1680005578056610126,j2s6s300_link_base,-0.38921400904655457,-0.413972407579422,-0.0675467848777771,0.48228397965431213,0.8676269054412842,-0.11991150677204132,0.015713319182395935
1680005578156815527,8163,1680005578156652955,j2s6s300_link_base,-0.38970947265625,-0.41977694630622864,-0.06726613640785217,0.4789496958255768,0.8689993023872375,-0.12337922304868698,0.014999154955148697
1680005578256802900,8164,1680005578256617698,j2s6s300_link_base,-0.38981857895851135,-0.4261762797832489,-0.06621488928794861,0.47507667541503906,0.8705732226371765,-0.12728579342365265,0.014238759875297546
1680005578356807351,8165,1680005578356653117,j2s6s300_link_base,-0.387469619512558,-0.43292975425720215,-0.06548312306404114,0.4698851406574249,0.8729821443557739,-0.13004615902900696,0.014073316007852554
1680005578456783869,8166,1680005578456649908,j2s6s300_link_base,-0.38542264699935913,-0.43822887539863586,-0.06543302536010742,0.46576040983200073,0.874904990196228,-0.13195070624351501,0.014056611806154251
1680005578556799169,8167,1680005578556652945,j2s6s300_link_base,-0.38347959518432617,-0.44295334815979004,-0.06665772199630737,0.46209341287612915,0.8766642212867737,-0.13314518332481384,0.0142127126455307
1680005578656815133,8168,1680005578656653281,j2s6s300_link_base,-0.38102519512176514,-0.447757750749588,-0.06790924072265625,0.4581478536128998,0.8785743713378906,-0.13415661454200745,0.01447601243853569
1680005578756783668,8169,1680005578756650444,j2s6s300_link_base,-0.37842363119125366,-0.45399853587150574,-0.06809499859809875,0.45327073335647583,0.8807634115219116,-0.13634681701660156,0.014524616301059723
1680005578856792223,8170,1680005578856644988,j2s6s300_link_base,-0.37508827447891235,-0.46095067262649536,-0.06788036227226257,0.44763725996017456,0.8832576274871826,-0.13878966867923737,0.014634400606155396
1680005578956780826,8171,1680005578956654750,j2s6s300_link_base,-0.3737488389015198,-0.4676894247531891,-0.06676575541496277,0.44311287999153137,0.8849589824676514,-0.1424637734889984,0.014236997812986374
1680005579056813896,8172,1680005579056654257,j2s6s300_link_base,-0.3719387948513031,-0.4762105941772461,-0.0647868812084198,0.43737003207206726,0.8870266675949097,-0.14731884002685547,0.013724956661462784
1680005579156869064,8173,1680005579156643860,j2s6s300_link_base,-0.37045982480049133,-0.4843871593475342,-0.06281337141990662,0.4320465922355652,0.8888201713562012,-0.15218517184257507,0.013195235282182693
1680005579256794309,8174,1680005579256647642,j2s6s300_link_base,-0.3706646263599396,-0.491266131401062,-0.062094807624816895,0.42837706208229065,0.889828622341156,-0.15665432810783386,0.01254371926188469
1680005579356808084,8175,1680005579356656005,j2s6s300_link_base,-0.3709389865398407,-0.49720489978790283,-0.061695218086242676,0.4253003001213074,0.890626072883606,-0.16050276160240173,0.011992380023002625
1680005579456778951,8176,1680005579456652327,j2s6s300_link_base,-0.3692169189453125,-0.5022138357162476,-0.062155336141586304,0.42179301381111145,0.8919148445129395,-0.16258475184440613,0.012032385915517807
1680005579556802320,8177,1680005579556653621,j2s6s300_link_base,-0.3665100634098053,-0.5064268708229065,-0.06329938769340515,0.41826149821281433,0.8934007883071899,-0.16351865231990814,0.012406222522258759
1680005579656797622,8178,1680005579656651073,j2s6s300_link_base,-0.36351335048675537,-0.5102326273918152,-0.06441089510917664,0.4148041903972626,0.8948959708213806,-0.16411328315734863,0.012864578515291214
1680005579756808020,8179,1680005579756652246,j2s6s300_link_base,-0.361666202545166,-0.5138699412345886,-0.06474702060222626,0.4119897484779358,0.895952582359314,-0.16542044281959534,0.013020377606153488
1680005579856784764,8180,1680005579856654319,j2s6s300_link_base,-0.36133697628974915,-0.5187292695045471,-0.06360357999801636,0.4092630445957184,0.8965952396392822,-0.1687035858631134,0.012643393129110336
1680005579956810098,8181,1680005579956653277,j2s6s300_link_base,-0.3604488968849182,-0.5225269198417664,-0.06305989623069763,0.4068428575992584,0.8972864747047424,-0.17087790369987488,0.012517966330051422
1680005580056851412,8182,1680005580056654991,j2s6s300_link_base,-0.3594520092010498,-0.5246759057044983,-0.06328532099723816,0.4052494466304779,0.8978472352027893,-0.1717105507850647,0.0125972218811512
1680005580156874579,8183,1680005580156653949,j2s6s300_link_base,-0.3582417070865631,-0.5254762768745422,-0.0648994892835617,0.40429413318634033,0.8983843922615051,-0.1711275726556778,0.012928180396556854
1680005580256801846,8184,1680005580256654199,j2s6s300_link_base,-0.35704267024993896,-0.5257295966148376,-0.06664761900901794,0.4036256968975067,0.8988625407218933,-0.17016293108463287,0.013303082436323166
1680005580356745024,8185,1680005580356654374,j2s6s300_link_base,-0.3565152585506439,-0.5258446335792542,-0.0676875114440918,0.40333980321884155,0.8990849256515503,-0.16965115070343018,0.01348843052983284
1680005580456799666,8186,1680005580456653818,j2s6s300_link_base,-0.3560546040534973,-0.5260145664215088,-0.06818357110023499,0.4030378758907318,0.8992679715156555,-0.16938796639442444,0.013612102717161179
1680005580556762460,8187,1680005580556655514,j2s6s300_link_base,-0.35560163855552673,-0.5264360308647156,-0.06827354431152344,0.40259724855422974,0.8994572162628174,-0.16942544281482697,0.013684503734111786
1680005580656772837,8188,1680005580656655355,j2s6s300_link_base,-0.35525476932525635,-0.5266017913818359,-0.06850507855415344,0.4023458659648895,0.8995920419692993,-0.16929978132247925,0.01376388594508171
1680005580756825991,8189,1680005580756658080,j2s6s300_link_base,-0.35335150361061096,-0.52787846326828,-0.0685538500547409,0.4007258713245392,0.9003182053565979,-0.16925689578056335,0.014073926955461502
1680005580856801126,8190,1680005580856654333,j2s6s300_link_base,-0.348291277885437,-0.5315462350845337,-0.06842474639415741,0.39625680446624756,0.9022483229637146,-0.1694342941045761,0.014850668609142303
1680005580956780411,8191,1680005580956649610,j2s6s300_link_base,-0.34435075521469116,-0.536166250705719,-0.06754451990127563,0.3918635845184326,0.9038614630699158,-0.17100907862186432,0.015271693468093872
1680005581056799906,8192,1680005581056654802,j2s6s300_link_base,-0.342702180147171,-0.541019856929779,-0.06588730216026306,0.38854193687438965,0.9047231078147888,-0.17401562631130219,0.015159953385591507
1680005581157767194,8193,1680005581157653073,j2s6s300_link_base,-0.33762380480766296,-0.547187089920044,-0.0645567774772644,0.38280627131462097,0.9067049026489258,-0.17635028064250946,0.015687644481658936
1680005581256807162,8194,1680005581256655036,j2s6s300_link_base,-0.33177849650382996,-0.553162693977356,-0.06346951425075531,0.3767808675765991,0.9088461995124817,-0.17822964489459991,0.016401812434196472
1680005581356756344,8195,1680005581356648339,j2s6s300_link_base,-0.326382577419281,-0.5599817633628845,-0.06179387867450714,0.3705897331237793,0.9108060002326965,-0.18113210797309875,0.016939908266067505
1680005581456804178,8196,1680005581456655223,j2s6s300_link_base,-0.32129377126693726,-0.5664563179016113,-0.060126304626464844,0.3647558093070984,0.912574291229248,-0.18400190770626068,0.01744960993528366
1680005581556769075,8197,1680005581556655000,j2s6s300_link_base,-0.31591489911079407,-0.573112428188324,-0.05836871266365051,0.35870540142059326,0.9143539071083069,-0.18698354065418243,0.018011026084423065
1680005581656804614,8198,1680005581656655465,j2s6s300_link_base,-0.31021249294281006,-0.5788403153419495,-0.05708232522010803,0.3529418110847473,0.9161409735679626,-0.18912220001220703,0.018723931163549423
1680005581756767418,8199,1680005581756655392,j2s6s300_link_base,-0.3019581139087677,-0.5846764445304871,-0.0563429594039917,0.34574437141418457,0.9186201095581055,-0.1902630776166916,0.019950147718191147
1680005581856755623,8200,1680005581856652108,j2s6s300_link_base,-0.29363253712654114,-0.5897331833839417,-0.05596791207790375,0.33884724974632263,0.92104172706604,-0.19082380831241608,0.021239787340164185
1680005581956766086,8201,1680005581956654312,j2s6s300_link_base,-0.28772613406181335,-0.5929862260818481,-0.05590943992137909,0.3340921103954315,0.9227228760719299,-0.19097982347011566,0.022174037992954254
1680005582056775328,8202,1680005582056629272,j2s6s300_link_base,-0.2829365134239197,-0.5958594679832458,-0.05570860207080841,0.3301249146461487,0.924052894115448,-0.19136103987693787,0.022909153252840042
1680005582156816602,8203,1680005582156655308,j2s6s300_link_base,-0.27777737379074097,-0.6000028252601624,-0.05489012598991394,0.3253842294216156,0.9254251718521118,-0.19275696575641632,0.02362138405442238
1680005582256799175,8204,1680005582256617286,j2s6s300_link_base,-0.27369219064712524,-0.6030933856964111,-0.05444152653217316,0.32172268629074097,0.9264942407608032,-0.19369299709796906,0.02420543134212494
1680005582356772595,8205,1680005582356654681,j2s6s300_link_base,-0.27097856998443604,-0.6049686074256897,-0.054292187094688416,0.3193705976009369,0.927200973033905,-0.19415223598480225,0.02460925281047821
1680005582456766241,8206,1680005582456655961,j2s6s300_link_base,-0.2684326171875,-0.6065537929534912,-0.054351404309272766,0.31724193692207336,0.927868664264679,-0.19440197944641113,0.025003746151924133
1680005582556787011,8207,1680005582556659821,j2s6s300_link_base,-0.26703080534935,-0.6072037816047668,-0.054485663771629333,0.31616273522377014,0.9282420873641968,-0.19434741139411926,0.025235891342163086
1680005582656819399,8208,1680005582656655573,j2s6s300_link_base,-0.26602327823638916,-0.6074098944664001,-0.05477042496204376,0.31550976634025574,0.9285551309585571,-0.19386792182922363,0.02557719126343727
1680005582756806277,8209,1680005582756656589,j2s6s300_link_base,-0.2651482820510864,-0.6075271368026733,-0.05502408742904663,0.31496796011924744,0.9288309812545776,-0.19338466227054596,0.02589268609881401
1680005582856782391,8210,1680005582856655995,j2s6s300_link_base,-0.26325875520706177,-0.608070433139801,-0.055459752678871155,0.3136547803878784,0.9293580651283264,-0.19293515384197235,0.026274383068084717
1680005582956812653,8211,1680005582956656924,j2s6s300_link_base,-0.25603193044662476,-0.6109585762023926,-0.05576962232589722,0.30822739005088806,0.9312242865562439,-0.19251933693885803,0.02744981274008751
1680005583056920367,8212,1680005583056661164,j2s6s300_link_base,-0.24687235057353973,-0.6144001483917236,-0.05626998841762543,0.30140045285224915,0.9335375428199768,-0.19190850853919983,0.028919851407408714
1680005583156777753,8213,1680005583156656162,j2s6s300_link_base,-0.23965312540531158,-0.6167594194412231,-0.056888505816459656,0.2961304783821106,0.9353380799293518,-0.19116564095020294,0.030084382742643356
1680005583256792004,8214,1680005583256657638,j2s6s300_link_base,-0.23414358496665955,-0.6184625029563904,-0.05754813551902771,0.2921322286128998,0.9366999268531799,-0.1905059516429901,0.03097376972436905
1680005583356796858,8215,1680005583356658022,j2s6s300_link_base,-0.22758764028549194,-0.6204214096069336,-0.058128923177719116,0.2873704433441162,0.9382861256599426,-0.1897665411233902,0.032030679285526276
1680005583456742583,8216,1680005583456615679,j2s6s300_link_base,-0.2160768210887909,-0.6220913529396057,-0.059595003724098206,0.2795880138874054,0.9410922527313232,-0.1871558427810669,0.03389034792780876
1680005583556784816,8217,1680005583556659483,j2s6s300_link_base,-0.20629236102104187,-0.6226796507835388,-0.06116645038127899,0.2731853723526001,0.9434722661972046,-0.1843157857656479,0.0354614332318306
1680005583656765331,8218,1680005583656622084,j2s6s300_link_base,-0.20002475380897522,-0.6228234171867371,-0.06217552721500397,0.26911529898643494,0.9449812173843384,-0.18236978352069855,0.03645285964012146
1680005583756759036,8219,1680005583756620241,j2s6s300_link_base,-0.19548490643501282,-0.6229079365730286,-0.06289242208003998,0.26614898443222046,0.9460615515708923,-0.1809731423854828,0.03716154024004936
1680005583856754584,8220,1680005583856634236,j2s6s300_link_base,-0.19082769751548767,-0.6233655214309692,-0.06341108679771423,0.2629554569721222,0.9471277594566345,-0.17991474270820618,0.0378674753010273
1680005583956814163,8221,1680005583956609238,j2s6s300_link_base,-0.18453899025917053,-0.6247752904891968,-0.06366384029388428,0.25834518671035767,0.9484803676605225,-0.17927207052707672,0.03878678381443024
1680005584056829498,8222,1680005584056612765,j2s6s300_link_base,-0.17454899847507477,-0.627306342124939,-0.06384110450744629,0.25088104605674744,0.9505405426025391,-0.17864353954792023,0.04022299125790596
1680005584157773749,8223,1680005584157614836,j2s6s300_link_base,-0.1651419699192047,-0.6297206878662109,-0.06391701102256775,0.2438022792339325,0.9524037837982178,-0.1782139539718628,0.04156145825982094
1680005584256778553,8224,1680005584256615998,j2s6s300_link_base,-0.15838488936424255,-0.630808413028717,-0.06425975263118744,0.23889634013175964,0.953759491443634,-0.17737765610218048,0.042524926364421844
1680005584356790682,8225,1680005584356617559,j2s6s300_link_base,-0.15276817977428436,-0.6307902336120605,-0.06499883532524109,0.23507899045944214,0.954953134059906,-0.1758539378643036,0.04333322495222092
1680005584456764017,8226,1680005584456614333,j2s6s300_link_base,-0.14618872106075287,-0.6288699507713318,-0.0668179839849472,0.23113536834716797,0.9565137028694153,-0.1723293960094452,0.04427949711680412
1680005584556759284,8227,1680005584556643860,j2s6s300_link_base,-0.13987228274345398,-0.624599039554596,-0.06974589824676514,0.22799712419509888,0.9582197070121765,-0.16670726239681244,0.045179374516010284
1680005584656748588,8228,1680005584656625376,j2s6s300_link_base,-0.13258063793182373,-0.6207981109619141,-0.07244288921356201,0.22393862903118134,0.9600438475608826,-0.1613558530807495,0.046168237924575806
1680005584756747130,8229,1680005584756624368,j2s6s300_link_base,-0.1256399154663086,-0.6186637878417969,-0.07419845461845398,0.2195678949356079,0.9616116881370544,-0.15772567689418793,0.0470704585313797
1680005584856730023,8230,1680005584856625460,j2s6s300_link_base,-0.12076573073863983,-0.6172505617141724,-0.07535034418106079,0.216431125998497,0.9626871347427368,-0.15529634058475494,0.04768726974725723
1680005584956757795,8231,1680005584956653754,j2s6s300_link_base,-0.11643444001674652,-0.6167579889297485,-0.075987309217453,0.2134106308221817,0.9635613560676575,-0.15388113260269165,0.04822723567485809
1680005585056766254,8232,1680005585056658719,j2s6s300_link_base,-0.11010804772377014,-0.6174042820930481,-0.07622483372688293,0.20860429108142853,0.9646902084350586,-0.15314996242523193,0.04901139438152313
1680005585156772138,8233,1680005585156657573,j2s6s300_link_base,-0.10209658741950989,-0.6184458136558533,-0.07638424634933472,0.2024316042661667,0.9660543203353882,-0.1525140255689621,0.04999909549951553
1680005585256789716,8234,1680005585256660952,j2s6s300_link_base,-0.09456927329301834,-0.6192036867141724,-0.07659360766410828,0.19665995240211487,0.9673112630844116,-0.1517927497625351,0.050918567925691605
1680005585356802152,8235,1680005585356657686,j2s6s300_link_base,-0.08793282508850098,-0.620094358921051,-0.07663336396217346,0.19149771332740784,0.9683592915534973,-0.15143635869026184,0.05172894150018692
1680005585456768178,8236,1680005585456657515,j2s6s300_link_base,-0.08128709346055984,-0.6207682490348816,-0.07674431800842285,0.18636038899421692,0.9693958163261414,-0.1509367823600769,0.05253322795033455
1680005585556773347,8237,1680005585556662349,j2s6s300_link_base,-0.07513755559921265,-0.6213874816894531,-0.07681876420974731,0.1815929263830185,0.9703232645988464,-0.1505272090435028,0.05327554792165756
1680005585656768126,8238,1680005585656619762,j2s6s300_link_base,-0.06792397797107697,-0.6219512224197388,-0.07694730162620544,0.17601533234119415,0.9713902473449707,-0.14996184408664703,0.054139114916324615
1680005585756768843,8239,1680005585756658198,j2s6s300_link_base,-0.060888804495334625,-0.6224528551101685,-0.07705587148666382,0.17056699097156525,0.9723960161209106,-0.14943179488182068,0.05498141795396805
1680005585856754426,8240,1680005585856625995,j2s6s300_link_base,-0.05165376514196396,-0.6214314699172974,-0.077943354845047,0.16369158029556274,0.9738515019416809,-0.14724387228488922,0.05601318180561066
1680005585956786441,8241,1680005585956659806,j2s6s300_link_base,-0.043407466262578964,-0.6172736287117004,-0.08019843697547913,0.15806542336940765,0.9754703044891357,-0.14230120182037354,0.056775689125061035
1680005586056824333,8242,1680005586056661113,j2s6s300_link_base,-0.03824443370103836,-0.6127398014068604,-0.08243662118911743,0.15480419993400574,0.97666996717453,-0.1374274641275406,0.057140883058309555
1680005586156830026,8243,1680005586156663293,j2s6s300_link_base,-0.034850552678108215,-0.6093878746032715,-0.08400905132293701,0.15268242359161377,0.977480411529541,-0.13390696048736572,0.05734960734844208
1680005586256769919,8244,1680005586256651681,j2s6s300_link_base,-0.032231807708740234,-0.6072575449943542,-0.08500444889068604,0.1509491503238678,0.9780477285385132,-0.13163478672504425,0.05752495676279068
1680005586356749246,8245,1680005586356640899,j2s6s300_link_base,-0.025459952652454376,-0.6063196659088135,-0.08554616570472717,0.14568576216697693,0.9790082573890686,-0.1301237791776657,0.05819099396467209
1680005586456798337,8246,1680005586456650037,j2s6s300_link_base,-0.017173955217003822,-0.6062096357345581,-0.08570078015327454,0.1390502005815506,0.9800233840942383,-0.12935133278369904,0.05905508995056152
1680005586556771989,8247,1680005586556658737,j2s6s300_link_base,-0.0068905968219041824,-0.6058568954467773,-0.08594578504562378,0.13080072402954102,0.9812299013137817,-0.12831832468509674,0.06011272966861725
1680005586656771229,8248,1680005586656618143,j2s6s300_link_base,0.0029215365648269653,-0.6055586338043213,-0.08609294891357422,0.12288811057806015,0.9822944402694702,-0.12751352787017822,0.06112639605998993
1680005586756774444,8249,1680005586756661505,j2s6s300_link_base,0.009014874696731567,-0.6051048040390015,-0.08626905083656311,0.11798613518476486,0.9829455018043518,-0.12683002650737762,0.06173832342028618
1680005586856765999,8250,1680005586856653511,j2s6s300_link_base,0.012437921948730946,-0.6046830415725708,-0.08642497658729553,0.11524074524641037,0.9833168387413025,-0.12631286680698395,0.062069669365882874
1680005586956775768,8251,1680005586956662882,j2s6s300_link_base,0.015285534784197807,-0.6043774485588074,-0.08652886748313904,0.11294753849506378,0.9836133718490601,-0.12593713402748108,0.06234920024871826
1680005587056818617,8252,1680005587056659411,j2s6s300_link_base,0.019664226099848747,-0.6041656732559204,-0.08656507730484009,0.10939104110002518,0.984026312828064,-0.12562619149684906,0.06280021369457245
1680005587156824503,8253,1680005587156660784,j2s6s300_link_base,0.026315808296203613,-0.603901743888855,-0.08657035231590271,0.10397253185510635,0.9846150875091553,-0.12526679039001465,0.06349068880081177
1680005587256827236,8254,1680005587256667627,j2s6s300_link_base,0.035666290670633316,-0.603417694568634,-0.08657357096672058,0.09634292870759964,0.9853914380073547,-0.12476710230112076,0.06445804983377457
1680005587356816456,8255,1680005587356663715,j2s6s300_link_base,0.04402197524905205,-0.6028586626052856,-0.08657887578010559,0.0895116925239563,0.9860365390777588,-0.1243097186088562,0.06531885266304016
1680005587456826273,8256,1680005587456660708,j2s6s300_link_base,0.04991184175014496,-0.6023779511451721,-0.08659061789512634,0.08468931168317795,0.9864653944969177,-0.1239679679274559,0.06592193990945816
1680005587556784221,8257,1680005587556652157,j2s6s300_link_base,0.05398067831993103,-0.6014667749404907,-0.08683091402053833,0.08137594908475876,0.9868141412734985,-0.12321551144123077,0.06628385186195374
1680005587656793034,8258,1680005587656654892,j2s6s300_link_base,0.05722774565219879,-0.5984073281288147,-0.08800673484802246,0.07880011945962906,0.9873629808425903,-0.12043450027704239,0.06633391976356506
1680005587756795269,8259,1680005587756663609,j2s6s300_link_base,0.061902545392513275,-0.5939182043075562,-0.08961066603660583,0.07507527619600296,0.9881719350814819,-0.11594703793525696,0.06660589575767517
1680005587856825285,8260,1680005587856664172,j2s6s300_link_base,0.06838531792163849,-0.5893575549125671,-0.09107807278633118,0.06978241354227066,0.9890493154525757,-0.11139082163572311,0.067111536860466
1680005587956790157,8261,1680005587956659806,j2s6s300_link_base,0.07620932161808014,-0.5861157178878784,-0.09196299314498901,0.06322960555553436,0.9897575974464417,-0.10863467305898666,0.06767784804105759
1680005588056818267,8262,1680005588056659160,j2s6s300_link_base,0.08393526822328568,-0.5835481286048889,-0.09252321720123291,0.05669639632105827,0.9903335571289062,-0.1065770611166954,0.0683111846446991
1680005588156824970,8263,1680005588156660554,j2s6s300_link_base,0.09170924872159958,-0.5815715789794922,-0.09283101558685303,0.05007271468639374,0.9907814860343933,-0.10531459003686905,0.0689462423324585
1680005588256828512,8264,1680005588256661192,j2s6s300_link_base,0.09799040108919144,-0.5799964666366577,-0.09303256869316101,0.04470423609018326,0.9911010265350342,-0.10437310487031937,0.06947249174118042
1680005588356848023,8265,1680005588356679887,j2s6s300_link_base,0.10175012052059174,-0.5789896249771118,-0.09315860271453857,0.04148268327116966,0.9912846684455872,-0.10374025255441666,0.06979916244745255
1680005588456785686,8266,1680005588456659794,j2s6s300_link_base,0.10715926438570023,-0.5776381492614746,-0.09328621625900269,0.03683752566576004,0.9915147423744202,-0.10296700149774551,0.07027919590473175
1680005588556761607,8267,1680005588556659720,j2s6s300_link_base,0.11419404298067093,-0.57607501745224,-0.0933600664138794,0.030785193666815758,0.9917479753494263,-0.1022784635424614,0.07090383023023605
1680005588656877533,8268,1680005588656662201,j2s6s300_link_base,0.12170547246932983,-0.5741370916366577,-0.09350520372390747,0.02428632415831089,0.9919728636741638,-0.1014053001999855,0.0715329572558403
1680005588756887425,8269,1680005588756662332,j2s6s300_link_base,0.130271777510643,-0.571861982345581,-0.09365189075469971,0.01684477925300598,0.9921711087226868,-0.10046203434467316,0.07225092500448227
1680005588856763941,8270,1680005588856661903,j2s6s300_link_base,0.13674423098564148,-0.5702434778213501,-0.09368327260017395,0.011215857230126858,0.9922654032707214,-0.09990031272172928,0.0728260725736618
1680005588956759730,8271,1680005588956654758,j2s6s300_link_base,0.14141598343849182,-0.5684559941291809,-0.09391188621520996,0.007090708240866661,0.9923769235610962,-0.09890497475862503,0.07318130880594254
1680005589056796249,8272,1680005589056623251,j2s6s300_link_base,0.14452335238456726,-0.5657359957695007,-0.09462723135948181,0.00417762715369463,0.9925949573516846,-0.09685614705085754,0.07318878173828125
1680005589156899175,8273,1680005589156660961,j2s6s300_link_base,0.1493161916732788,-0.562313437461853,-0.09543043375015259,-0.000281317625194788,0.9928215742111206,-0.09453201293945312,0.07327272742986679
1680005589256798034,8274,1680005589256662982,j2s6s300_link_base,0.1547013819217682,-0.5575928092002869,-0.09664109349250793,-0.005450699478387833,0.9931219816207886,-0.09121489524841309,0.07320427894592285
1680005589356764647,8275,1680005589356654880,j2s6s300_link_base,0.16022218763828278,-0.55196213722229,-0.0980972945690155,0.010932961478829384,-0.9934529662132263,0.08721005171537399,-0.07298070192337036
1680005589456813325,8276,1680005589456668069,j2s6s300_link_base,0.16535647213459015,-0.5476449728012085,-0.09908187389373779,0.015975428745150566,-0.9936342239379883,0.08437914401292801,-0.0729096457362175
1680005589556768931,8277,1680005589556663478,j2s6s300_link_base,0.16827930510044098,-0.5456214547157288,-0.0994635820388794,0.018809154629707336,-0.9936830997467041,0.08318699151277542,-0.07293882966041565
1680005589656780931,8278,1680005589656663345,j2s6s300_link_base,0.17068853974342346,-0.5460343360900879,-0.09903740882873535,0.020826157182455063,-0.9935406446456909,0.08406385779380798,-0.07332421094179153
1680005589756806685,8279,1680005589756663566,j2s6s300_link_base,0.17408014833927155,-0.555409848690033,-0.09532132744789124,0.022261084988713264,-0.9925487041473389,0.0930938795208931,-0.07539942115545273
1680005589856771696,8280,1680005589856663518,j2s6s300_link_base,0.17769695818424225,-0.5676683783531189,-0.0902492105960846,0.02343197539448738,-0.991150438785553,0.10480867326259613,-0.078018419444561
1680005589956777927,8281,1680005589956669056,j2s6s300_link_base,0.18033429980278015,-0.5755218267440796,-0.08681061863899231,0.024416577070951462,-0.9901546835899353,0.11240720003843307,-0.07976290583610535
1680005590056846829,8282,1680005590056666848,j2s6s300_link_base,0.18143075704574585,-0.5779938101768494,-0.0856478214263916,0.0249351654201746,-0.9898127317428589,0.11485004425048828,-0.08036430925130844
1680005590156869900,8283,1680005590156622351,j2s6s300_link_base,0.18075218796730042,-0.5743560791015625,-0.08723756670951843,0.024929462000727654,-0.9902651906013489,0.11140432208776474,-0.07963894307613373
1680005590256790398,8284,1680005590256626657,j2s6s300_link_base,0.17921891808509827,-0.5674656629562378,-0.09018751978874207,0.02472056820988655,-0.9910954236984253,0.10488289594650269,-0.078219935297966
1680005590356774159,8285,1680005590356624758,j2s6s300_link_base,0.1780407577753067,-0.5627155303955078,-0.09214639663696289,0.024479322135448456,-0.9916445016860962,0.10038920491933823,-0.07722724974155426
1680005590456769279,8286,1680005590456617888,j2s6s300_link_base,0.17732958495616913,-0.5597327351570129,-0.09324872493743896,0.02435310184955597,-0.9919720888137817,0.09761279821395874,-0.07661647349596024
1680005590556798337,8287,1680005590556622750,j2s6s300_link_base,0.17713385820388794,-0.5587648153305054,-0.09347259998321533,0.024342980235815048,-0.9920697212219238,0.09676218032836914,-0.07643258571624756
1680005590656825693,8288,1680005590656627995,j2s6s300_link_base,0.17713585495948792,-0.5587867498397827,-0.09330058097839355,0.02434530109167099,-0.9920612573623657,0.09683668613433838,-0.07644859701395035
1680005590756791484,8289,1680005590756621075,j2s6s300_link_base,0.1771223545074463,-0.5588018298149109,-0.09324869513511658,0.024332383647561073,-0.9920586347579956,0.09686321020126343,-0.07645283639431
1680005590856778123,8290,1680005590856621525,j2s6s300_link_base,0.1771673858165741,-0.558984100818634,-0.09294962882995605,0.024345416575670242,-0.9920300841331482,0.09711027890443802,-0.07650750130414963
1680005590956775234,8291,1680005590956611029,j2s6s300_link_base,0.1771756261587143,-0.5590174794197083,-0.09289494156837463,0.024347815662622452,-0.9920247197151184,0.09715549647808075,-0.0765174999833107
1680005591056805130,8292,1680005591056628142,j2s6s300_link_base,0.17719179391860962,-0.559066653251648,-0.09281376004219055,0.024354632943868637,-0.9920167922973633,0.09722307324409485,-0.07653281837701797
1680005591156915342,8293,1680005591156665076,j2s6s300_link_base,0.1772729456424713,-0.5593334436416626,-0.09237271547317505,0.024385344237089157,-0.9919737577438354,0.09758859872817993,-0.07661525160074234
1680005591256787551,8294,1680005591256636712,j2s6s300_link_base,0.17738604545593262,-0.5596339106559753,-0.09187045693397522,0.024439379572868347,-0.9919238686561584,0.09800638258457184,-0.07671133428812027
1680005591356751307,8295,1680005591356627356,j2s6s300_link_base,0.17762532830238342,-0.5605416893959045,-0.09038317203521729,0.024516532197594643,-0.9917778372764587,0.09924089908599854,-0.07698617875576019
1680005591456827468,8296,1680005591456664121,j2s6s300_link_base,0.1781647801399231,-0.5627685189247131,-0.08668944239616394,0.024667521938681602,-0.9914122223854065,0.102286696434021,-0.07765829563140869
1680005591556795489,8297,1680005591556661810,j2s6s300_link_base,0.17882172763347626,-0.5654246807098389,-0.08220022916793823,0.024858422577381134,-0.9909569025039673,0.10596584528684616,-0.078471839427948
1680005591656860463,8298,1680005591656664597,j2s6s300_link_base,0.179311603307724,-0.5673865675926208,-0.07883712649345398,0.02500642091035843,-0.9906073212623596,0.1087128296494484,-0.07907841354608536
1680005591756828664,8299,1680005591756663313,j2s6s300_link_base,0.1796252429485321,-0.568638265132904,-0.07666212320327759,0.025102367624640465,-0.9903780817985535,0.11047989875078201,-0.07946927100419998
1680005591856794962,8300,1680005591856665945,j2s6s300_link_base,0.18003326654434204,-0.5699530839920044,-0.0743134617805481,0.025267189368605614,-0.9901263117790222,0.11237286776304245,-0.07989857345819473
1680005591956868352,8301,1680005591956678012,j2s6s300_link_base,0.1808466613292694,-0.5727481842041016,-0.06924480199813843,0.025573743507266045,-0.989577054977417,0.1164107397198677,-0.08081955462694168
1680005592056829705,8302,1680005592056665716,j2s6s300_link_base,0.18199405074119568,-0.577265739440918,-0.06088423728942871,0.02593972161412239,-0.9886467456817627,0.12300257384777069,-0.08231093734502792
1680005592156882477,8303,1680005592156668823,j2s6s300_link_base,0.1832621544599533,-0.5805267095565796,-0.05249139666557312,0.026543930172920227,-0.9879146218299866,0.12745939195156097,-0.08410860598087311
1680005592256847799,8304,1680005592256680941,j2s6s300_link_base,0.1842746138572693,-0.576962947845459,-0.04849964380264282,0.027751462534070015,-0.9885444045066833,0.12084057182073593,-0.08606567978858948
1680005592356762730,8305,1680005592356666788,j2s6s300_link_base,0.18472294509410858,-0.5692795515060425,-0.0475708544254303,0.02903626300394535,-0.989811360836029,0.10841948539018631,-0.08761008083820343
1680005592456844025,8306,1680005592456664734,j2s6s300_link_base,0.18483084440231323,-0.5632064342498779,-0.04744488000869751,0.029867978766560555,-0.990697979927063,0.09895098954439163,-0.08851037919521332
1680005592556823532,8307,1680005592556664634,j2s6s300_link_base,0.1849031150341034,-0.559987485408783,-0.047416478395462036,0.030317721888422966,-0.991138219833374,0.09382398426532745,-0.08901108801364899
1680005592656828617,8308,1680005592656665155,j2s6s300_link_base,0.1856001317501068,-0.5607970952987671,-0.04630851745605469,0.03074019029736519,-0.9910953640937805,0.0933210477232933,-0.08986808359622955
1680005592756792097,8309,1680005592756664882,j2s6s300_link_base,0.18683278560638428,-0.5645535588264465,-0.04422265291213989,0.03120216727256775,-0.9907237887382507,0.09581592679023743,-0.09117066115140915
1680005592856828957,8310,1680005592856666534,j2s6s300_link_base,0.1876678466796875,-0.5673132538795471,-0.042726486921310425,0.031493932008743286,-0.990440845489502,0.09777386486530304,-0.0920616015791893
1680005592956822796,8311,1680005592956664112,j2s6s300_link_base,0.18818219006061554,-0.5691387057304382,-0.04176810383796692,0.03166034817695618,-0.9902433156967163,0.0992136150598526,-0.09258794039487839
1680005593056800796,8312,1680005593056666278,j2s6s300_link_base,0.1884937435388565,-0.5702322721481323,-0.04119616746902466,0.031763721257448196,-0.9901225566864014,0.10009168833494186,-0.09289788454771042
1680005593156914492,8313,1680005593156666966,j2s6s300_link_base,0.18869882822036743,-0.5710164904594421,-0.04081219434738159,0.031824707984924316,-0.9900301694869995,0.10081484168767929,-0.09307961910963058
1680005593256793438,8314,1680005593256665891,j2s6s300_link_base,0.1888473629951477,-0.5715597867965698,-0.040545254945755005,0.03187253326177597,-0.9899647831916809,0.10132624208927155,-0.09320344775915146
1680005593356757284,8315,1680005593356664437,j2s6s300_link_base,0.1888933628797531,-0.5717024803161621,-0.04047691822052002,0.03189060464501381,-0.9899475574493408,0.10145685821771622,-0.09323811531066895
1680005593456820951,8316,1680005593456667116,j2s6s300_link_base,0.18897126615047455,-0.5719950795173645,-0.04033893346786499,0.03191326558589935,-0.9899119138717651,0.1017378494143486,-0.09330179542303085
1680005593556831205,8317,1680005593556667463,j2s6s300_link_base,0.18900348246097565,-0.5720533728599548,-0.04030773043632507,0.0319317951798439,-0.9899038672447205,0.1017976850271225,-0.09331703186035156
1680005593656798188,8318,1680005593656666421,j2s6s300_link_base,0.18909552693367004,-0.5720992088317871,-0.040273308753967285,0.032001107931137085,-0.9898930788040161,0.10185940563678741,-0.09333888441324234
1680005593756828251,8319,1680005593756666861,j2s6s300_link_base,0.18923097848892212,-0.5721988081932068,-0.0402086079120636,0.03209865838289261,-0.989874005317688,0.10198105871677399,-0.0933760479092598
1680005593856798466,8320,1680005593856665865,j2s6s300_link_base,0.18929460644721985,-0.5722388625144958,-0.04018017649650574,0.03214539587497711,-0.9898656606674194,0.10203197598457336,-0.09339265525341034
1680005593956811704,8321,1680005593956681357,j2s6s300_link_base,0.18931886553764343,-0.5722465515136719,-0.040172964334487915,0.032164186239242554,-0.9898633360862732,0.10204395651817322,-0.09339778125286102
1680005594056811098,8322,1680005594056668663,j2s6s300_link_base,0.18932965397834778,-0.572249710559845,-0.040170818567276,0.03217267245054245,-0.9898623824119568,0.10204897075891495,-0.09339981526136398
1680005594156824700,8323,1680005594156634162,j2s6s300_link_base,0.1893397569656372,-0.572250247001648,-0.0401688814163208,0.032180845737457275,-0.9898616075515747,0.1020510345697403,-0.09340164810419083
