%time,field.header.seq,field.header.stamp,field.header.frame_id,field.pose.position.x,field.pose.position.y,field.pose.position.z,field.pose.orientation.x,field.pose.orientation.y,field.pose.orientation.z,field.pose.orientation.w
1680006964057293892,22022,1680006964057128361,j2s6s300_link_base,-0.38299089670181274,-0.5701755881309509,-0.01286664605140686,0.4458492696285248,0.8943033218383789,-0.01695871725678444,0.033946841955184937
1680006964160457884,22023,1680006964160107168,j2s6s300_link_base,-0.38299015164375305,-0.570174515247345,-0.012867629528045654,0.44584590196609497,0.8943049907684326,-0.01695723831653595,0.03394705802202225
1680006964257085851,22024,1680006964256998088,j2s6s300_link_base,-0.3829893469810486,-0.5701751112937927,-0.012868046760559082,0.4458419382572174,0.894307017326355,-0.016957826912403107,0.03394690901041031
1680006964357152848,22025,1680006964356998340,j2s6s300_link_base,-0.38298892974853516,-0.570174515247345,-0.012868613004684448,0.44583985209465027,0.8943080306053162,-0.016956906765699387,0.03394700214266777
1680006964457164431,22026,1680006964456997299,j2s6s300_link_base,-0.38298842310905457,-0.5701739192008972,-0.012869149446487427,0.44583770632743835,0.8943091034889221,-0.016956087201833725,0.033947162330150604
1680006964557121329,22027,1680006964557031109,j2s6s300_link_base,-0.38298842310905457,-0.5701739192008972,-0.012869149446487427,0.4458354711532593,0.8943102359771729,-0.01695617474615574,0.03394711762666702
1680006964657181194,22028,1680006964657035758,j2s6s300_link_base,-0.3829881250858307,-0.5701735019683838,-0.012869536876678467,0.44583436846733093,0.8943107724189758,-0.016955502331256866,0.03394719585776329
1680006964757147184,22029,1680006964757023041,j2s6s300_link_base,-0.3829881250858307,-0.5701735019683838,-0.012869536876678467,0.445833295583725,0.8943113088607788,-0.01695554330945015,0.0339471772313118
1680006964857127292,22030,1680006964856998215,j2s6s300_link_base,-0.3829876780509949,-0.5701728463172913,-0.012870073318481445,0.4458322823047638,0.8943118453025818,-0.0169546976685524,0.033947329968214035
1680006964957143502,22031,1680006964957036415,j2s6s300_link_base,-0.3829880952835083,-0.5701733231544495,-0.012870073318481445,0.4458310008049011,0.8943125009536743,-0.016955822706222534,0.033947017043828964
1680006965057185194,22032,1680006965057035995,j2s6s300_link_base,-0.38298773765563965,-0.570172905921936,-0.012870460748672485,0.44582992792129517,0.8943129777908325,-0.01695512793958187,0.03394713252782822
1680006965157154446,22033,1680006965156995221,j2s6s300_link_base,-0.38298773765563965,-0.570172905921936,-0.012870460748672485,0.4458288550376892,0.8943135142326355,-0.016955168917775154,0.033947110176086426
1680006965257124790,22034,1680006965256993818,j2s6s300_link_base,-0.38298729062080383,-0.5701732635498047,-0.012870430946350098,0.4458281695842743,0.8943138122558594,-0.016955453902482986,0.033948175609111786
1680006965357168548,22035,1680006965357039148,j2s6s300_link_base,-0.3829868733882904,-0.5701726675033569,-0.012870997190475464,0.4458281993865967,0.8943138718605042,-0.016954567283391953,0.03394835442304611
1680006965457234076,22036,1680006965457028263,j2s6s300_link_base,-0.3829868733882904,-0.5701726675033569,-0.012870997190475464,0.4458281993865967,0.8943138718605042,-0.016954567283391953,0.03394835442304611
1680006965557164486,22037,1680006965557033738,j2s6s300_link_base,-0.3829868733882904,-0.5701726675033569,-0.012870997190475464,0.4458271265029907,0.8943144083023071,-0.016954608261585236,0.03394833207130432
1680006965657215057,22038,1680006965657034158,j2s6s300_link_base,-0.3829864263534546,-0.5701720714569092,-0.01287156343460083,0.4458271265029907,0.8943144083023071,-0.01695360615849495,0.03394847363233566
1680006965757218430,22039,1680006965757046528,j2s6s300_link_base,-0.3829864263534546,-0.5701720714569092,-0.01287156343460083,0.44582605361938477,0.8943149447441101,-0.016953647136688232,0.03394845128059387
1680006965857144704,22040,1680006965857005555,j2s6s300_link_base,-0.3829864263534546,-0.5701720714569092,-0.01287156343460083,0.44582605361938477,0.8943149447441101,-0.016953647136688232,0.03394845128059387
1680006965957144038,22041,1680006965957030167,j2s6s300_link_base,-0.382986843585968,-0.5701726078987122,-0.012871533632278442,0.4458261728286743,0.8943148851394653,-0.016954969614744186,0.033948201686143875
1680006966057121878,22042,1680006966056958487,j2s6s300_link_base,-0.382986843585968,-0.5701726078987122,-0.012871533632278442,0.4458261728286743,0.8943148851394653,-0.016954969614744186,0.033948201686143875
1680006966157205326,22043,1680006966157031568,j2s6s300_link_base,-0.382986843585968,-0.5701726078987122,-0.012871533632278442,0.44582509994506836,0.8943154215812683,-0.01695500686764717,0.033948179334402084
1680006966257193648,22044,1680006966256984918,j2s6s300_link_base,-0.382986843585968,-0.5701726078987122,-0.012871533632278442,0.44582509994506836,0.8943154215812683,-0.01695500686764717,0.033948179334402084
1680006966357192313,22045,1680006966356988240,j2s6s300_link_base,-0.38298651576042175,-0.570172131061554,-0.01287195086479187,0.4458251893520355,0.8943153619766235,-0.01695427857339382,0.033948302268981934
1680006966457244072,22046,1680006966456989531,j2s6s300_link_base,-0.3830024003982544,-0.5701594948768616,-0.01287388801574707,0.44583842158317566,0.8943087458610535,-0.01695249229669571,0.03394845500588417
1680006966557149073,22047,1680006966556990595,j2s6s300_link_base,-0.38310348987579346,-0.5700643658638,-0.012895077466964722,0.4459281861782074,0.8942643404006958,-0.01692674309015274,0.033951692283153534
1680006966657104234,22048,1680006966656980319,j2s6s300_link_base,-0.38308998942375183,-0.5696278214454651,-0.013355419039726257,0.44611215591430664,0.894178569316864,-0.016448693349957466,0.034029848873615265
1680006966757100600,22049,1680006966756984288,j2s6s300_link_base,-0.38301563262939453,-0.5693966746330261,-0.014410033822059631,0.4462027847766876,0.8941377401351929,-0.01613972708582878,0.034064460545778275
1680006966857174935,22050,1680006966857035248,j2s6s300_link_base,-0.3819383382797241,-0.5678921937942505,-0.01893649995326996,0.4463437795639038,0.8940973877906799,-0.013076530769467354,0.03458584100008011
1680006966957153852,22051,1680006966957033589,j2s6s300_link_base,-0.3803599774837494,-0.5655412673950195,-0.027303725481033325,0.44666624069213867,0.893962562084198,-0.008584661409258842,0.0353066548705101
1680006967057188310,22052,1680006967057029214,j2s6s300_link_base,-0.3815349340438843,-0.5667800903320312,-0.035301998257637024,0.4471943974494934,0.8936915993690491,-0.012633188627660275,0.034247346222400665
1680006967157184024,22053,1680006967157039723,j2s6s300_link_base,-0.38716980814933777,-0.5737168192863464,-0.0400715172290802,0.4478914737701416,0.8930684924125671,-0.02987492084503174,0.03048621490597725
1680006967257167376,22054,1680006967257031481,j2s6s300_link_base,-0.392007976770401,-0.579735279083252,-0.043152809143066406,0.4483088552951813,0.8923417329788208,-0.04475338011980057,0.027246609330177307
1680006967357155051,22055,1680006967357000999,j2s6s300_link_base,-0.39479878544807434,-0.5834833979606628,-0.044647783041000366,0.44839057326316833,0.8918609023094177,-0.05375552922487259,0.025304283946752548
1680006967457177950,22056,1680006967457027547,j2s6s300_link_base,-0.3951141834259033,-0.5840445756912231,-0.04831044375896454,0.44861093163490295,0.8916162848472595,-0.056163545697927475,0.024783212691545486
1680006967557183705,22057,1680006967557035615,j2s6s300_link_base,-0.3926602005958557,-0.5805761814117432,-0.05643652379512787,0.4490954875946045,0.8916339874267578,-0.051530759781599045,0.025428513064980507
1680006967657127316,22058,1680006967656963961,j2s6s300_link_base,-0.39041993021965027,-0.5774550437927246,-0.06259578466415405,0.4494412839412689,0.8916881084442139,-0.0470447801053524,0.02610739693045616
1680006967757137307,22059,1680006967757001650,j2s6s300_link_base,-0.3890383243560791,-0.5755049586296082,-0.06650123000144958,0.4496617615222931,0.8917060494422913,-0.044286541640758514,0.026521431282162666
1680006967857167679,22060,1680006967857038898,j2s6s300_link_base,-0.3883533477783203,-0.5747298002243042,-0.06893619894981384,0.4497203230857849,0.8917180299758911,-0.04338320344686508,0.02661607414484024
1680006967957174179,22061,1680006967957042641,j2s6s300_link_base,-0.38765576481819153,-0.5742299556732178,-0.07050363719463348,0.449623167514801,0.8918059468269348,-0.04248766228556633,0.02675390988588333
1680006968057202067,22062,1680006968057037173,j2s6s300_link_base,-0.3873831331729889,-0.5742008090019226,-0.07131968438625336,0.44953393936157227,0.8918513655662537,-0.04249664023518562,0.026726093143224716
1680006968157151977,22063,1680006968157040357,j2s6s300_link_base,-0.3867442309856415,-0.5741761326789856,-0.07204711437225342,0.44924241304397583,0.8920175433158875,-0.04203760623931885,0.026809224858880043
1680006968257141868,22064,1680006968257029465,j2s6s300_link_base,-0.3863069713115692,-0.5740623474121094,-0.07243692874908447,0.44907915592193604,0.8921170234680176,-0.04162176325917244,0.02688579633831978
1680006968357213444,22065,1680006968357010527,j2s6s300_link_base,-0.3858192265033722,-0.5739135146141052,-0.07297109067440033,0.44890207052230835,0.8922269940376282,-0.0411103330552578,0.02697833441197872
1680006968457204262,22066,1680006968457040965,j2s6s300_link_base,-0.3855113089084625,-0.5742127895355225,-0.07304297387599945,0.4484175741672516,0.8924635052680969,-0.04128675162792206,0.02694096788764
1680006968557199927,22067,1680006968557034815,j2s6s300_link_base,-0.3827745318412781,-0.576250433921814,-0.07318414747714996,0.444659560918808,0.8943268656730652,-0.041645754128694534,0.026885077357292175
1680006968657155966,22068,1680006968657028108,j2s6s300_link_base,-0.3788454830646515,-0.579302191734314,-0.07356734573841095,0.4296269416809082,0.9016119837760925,-0.0427236370742321,0.026290100067853928
1680006968757112247,22069,1680006968757026465,j2s6s300_link_base,-0.3763347864151001,-0.5813299417495728,-0.07375569641590118,0.4001295566558838,0.9150552749633789,-0.044160522520542145,0.02489994280040264
1680006968857220009,22070,1680006968857051211,j2s6s300_link_base,-0.3742174506187439,-0.5826440453529358,-0.07398198544979095,0.366964191198349,0.928848922252655,-0.04504057765007019,0.02341410703957081
1680006968957145123,22071,1680006968957050020,j2s6s300_link_base,-0.3722327649593353,-0.5835662484169006,-0.07425366342067719,0.3450738489627838,0.9372146725654602,-0.045205257833004,0.022565610706806183
1680006969057205868,22072,1680006969057040511,j2s6s300_link_base,-0.3708571195602417,-0.5838847756385803,-0.07460756599903107,0.3321688175201416,0.9418867826461792,-0.04496704041957855,0.022160189226269722
1680006969157177254,22073,1680006969157043730,j2s6s300_link_base,-0.37027689814567566,-0.5838085412979126,-0.07487671077251434,0.3245895802974701,0.9445425271987915,-0.04471714422106743,0.02193961665034294
1680006969257191872,22074,1680006969257036312,j2s6s300_link_base,-0.36976686120033264,-0.5838053226470947,-0.07507050037384033,0.3186170756816864,0.9465864300727844,-0.04453413560986519,0.02177073061466217
1680006969357166430,22075,1680006969357034031,j2s6s300_link_base,-0.3691156506538391,-0.5840500593185425,-0.07517212629318237,0.3090031147003174,0.9497745037078857,-0.044578325003385544,0.02140614576637745
1680006969457206465,22076,1680006969457042244,j2s6s300_link_base,-0.3653947710990906,-0.5863953232765198,-0.07518544793128967,0.29740652441978455,0.9534682035446167,-0.04473358392715454,0.021133888512849808
1680006969557183941,22077,1680006969557057316,j2s6s300_link_base,-0.358720064163208,-0.590711772441864,-0.0751836746931076,0.2810758948326111,0.9583964347839355,-0.04518318548798561,0.020764362066984177
1680006969657156163,22078,1680006969657027578,j2s6s300_link_base,-0.35325920581817627,-0.5940440893173218,-0.0751887857913971,0.25788456201553345,0.9648918509483337,-0.04557367414236069,0.0200574342161417
1680006969757229535,22079,1680006969757048770,j2s6s300_link_base,-0.34945234656333923,-0.5962778925895691,-0.0752020925283432,0.23634740710258484,0.9703924059867859,-0.045878101140260696,0.01933370530605316
1680006969857170926,22080,1680006969857041354,j2s6s300_link_base,-0.3466748297214508,-0.5978529453277588,-0.07522927224636078,0.22051212191581726,0.9741145372390747,-0.04605938866734505,0.0188115444034338
1680006969957219923,22081,1680006969957044003,j2s6s300_link_base,-0.34488266706466675,-0.5987208485603333,-0.0753297209739685,0.2080042064189911,0.976868212223053,-0.04608450084924698,0.018410293385386467
1680006970057205150,22082,1680006970057041134,j2s6s300_link_base,-0.3425394296646118,-0.5999611020088196,-0.07539115846157074,0.19147615134716034,0.9802458882331848,-0.04622206836938858,0.017844490706920624
1680006970157251446,22083,1680006970157036056,j2s6s300_link_base,-0.3370973765850067,-0.6030141115188599,-0.07540470361709595,0.1673680543899536,0.9846494793891907,-0.0464734211564064,0.017133411020040512
1680006970257138069,22084,1680006970257036331,j2s6s300_link_base,-0.3309934139251709,-0.6063750386238098,-0.07541292905807495,0.1430002599954605,0.9884828329086304,-0.04670901969075203,0.016456488519906998
1680006970357127782,22085,1680006970357036989,j2s6s300_link_base,-0.3259897530078888,-0.6090754270553589,-0.07541745901107788,0.1260971575975418,0.9907810091972351,-0.046851154416799545,0.016043908894062042
1680006970457216298,22086,1680006970457039392,j2s6s300_link_base,-0.31979823112487793,-0.612295925617218,-0.07545211911201477,0.11402016878128052,0.9922454953193665,-0.04683323949575424,0.015968292951583862
1680006970557137536,22087,1680006970557018844,j2s6s300_link_base,-0.3129113018512726,-0.6156795024871826,-0.07555405795574188,0.10287753492593765,0.9934689998626709,-0.04667544737458229,0.01603102684020996
1680006970657183094,22088,1680006970657047465,j2s6s300_link_base,-0.30540111660957336,-0.6187852025032043,-0.07595224678516388,0.08665650337934494,0.9950403571128845,-0.046112630516290665,0.01609218306839466
1680006970757137546,22089,1680006970757033690,j2s6s300_link_base,-0.29462990164756775,-0.6211748719215393,-0.07765932381153107,0.06695815920829773,0.9966631531715393,-0.0434388741850853,0.01709817722439766
1680006970857173103,22090,1680006970857035444,j2s6s300_link_base,-0.28357982635498047,-0.6231914758682251,-0.07953494787216187,0.04614900425076485,0.9979470372200012,-0.04049365222454071,0.018225904554128647
1680006970957157866,22091,1680006970957031796,j2s6s300_link_base,-0.27126628160476685,-0.6243847608566284,-0.08208663761615753,0.025787705555558205,0.9988054633140564,-0.0363859198987484,0.01996612548828125
1680006971057225842,22092,1680006971057018278,j2s6s300_link_base,-0.2566949427127838,-0.6246259212493896,-0.08555664122104645,0.0034667355939745903,0.9992704391479492,-0.030678192153573036,0.022481167688965797
1680006971157131906,22093,1680006971157039030,j2s6s300_link_base,-0.244510218501091,-0.6225542426109314,-0.08954551815986633,0.0185528676956892,-0.999215304851532,0.024075469002127647,-0.025397643446922302
1680006971257175411,22094,1680006971257038862,j2s6s300_link_base,-0.23415690660476685,-0.6211128830909729,-0.09253805875778198,0.036082640290260315,-0.9987838268280029,0.018949182704091072,-0.027744390070438385
1680006971357085571,22095,1680006971356983426,j2s6s300_link_base,-0.2243560552597046,-0.6213111877441406,-0.0944061279296875,0.0505058690905571,-0.9981715679168701,0.015671858564019203,-0.029276559129357338
1680006971457154593,22096,1680006971457033013,j2s6s300_link_base,-0.21604084968566895,-0.6222761273384094,-0.09541964530944824,0.06464836746454239,-0.9973569512367249,0.013828271999955177,-0.030141476541757584
1680006971557168233,22097,1680006971557040075,j2s6s300_link_base,-0.2082885354757309,-0.623606264591217,-0.09610795974731445,0.07529757171869278,-0.9966078996658325,0.01253414899110794,-0.030752580612897873
1680006971657155577,22098,1680006971657037641,j2s6s300_link_base,-0.19551759958267212,-0.6262099146842957,-0.09685437381267548,0.08856076002120972,-0.9955129027366638,0.010870080441236496,-0.03151056170463562
1680006971757107109,22099,1680006971756991678,j2s6s300_link_base,-0.1824573129415512,-0.6282747983932495,-0.09787210822105408,0.10071209073066711,-0.9943482279777527,0.008791935630142689,-0.03242496773600578
1680006971857128902,22100,1680006971857005156,j2s6s300_link_base,-0.17326316237449646,-0.627565324306488,-0.09964783489704132,0.10834907740354538,-0.9935192465782166,0.0053530060686171055,-0.03393027186393738
1680006971957126050,22101,1680006971957010947,j2s6s300_link_base,-0.16675592958927155,-0.6244052052497864,-0.10224567353725433,-0.11294323951005936,0.9929454326629639,-0.00038308254443109035,0.036098480224609375
1680006972057160972,22102,1680006972057012590,j2s6s300_link_base,-0.16017961502075195,-0.618969202041626,-0.10589121282100677,-0.11664097756147385,0.9923776984214783,0.0067732082679867744,0.03918485715985298
1680006972157164841,22103,1680006972157036399,j2s6s300_link_base,-0.15174105763435364,-0.6135047078132629,-0.10962553322315216,-0.1217043399810791,0.9915573000907898,0.014402195811271667,0.04236605018377304
1680006972257171895,22104,1680006972257041916,j2s6s300_link_base,-0.14465555548667908,-0.6093777418136597,-0.11239610612392426,-0.1262238472700119,0.990784764289856,0.020282266661524773,0.0447399728000164
1680006972357141547,22105,1680006972357038297,j2s6s300_link_base,-0.13551439344882965,-0.6079445481300354,-0.1137332022190094,-0.1328592747449875,0.9897749423980713,0.023983841761946678,0.046029411256313324
1680006972457164627,22106,1680006972457017669,j2s6s300_link_base,-0.12714199721813202,-0.6073392629623413,-0.11481735110282898,-0.13914421200752258,0.9888046383857727,0.026634667068719864,0.04684918373823166
1680006972557123698,22107,1680006972556999466,j2s6s300_link_base,-0.11825350672006607,-0.6077642440795898,-0.11536319553852081,-0.14606983959674835,0.9877424836158752,0.02829700894653797,0.04719820246100426
1680006972657206182,22108,1680006972656980412,j2s6s300_link_base,-0.11030539870262146,-0.6086369752883911,-0.11541388928890228,-0.15239308774471283,0.9867590665817261,0.029173433780670166,0.04724308103322983
1680006972757153603,22109,1680006972756990785,j2s6s300_link_base,-0.10521508753299713,-0.6089959144592285,-0.11556944251060486,-0.15640169382095337,0.9861060380935669,0.029887385666370392,0.04732836037874222
1680006972857214762,22110,1680006972856994746,j2s6s300_link_base,-0.10081151127815247,-0.6086872220039368,-0.11542774736881256,-0.15968486666679382,0.9854918122291565,0.03163733333349228,0.04801586642861366
1680006972957238205,22111,1680006972957000576,j2s6s300_link_base,-0.09039903432130814,-0.6041204929351807,-0.11473405361175537,-0.1671428084373474,0.9836145043373108,0.042621027678251266,0.05243242532014847
1680006973057184638,22112,1680006973057008031,j2s6s300_link_base,-0.07983291149139404,-0.599540650844574,-0.1139325350522995,-0.1748596429824829,0.9815008044242859,0.053607091307640076,0.05662687495350838
1680006973157191750,22113,1680006973157025823,j2s6s300_link_base,-0.07295821607112885,-0.5965837240219116,-0.11335152387619019,-0.1799478530883789,0.9800209999084473,0.06062031164765358,0.059183090925216675
1680006973257176851,22114,1680006973257011308,j2s6s300_link_base,-0.06875810772180557,-0.5950971245765686,-0.1130303293466568,-0.18302780389785767,0.9791363477706909,0.06426549702882767,0.0605209544301033
1680006973357174704,22115,1680006973357036319,j2s6s300_link_base,-0.06553173810243607,-0.5938098430633545,-0.11277346312999725,-0.18504849076271057,0.9784748554229736,0.06717569380998611,0.061897944658994675
1680006973457211985,22116,1680006973457042387,j2s6s300_link_base,-0.05928056687116623,-0.5937837362289429,-0.11264318227767944,-0.18989427387714386,0.9774251580238342,0.0686258003115654,0.062215566635131836
1680006973557100438,22117,1680006973557009893,j2s6s300_link_base,-0.05161101371049881,-0.5940545797348022,-0.11263914406299591,-0.19504638016223907,0.976307213306427,0.06939756870269775,0.06296871602535248
1680006973657180640,22118,1680006973657007168,j2s6s300_link_base,-0.03941403329372406,-0.5951017141342163,-0.11241386830806732,-0.19969239830970764,0.9751648902893066,0.06859073042869568,0.06687062978744507
1680006973757129136,22119,1680006973757007564,j2s6s300_link_base,-0.028472723439335823,-0.5956489443778992,-0.11226154863834381,-0.2042771428823471,0.9740092754364014,0.06830577552318573,0.07007958739995956
1680006973857160839,22120,1680006973857007339,j2s6s300_link_base,-0.02162833884358406,-0.5947712659835815,-0.11247754096984863,-0.2070508450269699,0.9731842875480652,0.06930071115493774,0.07238670438528061
1680006973957173777,22121,1680006973957014733,j2s6s300_link_base,-0.01599559560418129,-0.5940123796463013,-0.11167091131210327,-0.20747825503349304,0.9728165864944458,0.0695018619298935,0.0758298709988594
1680006974056137252,22122,1680006974056002149,j2s6s300_link_base,-0.00941728800535202,-0.5918921828269958,-0.11003215610980988,-0.2062506377696991,0.9724441170692444,0.07131785154342651,0.0820174440741539
1680006974157167783,22123,1680006974157040556,j2s6s300_link_base,-0.0027216486632823944,-0.5874502062797546,-0.10973376035690308,-0.20389938354492188,0.9719477891921997,0.07547380030155182,0.0897008553147316
1680006974257168549,22124,1680006974257040378,j2s6s300_link_base,0.003454349935054779,-0.5823286175727844,-0.10986505448818207,-0.20085474848747253,0.9715036749839783,0.07974934577941895,0.09735532104969025
1680006974357091943,22125,1680006974356965537,j2s6s300_link_base,0.01006178930401802,-0.579632043838501,-0.10760174691677094,-0.19897203147411346,0.971128523349762,0.08114103227853775,0.10361278057098389
1680006974457162400,22126,1680006974456999148,j2s6s300_link_base,0.016762854531407356,-0.575268566608429,-0.10570043325424194,-0.19942240417003632,0.9702412486076355,0.08467365801334381,0.10813452303409576
1680006974557181063,22127,1680006974557041828,j2s6s300_link_base,0.024742837995290756,-0.5648196935653687,-0.10658605396747589,-0.20211666822433472,0.9682675004005432,0.09483445435762405,0.11230867356061935
1680006974657190261,22128,1680006974657046503,j2s6s300_link_base,0.032728634774684906,-0.5553552508354187,-0.10664516687393188,-0.20530565083026886,0.9662584066390991,0.10382755100727081,0.1158195212483406
1680006974757194042,22129,1680006974757043459,j2s6s300_link_base,0.04097183048725128,-0.5504887104034424,-0.10356713831424713,-0.21050536632537842,0.9645411968231201,0.10786788910627365,0.11709974706172943
1680006974857134012,22130,1680006974857020580,j2s6s300_link_base,0.05037900060415268,-0.547539234161377,-0.09981445968151093,-0.21465227007865906,0.9631383419036865,0.10942341387271881,0.11964726448059082
1680006974957184309,22131,1680006974957042564,j2s6s300_link_base,0.06101418659090996,-0.5427476167678833,-0.09787198901176453,-0.21793676912784576,0.9614819288253784,0.11275038868188858,0.12386871129274368
1680006975057136837,22132,1680006975057041428,j2s6s300_link_base,0.06949692219495773,-0.5368912220001221,-0.09729346632957458,-0.2201375663280487,0.9599052667617798,0.11744947731494904,0.12777695059776306
1680006975157196470,22133,1680006975157046571,j2s6s300_link_base,0.07582953572273254,-0.5319172739982605,-0.09714394807815552,-0.22039394080638885,0.95881187915802,0.12136811763048172,0.1318180114030838
1680006975257171100,22134,1680006975257044875,j2s6s300_link_base,0.087049201130867,-0.528610110282898,-0.09644386172294617,-0.21815824508666992,0.9579523205757141,0.12253677099943161,0.1404244303703308
1680006975357143698,22135,1680006975357033137,j2s6s300_link_base,0.0982958972454071,-0.5261714458465576,-0.09603524208068848,-0.2164718210697174,0.9570615291595459,0.1230195090174675,0.14845643937587738
1680006975457179450,22136,1680006975457037016,j2s6s300_link_base,0.11080224812030792,-0.5245344042778015,-0.09509459137916565,-0.21453651785850525,0.9561672806739807,0.12239816039800644,0.1572798192501068
1680006975557137518,22137,1680006975557010987,j2s6s300_link_base,0.12272439897060394,-0.5226821303367615,-0.09431411325931549,-0.2138235867023468,0.9550856351852417,0.12221096456050873,0.16478903591632843
1680006975657185386,22138,1680006975657041279,j2s6s300_link_base,0.13091956079006195,-0.5200350284576416,-0.0940670520067215,-0.21467900276184082,0.9539920091629028,0.12355931103229523,0.16895321011543274
1680006975757168064,22139,1680006975757049500,j2s6s300_link_base,0.13760864734649658,-0.5174228549003601,-0.09404297173023224,-0.21289215981960297,0.9536001682281494,0.12558864057064056,0.17190426588058472
1680006975857138363,22140,1680006975857006178,j2s6s300_link_base,0.146526038646698,-0.5155026912689209,-0.09347718954086304,-0.2040642350912094,0.9545727968215942,0.12762302160263062,0.17567282915115356
1680006975957122532,22141,1680006975957004344,j2s6s300_link_base,0.15499356389045715,-0.5137955546379089,-0.0928957462310791,-0.1974482238292694,0.9551178812980652,0.12924432754516602,0.17905303835868835
1680006976056259590,22142,1680006976056012017,j2s6s300_link_base,0.16271518170833588,-0.5125276446342468,-0.09223929047584534,-0.1943594217300415,0.9550201296806335,0.12988601624965668,0.18245695531368256
1680006976157139464,22143,1680006976157009724,j2s6s300_link_base,0.1700504720211029,-0.5110317468643188,-0.0916823148727417,-0.1924879550933838,0.9547065496444702,0.13065552711486816,0.18550705909729004
1680006976257145843,22144,1680006976257017102,j2s6s300_link_base,0.17930448055267334,-0.5091750621795654,-0.09096641838550568,-0.19326454401016235,0.9538193941116333,0.13115650415420532,0.1888793259859085
1680006976357144203,22145,1680006976357007673,j2s6s300_link_base,0.19018030166625977,-0.5066781044006348,-0.09018607437610626,-0.19580060243606567,0.9525072574615479,0.13178914785385132,0.192415252327919
1680006976457164672,22146,1680006976457009786,j2s6s300_link_base,0.1989569067955017,-0.5045856833457947,-0.08982166647911072,-0.19942662119865417,0.9513920545578003,0.13190340995788574,0.19412298500537872
1680006976557169858,22147,1680006976557009705,j2s6s300_link_base,0.20564404129981995,-0.5070196390151978,-0.09129700064659119,-0.20240193605422974,0.9522238969802856,0.1239473819732666,0.19219839572906494
1680006976656138906,22148,1680006976656015285,j2s6s300_link_base,0.2098865807056427,-0.5094696283340454,-0.09268374741077423,-0.20443318784236908,0.953117847442627,0.11694733798503876,0.18999141454696655
1680006976757185474,22149,1680006976757035271,j2s6s300_link_base,0.21235445141792297,-0.5109739303588867,-0.09347707033157349,-0.20538979768753052,0.9536813497543335,0.1127697080373764,0.18865284323692322
1680006976857156375,22150,1680006976857045645,j2s6s300_link_base,0.21405255794525146,-0.5114310383796692,-0.09379969537258148,-0.2062188982963562,0.9538151621818542,0.11097465455532074,0.18813557922840118
1680006976957179867,22151,1680006976957043884,j2s6s300_link_base,0.21492747962474823,-0.5120049118995667,-0.09401078522205353,-0.20644240081310272,0.9540008902549744,0.10945887118577957,0.1878364384174347
1680006977057192673,22152,1680006977057044487,j2s6s300_link_base,0.21558412909507751,-0.5124223232269287,-0.09419479966163635,-0.20670051872730255,0.9541364908218384,0.1083160936832428,0.18752598762512207
1680006977157155804,22153,1680006977157045703,j2s6s300_link_base,0.21606415510177612,-0.5125623345375061,-0.09421318769454956,-0.20660915970802307,0.95418381690979,0.10785330832004547,0.18765288591384888
1680006977257168259,22154,1680006977257050903,j2s6s300_link_base,0.21658635139465332,-0.5127156972885132,-0.0942416787147522,-0.2065686583518982,0.9542276859283447,0.10734696686267853,0.18776486814022064
1680006977357156441,22155,1680006977357043361,j2s6s300_link_base,0.22019580006599426,-0.5125357508659363,-0.09356836974620819,-0.20417435467243195,0.9540770053863525,0.10669174790382385,0.19148564338684082
1680006977457186066,22156,1680006977457043160,j2s6s300_link_base,0.2248208075761795,-0.5119597911834717,-0.09294205904006958,-0.20293837785720825,0.9537208676338196,0.1060972511768341,0.19487428665161133
1680006977557196090,22157,1680006977557051437,j2s6s300_link_base,0.22758516669273376,-0.5113760828971863,-0.09261730313301086,-0.20295414328575134,0.9534120559692383,0.10601779818534851,0.1964060217142105
1680006977657172681,22158,1680006977657042579,j2s6s300_link_base,0.2286849021911621,-0.5113922357559204,-0.09225985407829285,-0.202385812997818,0.9533523917198181,0.10572151839733124,0.197439044713974
1680006977757202971,22159,1680006977757044830,j2s6s300_link_base,0.22939534485340118,-0.5118441581726074,-0.09137549996376038,-0.20220424234867096,0.9533544778823853,0.10495650768280029,0.19802235066890717
1680006977857220016,22160,1680006977857052836,j2s6s300_link_base,0.22973661124706268,-0.5121832489967346,-0.09079140424728394,-0.20204323530197144,0.9533734321594238,0.10444128513336182,0.19836768507957458
1680006977957214241,22161,1680006977957046358,j2s6s300_link_base,0.23002806305885315,-0.5124097466468811,-0.09037026762962341,-0.2019643485546112,0.953378438949585,0.10407596826553345,0.19861572980880737
1680006978057178934,22162,1680006978057046769,j2s6s300_link_base,0.2303086370229721,-0.5126097798347473,-0.08993637561798096,-0.20212708413600922,0.9533674120903015,0.10372409224510193,0.19868695735931396
1680006978157162649,22163,1680006978157038405,j2s6s300_link_base,0.23048818111419678,-0.5128506422042847,-0.08949826657772064,-0.20224256813526154,0.9533730745315552,0.10335345566272736,0.1987355649471283
1680006978257212474,22164,1680006978257048889,j2s6s300_link_base,0.23065254092216492,-0.5130889415740967,-0.089067742228508,-0.20238348841667175,0.9533781409263611,0.10298849642276764,0.19875717163085938
1680006978357150650,22165,1680006978357045665,j2s6s300_link_base,0.23111292719841003,-0.5130618810653687,-0.08882732689380646,-0.20277559757232666,0.953310489654541,0.1028519794344902,0.19875302910804749
1680006978457190555,22166,1680006978457011323,j2s6s300_link_base,0.23174110054969788,-0.513084888458252,-0.08840154111385345,-0.20335593819618225,0.9532223343849182,0.10258275270462036,0.19872182607650757
1680006978557158989,22167,1680006978557047202,j2s6s300_link_base,0.23243936896324158,-0.5145773887634277,-0.08584576845169067,-0.20415818691253662,0.9532853364944458,0.10038675367832184,0.19871853291988373
1680006978657172705,22168,1680006978657012666,j2s6s300_link_base,0.2328871637582779,-0.5189657807350159,-0.07895275950431824,-0.2064126878976822,0.9536094069480896,0.0943191647529602,0.19780491292476654
1680006978757179295,22169,1680006978757046288,j2s6s300_link_base,0.22760194540023804,-0.5224882364273071,-0.07396197319030762,-0.21802276372909546,0.9537032842636108,0.090140700340271,0.18652299046516418
1680006978857258696,22170,1680006978857040786,j2s6s300_link_base,0.21858912706375122,-0.524029016494751,-0.07182565331459045,-0.23898115754127502,0.9526209235191345,0.089265376329422,0.1656295210123062
1680006978957153834,22171,1680006978957010410,j2s6s300_link_base,0.21841880679130554,-0.522651195526123,-0.0701303780078888,-0.25516536831855774,0.951136589050293,0.09054405987262726,0.14843079447746277
1680006979057146746,22172,1680006979057002439,j2s6s300_link_base,0.22202321887016296,-0.5204719305038452,-0.06853976845741272,-0.257775217294693,0.9519880414009094,0.09292978793382645,0.1365087777376175
1680006979157170210,22173,1680006979157046288,j2s6s300_link_base,0.22516781091690063,-0.5193083882331848,-0.06701770424842834,-0.2516026496887207,0.9544880390167236,0.09468662738800049,0.1291634440422058
1680006979257232037,22174,1680006979257001222,j2s6s300_link_base,0.22655116021633148,-0.5186254382133484,-0.06627103686332703,-0.23982073366641998,0.9580423831939697,0.09680402278900146,0.12357058376073837
1680006979357254647,22175,1680006979356999462,j2s6s300_link_base,0.22533807158470154,-0.5190445184707642,-0.06588557362556458,-0.22293172776699066,0.962446928024292,0.098780557513237,0.11933004856109619
1680006979457232543,22176,1680006979456999585,j2s6s300_link_base,0.2223956137895584,-0.5206567049026489,-0.06502775847911835,-0.2045985609292984,0.9668037295341492,0.0998510867357254,0.11601591110229492
1680006979557164818,22177,1680006979557005887,j2s6s300_link_base,0.2191483974456787,-0.5218528509140015,-0.06447947025299072,-0.19341231882572174,0.9694482684135437,0.10056367516517639,0.11246621608734131
1680006979657192992,22178,1680006979657022571,j2s6s300_link_base,0.21746504306793213,-0.5237544178962708,-0.06209982931613922,-0.18695653975009918,0.9711043238639832,0.09917709231376648,0.11030633747577667
1680006979757139130,22179,1680006979757009211,j2s6s300_link_base,0.21662096679210663,-0.527508556842804,-0.05558353662490845,-0.1844356656074524,0.9722184538841248,0.09416794031858444,0.10912062972784042
1680006979857163138,22180,1680006979857008026,j2s6s300_link_base,0.21586757898330688,-0.5286909341812134,-0.049914583563804626,-0.1831163763999939,0.9728113412857056,0.09152230620384216,0.1083056777715683
1680006979957115490,22181,1680006979957048698,j2s6s300_link_base,0.21476894617080688,-0.5249340534210205,-0.04704907536506653,-0.18141351640224457,0.9729176163673401,0.09428271651268005,0.10784789174795151
1680006980057163162,22182,1680006980057016028,j2s6s300_link_base,0.21339796483516693,-0.5211274027824402,-0.04420284926891327,-0.18011939525604248,0.9729579091072083,0.09705560654401779,0.10719192028045654
1680006980157218547,22183,1680006980157055125,j2s6s300_link_base,0.2127503752708435,-0.519500195980072,-0.04008781909942627,-0.17984426021575928,0.9730417728424072,0.09716448187828064,0.10679346323013306
1680006980257205240,22184,1680006980257046624,j2s6s300_link_base,0.2122378796339035,-0.5184606313705444,-0.036569684743881226,-0.17983761429786682,0.9731181263923645,0.09687256813049316,0.10637377202510834
1680006980357162441,22185,1680006980357036501,j2s6s300_link_base,0.21185824275016785,-0.5174328684806824,-0.03404724597930908,-0.18015998601913452,0.973116934299469,0.09676927328109741,0.10593152046203613
1680006980457105533,22186,1680006980457013686,j2s6s300_link_base,0.21111422777175903,-0.5179761052131653,-0.03281553089618683,-0.18404783308506012,0.9731786251068115,0.09330129623413086,0.1017078161239624
1680006980557134243,22187,1680006980557007152,j2s6s300_link_base,0.21067126095294952,-0.5253209471702576,-0.032663941383361816,-0.19765923917293549,0.9734288454055786,0.07525309175252914,0.08777317404747009
1680006980657176486,22188,1680006980657043168,j2s6s300_link_base,0.20813143253326416,-0.5354137420654297,-0.03159049153327942,-0.21764656901359558,0.9723807573318481,0.05075985565781593,0.06729784607887268
1680006980757150756,22189,1680006980757051740,j2s6s300_link_base,0.2057504653930664,-0.5373696088790894,-0.02878221869468689,-0.23170393705368042,0.9705398082733154,0.038437940180301666,0.053742822259664536
1680006980857147788,22190,1680006980857047930,j2s6s300_link_base,0.20293477177619934,-0.5302436947822571,-0.027291908860206604,-0.23848256468772888,0.9693158268928528,0.038374368101358414,0.04561024159193039
1680006980957178033,22191,1680006980957049414,j2s6s300_link_base,0.19977359473705292,-0.519677996635437,-0.028007596731185913,-0.2350584864616394,0.9701248407363892,0.044660720974206924,0.0401344820857048
1680006981057165901,22192,1680006981057039808,j2s6s300_link_base,0.19777768850326538,-0.5121033787727356,-0.02850070595741272,-0.22944192588329315,0.9713706374168396,0.049426451325416565,0.03677735477685928
1680006981157162784,22193,1680006981157050072,j2s6s300_link_base,0.19588512182235718,-0.5073482990264893,-0.029235094785690308,-0.22668002545833588,0.9719229340553284,0.052817024290561676,0.03453022986650467
1680006981257201684,22194,1680006981257053185,j2s6s300_link_base,0.19482746720314026,-0.5039644241333008,-0.02996760606765747,-0.22467119991779327,0.9722790122032166,0.055706799030303955,0.033062875270843506
1680006981357151948,22195,1680006981357015379,j2s6s300_link_base,0.19416001439094543,-0.5022423267364502,-0.030303344130516052,-0.22364822030067444,0.9724637866020203,0.05710429698228836,0.03216611221432686
1680006981457246667,22196,1680006981457039694,j2s6s300_link_base,0.19369898736476898,-0.5011494755744934,-0.030575841665267944,-0.22306306660175323,0.9725620150566101,0.057997655123472214,0.03165872395038605
1680006981557178798,22197,1680006981557049581,j2s6s300_link_base,0.19351400434970856,-0.5005114078521729,-0.030721113085746765,-0.22254982590675354,0.9726523160934448,0.058548323810100555,0.03148423880338669
1680006981657142209,22198,1680006981657021668,j2s6s300_link_base,0.19354474544525146,-0.5003319978713989,-0.030561089515686035,-0.22218598425388336,0.9727375507354736,0.05853768065571785,0.031437948346138
1680006981757150214,22199,1680006981757021906,j2s6s300_link_base,0.19350114464759827,-0.5001141428947449,-0.03057067096233368,-0.22212687134742737,0.972743809223175,0.05867535248398781,0.031407326459884644
1680006981857126837,22200,1680006981857015924,j2s6s300_link_base,0.1935763955116272,-0.5003227591514587,-0.03017820417881012,-0.22211290895938873,0.9727699160575867,0.05828259140253067,0.031425971537828445
1680006981957162379,22201,1680006981957049933,j2s6s300_link_base,0.1937541663646698,-0.500472903251648,-0.029767155647277832,-0.22221554815769196,0.9727683663368225,0.05790815129876137,0.03144160285592079
1680006982057189523,22202,1680006982057050787,j2s6s300_link_base,0.19401533901691437,-0.5005486011505127,-0.029309764504432678,-0.22242042422294617,0.972743809223175,0.057537343353033066,0.03143486753106117
1680006982157188903,22203,1680006982157048768,j2s6s300_link_base,0.19450196623802185,-0.5018572807312012,-0.026834353804588318,-0.22255246341228485,0.97284334897995,0.05519780144095421,0.0316135436296463
1680006982257236677,22204,1680006982257052832,j2s6s300_link_base,0.1955041140317917,-0.5046640634536743,-0.021696746349334717,-0.2227855920791626,0.9730450510978699,0.05023673176765442,0.032033927738666534
1680006982357217094,22205,1680006982357050459,j2s6s300_link_base,0.19659562408924103,-0.50785893201828,-0.01579524576663971,-0.22308844327926636,0.973237156867981,0.04454519599676132,0.03250691294670105
1680006982457196136,22206,1680006982457049197,j2s6s300_link_base,0.19736112654209137,-0.510150134563446,-0.01150733232498169,-0.2233472317457199,0.9733442068099976,0.04050058498978615,0.03281432390213013
1680006982557153595,22207,1680006982557048392,j2s6s300_link_base,0.19790956377983093,-0.5115310549736023,-0.008885443210601807,-0.22359193861484528,0.9733821749687195,0.03801463544368744,0.03299468383193016
1680006982657160518,22208,1680006982657052968,j2s6s300_link_base,0.1981857270002365,-0.5120814442634583,-0.007744699716567993,-0.22378067672252655,0.9733779430389404,0.03695761412382126,0.0330420583486557
1680006982757182414,22209,1680006982757043966,j2s6s300_link_base,0.19822441041469574,-0.5122223496437073,-0.007476806640625,-0.22382353246212006,0.9733777642250061,0.036705564707517624,0.03303757309913635
1680006982857179901,22210,1680006982857049306,j2s6s300_link_base,0.1982315331697464,-0.512236475944519,-0.007447600364685059,-0.22382307052612305,0.9733788371086121,0.036678675562143326,0.03303980082273483
1680006982957177835,22211,1680006982957047103,j2s6s300_link_base,0.19822189211845398,-0.5122499465942383,-0.007435113191604614,-0.22380828857421875,0.9733826518058777,0.03666488081216812,0.0330413356423378
1680006983057211125,22212,1680006983057048627,j2s6s300_link_base,0.19823318719863892,-0.5122935771942139,-0.007362186908721924,-0.22380909323692322,0.9733850359916687,0.03659256547689438,0.033046990633010864
1680006983157191281,22213,1680006983157049889,j2s6s300_link_base,0.19824860990047455,-0.5123406648635864,-0.007272601127624512,-0.22381141781806946,0.9733873605728149,0.03650875389575958,0.033054597675800323
1680006983257213229,22214,1680006983257051232,j2s6s300_link_base,0.19825473427772522,-0.5123594403266907,-0.007238179445266724,-0.2238127887248993,0.973388135433197,0.036475785076618195,0.033057551831007004
1680006983357215298,22215,1680006983357055390,j2s6s300_link_base,0.19825735688209534,-0.5123674273490906,-0.007224410772323608,-0.22381220757961273,0.9733887910842896,0.03646232932806015,0.03305874019861221
1680006983457190079,22216,1680006983457045130,j2s6s300_link_base,0.19825872778892517,-0.5123715996742249,-0.0072172582149505615,-0.22381138801574707,0.9733891487121582,0.036455243825912476,0.03305933624505997
1680006983557190060,22217,1680006983557056741,j2s6s300_link_base,0.19825966656208038,-0.5123744606971741,-0.007212460041046143,-0.22381019592285156,0.9733896255493164,0.03645054250955582,0.03305972367525101
1680006983657183252,22218,1680006983657055085,j2s6s300_link_base,0.1982601284980774,-0.5123758316040039,-0.007209599018096924,-0.22380919754505157,0.9733899831771851,0.036447957158088684,0.03305992856621742
1680006983757155127,22219,1680006983757049183,j2s6s300_link_base,0.19826070964336395,-0.5123776197433472,-0.007207423448562622,-0.22380922734737396,0.9733900427818298,0.03644545376300812,0.03306017071008682
1680006983857168786,22220,1680006983857055463,j2s6s300_link_base,0.19826087355613708,-0.5123780965805054,-0.007206380367279053,-0.22380809485912323,0.9733903408050537,0.036444492638111115,0.033060215413570404
1680006983957178279,22221,1680006983957051006,j2s6s300_link_base,0.1982613205909729,-0.5123794078826904,-0.007205009460449219,-0.22380824387073517,0.9733904004096985,0.036442745476961136,0.033060379326343536
1680006984057191088,22222,1680006984057025352,j2s6s300_link_base,0.1982613205909729,-0.5123794078826904,-0.007205009460449219,-0.22380824387073517,0.9733904004096985,0.036442745476961136,0.033060379326343536
