%time,field.header.seq,field.header.stamp,field.header.frame_id,field.pose.position.x,field.pose.position.y,field.pose.position.z,field.pose.orientation.x,field.pose.orientation.y,field.pose.orientation.z,field.pose.orientation.w
1680006415757782597,16539,1680006415757508131,j2s6s300_link_base,-0.38791877031326294,-0.4415094554424286,-0.01528380811214447,0.4794352054595947,0.8767673969268799,-0.012805841863155365,0.03545008972287178
1680006415856513603,16540,1680006415856409697,j2s6s300_link_base,-0.38791877031326294,-0.4415094554424286,-0.01528380811214447,0.4794352054595947,0.8767673969268799,-0.012805841863155365,0.03545008972287178
1680006415956508459,16541,1680006415956412979,j2s6s300_link_base,-0.38791877031326294,-0.4415094554424286,-0.01528380811214447,0.4794352054595947,0.8767673969268799,-0.012805841863155365,0.03545008972287178
1680006416056510966,16542,1680006416056414227,j2s6s300_link_base,-0.38791877031326294,-0.4415094554424286,-0.01528380811214447,0.4794352054595947,0.8767673969268799,-0.012805841863155365,0.03545008972287178
1680006416156509364,16543,1680006416156414638,j2s6s300_link_base,-0.38791877031326294,-0.4415094554424286,-0.01528380811214447,0.4794352054595947,0.8767673969268799,-0.012805841863155365,0.03545008972287178
1680006416256506223,16544,1680006416256413857,j2s6s300_link_base,-0.38791877031326294,-0.4415094554424286,-0.01528380811214447,0.4794352054595947,0.8767673969268799,-0.012805841863155365,0.03545008972287178
1680006416356541632,16545,1680006416356414776,j2s6s300_link_base,-0.38791877031326294,-0.4415094554424286,-0.01528380811214447,0.4794352054595947,0.8767673969268799,-0.012805841863155365,0.03545008972287178
1680006416456512025,16546,1680006416456415513,j2s6s300_link_base,-0.38791877031326294,-0.4415094554424286,-0.01528380811214447,0.4794352054595947,0.8767673969268799,-0.012805841863155365,0.03545008972287178
1680006416556540402,16547,1680006416556413860,j2s6s300_link_base,-0.38791877031326294,-0.4415094554424286,-0.01528380811214447,0.4794352054595947,0.8767673969268799,-0.012805841863155365,0.03545008972287178
1680006416656603151,16548,1680006416656447013,j2s6s300_link_base,-0.38791877031326294,-0.4415094554424286,-0.01528380811214447,0.4794352054595947,0.8767673969268799,-0.012805841863155365,0.03545008972287178
1680006416756558680,16549,1680006416756453533,j2s6s300_link_base,-0.38791877031326294,-0.4415094554424286,-0.01528380811214447,0.4794352054595947,0.8767673969268799,-0.012805841863155365,0.03545008972287178
1680006416856569754,16550,1680006416856447879,j2s6s300_link_base,-0.38791877031326294,-0.4415094554424286,-0.01528380811214447,0.4794352054595947,0.8767673969268799,-0.012805841863155365,0.03545008972287178
1680006416956615587,16551,1680006416956446993,j2s6s300_link_base,-0.38791877031326294,-0.4415094554424286,-0.01528380811214447,0.4794352054595947,0.8767673969268799,-0.012805841863155365,0.03545008972287178
1680006417056595795,16552,1680006417056451694,j2s6s300_link_base,-0.38792920112609863,-0.4415017068386078,-0.01528303325176239,0.4794447124004364,0.8767622709274292,-0.012806838378310204,0.03544994443655014
1680006417156558803,16553,1680006417156417416,j2s6s300_link_base,-0.38796401023864746,-0.44146808981895447,-0.015286430716514587,0.47948113083839417,0.8767423629760742,-0.012804905883967876,0.035450324416160583
1680006417256554002,16554,1680006417256417005,j2s6s300_link_base,-0.38795655965805054,-0.4414535462856293,-0.015316799283027649,0.4794854521751404,0.876740038394928,-0.012779575772583485,0.03545735031366348
1680006417356608942,16555,1680006417356416581,j2s6s300_link_base,-0.387865275144577,-0.4413617253303528,-0.01557786762714386,0.4794921278953552,0.8767370581626892,-0.012565317563712597,0.035516828298568726
1680006417456697165,16556,1680006417456459896,j2s6s300_link_base,-0.3877986669540405,-0.44129478931427,-0.015765517950057983,0.47949668765068054,0.8767350316047668,-0.012410299852490425,0.035559847950935364
1680006417558612828,16557,1680006417558442302,j2s6s300_link_base,-0.3875676989555359,-0.44104889035224915,-0.01644463837146759,0.47952085733413696,0.8767232298851013,-0.011853165924549103,0.035714663565158844
1680006417656700470,16558,1680006417656442936,j2s6s300_link_base,-0.38707435131073,-0.44054508209228516,-0.01785781979560852,0.47955945134162903,0.8767037987709045,-0.010693413205444813,0.03603660315275192
1680006417756586317,16559,1680006417756436807,j2s6s300_link_base,-0.38615915179252625,-0.4396038055419922,-0.020464420318603516,0.4796324372291565,0.8766627907752991,-0.008548371493816376,0.03663218766450882
1680006417856616819,16560,1680006417856438552,j2s6s300_link_base,-0.3846166431903839,-0.4380306005477905,-0.024777919054031372,0.4797413945198059,0.876588761806488,-0.004989226348698139,0.037619806826114655
1680006417956586658,16561,1680006417956431667,j2s6s300_link_base,-0.3829120099544525,-0.4362558424472809,-0.029551774263381958,0.4798734486103058,0.8764827251434326,-0.001057373359799385,0.03870996832847595
1680006418057577214,16562,1680006418057428671,j2s6s300_link_base,-0.3819500505924225,-0.4352512061595917,-0.03254696726799011,0.4799492359161377,0.8764121532440186,0.0012715794146060944,0.0393553227186203
1680006418156646517,16563,1680006418156481082,j2s6s300_link_base,-0.38115888833999634,-0.4344288408756256,-0.03470084071159363,0.48000368475914,0.8763555288314819,0.0030565597116947174,0.03985002636909485
1680006418256617885,16564,1680006418256484392,j2s6s300_link_base,-0.3809959292411804,-0.434242308139801,-0.03554655611515045,0.4800336956977844,0.8763339519500732,0.0034384876489639282,0.03993169218301773
1680006418356576355,16565,1680006418356438806,j2s6s300_link_base,-0.38250648975372314,-0.435542494058609,-0.03636804223060608,0.48022663593292236,0.8762959837913513,-0.00019691884517669678,0.03857051953673363
1680006418456607078,16566,1680006418456466787,j2s6s300_link_base,-0.3838617205619812,-0.43671026825904846,-0.03699135780334473,0.4803887903690338,0.8762528896331787,-0.0034572649747133255,0.03735506534576416
1680006418556582976,16567,1680006418556483496,j2s6s300_link_base,-0.38486772775650024,-0.43758541345596313,-0.03753252327442169,0.4805029630661011,0.876215934753418,-0.005899668671190739,0.03643842786550522
1680006418656583197,16568,1680006418656462423,j2s6s300_link_base,-0.3852974772453308,-0.4379308521747589,-0.038317322731018066,0.48058220744132996,0.8761829137802124,-0.00698186457157135,0.03599412739276886
1680006418756697831,16569,1680006418756455797,j2s6s300_link_base,-0.3850652575492859,-0.4376285672187805,-0.0399499237537384,0.48066234588623047,0.8761404156684875,-0.006530419923365116,0.0360434427857399
1680006418856618458,16570,1680006418856487647,j2s6s300_link_base,-0.384455144405365,-0.4369596540927887,-0.04246339201927185,0.4807526767253876,0.8760877847671509,-0.005274645984172821,0.03632107377052307
1680006418956610061,16571,1680006418956448647,j2s6s300_link_base,-0.38401472568511963,-0.436386376619339,-0.04568469524383545,0.48090657591819763,0.876005232334137,-0.004483201541006565,0.03638113662600517
1680006419056618242,16572,1680006419056465046,j2s6s300_link_base,-0.3838749825954437,-0.43615859746932983,-0.04767310619354248,0.48100438714027405,0.8759546279907227,-0.004237797111272812,0.03633724898099899
1680006419156580874,16573,1680006419156451405,j2s6s300_link_base,-0.38361260294914246,-0.43585848808288574,-0.049053043127059937,0.4810545742511749,0.8759248852729797,-0.003664003685116768,0.036453694105148315
1680006419256571309,16574,1680006419256440089,j2s6s300_link_base,-0.3833659589290619,-0.4355999231338501,-0.04992000758647919,0.4810795187950134,0.8759081363677979,-0.003168701194226742,0.03657152131199837
1680006419356582206,16575,1680006419356448721,j2s6s300_link_base,-0.3833092153072357,-0.4355272650718689,-0.050330281257629395,0.48109808564186096,0.8758978843688965,-0.003067990764975548,0.03657952696084976
1680006419456608404,16576,1680006419456488108,j2s6s300_link_base,-0.3831705152988434,-0.4353771507740021,-0.05084061622619629,0.4811151325702667,0.875886857509613,-0.0027903690934181213,0.036643631756305695
1680006419556590790,16577,1680006419556487969,j2s6s300_link_base,-0.38344788551330566,-0.43559354543685913,-0.05125819146633148,0.4811666011810303,0.8758677244186401,-0.0034821294248104095,0.03636477142572403
1680006419656680377,16578,1680006419656488272,j2s6s300_link_base,-0.38554129004478455,-0.43742990493774414,-0.05140171945095062,0.4813532531261444,0.8758044242858887,-0.008461943827569485,0.034556008875370026
1680006419756613936,16579,1680006419756467093,j2s6s300_link_base,-0.3874836266040802,-0.43913617730140686,-0.05155070126056671,0.48151275515556335,0.8757245540618896,-0.013094039633870125,0.032869305461645126
1680006419856678550,16580,1680006419856492213,j2s6s300_link_base,-0.3882977068424225,-0.4400092363357544,-0.05175076425075531,0.4814970791339874,0.8757277727127075,-0.015272935852408409,0.03206595033407211
1680006419956612209,16581,1680006419956490579,j2s6s300_link_base,-0.3887997269630432,-0.44047027826309204,-0.051926806569099426,0.4815278947353363,0.8757049441337585,-0.016521885991096497,0.031600892543792725
1680006420056653441,16582,1680006420056488383,j2s6s300_link_base,-0.3887295126914978,-0.440339058637619,-0.05315883457660675,0.4815919101238251,0.8756731748580933,-0.016486693173646927,0.03152523934841156
1680006420156579376,16583,1680006420156483061,j2s6s300_link_base,-0.387903094291687,-0.43943414092063904,-0.056219711899757385,0.4817070960998535,0.875625491142273,-0.014862761832773685,0.03189440071582794
1680006420256627711,16584,1680006420256494591,j2s6s300_link_base,-0.3869275152683258,-0.43837717175483704,-0.05958196520805359,0.4818273186683655,0.8755732774734497,-0.012946370989084244,0.032346103340387344
1680006420356594363,16585,1680006420356483781,j2s6s300_link_base,-0.38616445660591125,-0.43757888674736023,-0.06170359253883362,0.4818916916847229,0.8755441904067993,-0.011401982977986336,0.03275229409337044
1680006420456644236,16586,1680006420456480910,j2s6s300_link_base,-0.38573622703552246,-0.43712276220321655,-0.06300294399261475,0.48193418979644775,0.8755234479904175,-0.010549544356763363,0.0329672209918499
1680006420556608070,16587,1680006420556483050,j2s6s300_link_base,-0.38642680644989014,-0.43768996000289917,-0.06368771195411682,0.4820244312286377,0.8754764199256897,-0.012267973273992538,0.03229542821645737
1680006420656607621,16588,1680006420656456869,j2s6s300_link_base,-0.3878040909767151,-0.4388863742351532,-0.06414210796356201,0.48214200139045715,0.8754034638404846,-0.015601612627506256,0.031053483486175537
1680006420756618495,16589,1680006420756454012,j2s6s300_link_base,-0.3884248435497284,-0.4394451081752777,-0.06453599035739899,0.4821871221065521,0.8753703236579895,-0.017177635803818703,0.030452344566583633
1680006420856614764,16590,1680006420856455965,j2s6s300_link_base,-0.3888159394264221,-0.4397893249988556,-0.06469686329364777,0.48221680521965027,0.8753470778465271,-0.018138937652111053,0.030091509222984314
1680006420956590695,16591,1680006420956454928,j2s6s300_link_base,-0.38898545503616333,-0.43993744254112244,-0.06493306159973145,0.48223382234573364,0.8753344416618347,-0.018584318459033966,0.029912931844592094
1680006421056572177,16592,1680006421056449380,j2s6s300_link_base,-0.3889841139316559,-0.43992650508880615,-0.06532324850559235,0.48224908113479614,0.87532639503479,-0.018648266792297363,0.029862385243177414
1680006421156629070,16593,1680006421156492600,j2s6s300_link_base,-0.3887590169906616,-0.43970486521720886,-0.06622608006000519,0.4822675287723541,0.8753218650817871,-0.01824723556637764,0.02994457259774208
1680006421256626124,16594,1680006421256489050,j2s6s300_link_base,-0.38931357860565186,-0.4402376115322113,-0.06683486700057983,0.4822912812232971,0.875296950340271,-0.019648287445306778,0.02939923107624054
1680006421356599332,16595,1680006421356494706,j2s6s300_link_base,-0.39006099104881287,-0.44093069434165955,-0.06730188429355621,0.4823285639286041,0.8752559423446655,-0.02153020165860653,0.028684254735708237
1680006421456650869,16596,1680006421456489365,j2s6s300_link_base,-0.3905452489852905,-0.44134360551834106,-0.06758134067058563,0.4823704957962036,0.8752174377441406,-0.02272096648812294,0.028230728581547737
1680006421556610886,16597,1680006421556490842,j2s6s300_link_base,-0.39090293645858765,-0.4416446089744568,-0.06790100038051605,0.4824053943157196,0.8751856088638306,-0.023621462285518646,0.02787964791059494
1680006421656589058,16598,1680006421656465846,j2s6s300_link_base,-0.3914821445941925,-0.4421382546424866,-0.06812146306037903,0.48245251178741455,0.8751371502876282,-0.025030013173818588,0.027350980788469315
1680006421756575705,16599,1680006421756455293,j2s6s300_link_base,-0.3918231725692749,-0.44244667887687683,-0.0684068351984024,0.4824729263782501,0.8751108050346375,-0.025918561965227127,0.027006259188055992
1680006421856585060,16600,1680006421856458595,j2s6s300_link_base,-0.39172452688217163,-0.44242632389068604,-0.06912583112716675,0.48244747519493103,0.8751263618469238,-0.025923214852809906,0.026953477412462234
1680006421957577773,16601,1680006421957452954,j2s6s300_link_base,-0.391436368227005,-0.4428299367427826,-0.06962676346302032,0.48209306597709656,0.8753182888031006,-0.026134328916668892,0.026853669434785843
1680006422056619794,16602,1680006422056491556,j2s6s300_link_base,-0.3917330205440521,-0.4437246322631836,-0.0699022114276886,0.48177504539489746,0.8754676580429077,-0.027437549084424973,0.026389772072434425
1680006422156571106,16603,1680006422156445493,j2s6s300_link_base,-0.39255622029304504,-0.44500571489334106,-0.07015784084796906,0.481526643037796,0.8755478262901306,-0.029992876574397087,0.025465205311775208
1680006422256654302,16604,1680006422256490189,j2s6s300_link_base,-0.39344972372055054,-0.44627946615219116,-0.0706084817647934,0.481321781873703,0.8755877614021301,-0.03286980837583542,0.024393826723098755
1680006422356643249,16605,1680006422356487410,j2s6s300_link_base,-0.39354753494262695,-0.4466456174850464,-0.0719468742609024,0.4812030792236328,0.8756304383277893,-0.03376270830631256,0.023977365344762802
1680006422456617341,16606,1680006422456485370,j2s6s300_link_base,-0.39301955699920654,-0.44689518213272095,-0.07378913462162018,0.480832576751709,0.8758385181427002,-0.033710405230522156,0.02388632483780384
1680006422556611354,16607,1680006422556481453,j2s6s300_link_base,-0.39108988642692566,-0.44823363423347473,-0.07513798773288727,0.47915443778038025,0.8767659664154053,-0.03346433490514755,0.02392788603901863
1680006422656618929,16608,1680006422656491130,j2s6s300_link_base,-0.389718621969223,-0.4494847059249878,-0.07657173275947571,0.47781074047088623,0.8774892091751099,-0.03386721760034561,0.02371661178767681
1680006422756699686,16609,1680006422756494733,j2s6s300_link_base,-0.38861605525016785,-0.4503232538700104,-0.07842674851417542,0.47682878375053406,0.8780178427696228,-0.03415127098560333,0.023507002741098404
1680006422856619372,16610,1680006422856491034,j2s6s300_link_base,-0.38782551884651184,-0.4509463906288147,-0.0799560546875,0.47611507773399353,0.8784000873565674,-0.03439924493432045,0.02333039790391922
1680006422956540078,16611,1680006422956475384,j2s6s300_link_base,-0.38797104358673096,-0.45208778977394104,-0.08070975542068481,0.4755990505218506,0.8786292672157288,-0.03605298325419426,0.02272224985063076
1680006423056625448,16612,1680006423056470550,j2s6s300_link_base,-0.3882885277271271,-0.4533478915691376,-0.08106544613838196,0.4751001298427582,0.8788485527038574,-0.03756289929151535,0.02222665771842003
1680006423156560213,16613,1680006423156459898,j2s6s300_link_base,-0.38868069648742676,-0.4543040096759796,-0.08084860444068909,0.4747927188873291,0.8789761066436768,-0.038629405200481415,0.021924111992120743
1680006423256681270,16614,1680006423256492298,j2s6s300_link_base,-0.3889770805835724,-0.45464152097702026,-0.08080846071243286,0.474765807390213,0.8789744973182678,-0.03906215354800224,0.021802889183163643
1680006423356631245,16615,1680006423356487783,j2s6s300_link_base,-0.3890294134616852,-0.4548109769821167,-0.0808754414319992,0.4747040867805481,0.8790010809898376,-0.03924468532204628,0.02174520306289196
1680006423456625393,16616,1680006423456492714,j2s6s300_link_base,-0.3890954852104187,-0.4551136791706085,-0.08080050349235535,0.4745769202709198,0.8790584802627563,-0.03954131156206131,0.02166343666613102
1680006423556560688,16617,1680006423556425361,j2s6s300_link_base,-0.3891785144805908,-0.4553806483745575,-0.08071394264698029,0.47447729110717773,0.8791011571884155,-0.03983406722545624,0.021580945700407028
1680006423656636763,16618,1680006423656497658,j2s6s300_link_base,-0.38925981521606445,-0.4556015431880951,-0.08062396943569183,0.4744010269641876,0.8791337013244629,-0.040053948760032654,0.021524302661418915
1680006423756705559,16619,1680006423756462962,j2s6s300_link_base,-0.3892872631549835,-0.45565372705459595,-0.08060500025749207,0.4743872284889221,0.8791385293006897,-0.040122054517269135,0.02150440774857998
1680006423856648349,16620,1680006423856478865,j2s6s300_link_base,-0.3893304467201233,-0.45574086904525757,-0.08057887852191925,0.4743631184101105,0.879146933555603,-0.04024370387196541,0.021467281505465508
1680006423956696673,16621,1680006423956450614,j2s6s300_link_base,-0.3893258571624756,-0.45581990480422974,-0.08056640625,0.47431883215904236,0.8791676759719849,-0.04032349959015846,0.021443000063300133
1680006424056619918,16622,1680006424056449417,j2s6s300_link_base,-0.3889651596546173,-0.4561704099178314,-0.08055524528026581,0.4739484190940857,0.8793659210205078,-0.04035229608416557,0.021448815241456032
1680006424156601439,16623,1680006424156450018,j2s6s300_link_base,-0.3877890408039093,-0.457482248544693,-0.08046014606952667,0.4726499915122986,0.8800548911094666,-0.04056612774729729,0.02144107222557068
1680006424256650330,16624,1680006424256441171,j2s6s300_link_base,-0.3869815766811371,-0.4598824083805084,-0.07995505630970001,0.47096455097198486,0.8809018731117249,-0.041924942284822464,0.021130219101905823
1680006424356719012,16625,1680006424356456919,j2s6s300_link_base,-0.3867979645729065,-0.46242108941078186,-0.07916589081287384,0.46952855587005615,0.8815927505493164,-0.04367142543196678,0.0207366943359375
1680006424456581521,16626,1680006424456463648,j2s6s300_link_base,-0.386369913816452,-0.46447455883026123,-0.07859925925731659,0.4682275056838989,0.8822283148765564,-0.04491047561168671,0.020473817363381386
1680006424556629419,16627,1680006424556488508,j2s6s300_link_base,-0.38533517718315125,-0.4667229950428009,-0.07813394069671631,0.46651652455329895,0.8830862045288086,-0.04592909663915634,0.020287729799747467
1680006424656651108,16628,1680006424656495063,j2s6s300_link_base,-0.38389530777931213,-0.4697568416595459,-0.07750137150287628,0.46419018507003784,0.8842456340789795,-0.047274500131607056,0.020054452121257782
1680006424756702284,16629,1680006424756465323,j2s6s300_link_base,-0.38344132900238037,-0.4732280969619751,-0.07642781734466553,0.4621511697769165,0.8851972222328186,-0.049590084701776505,0.01956969127058983
1680006424856603960,16630,1680006424856461138,j2s6s300_link_base,-0.3828350603580475,-0.47819170355796814,-0.07483658194541931,0.4592738151550293,0.8865150213241577,-0.052932847291231155,0.018889345228672028
1680006424956604048,16631,1680006424956461233,j2s6s300_link_base,-0.3795832693576813,-0.4847792983055115,-0.07355736196041107,0.4542243182659149,0.8889428973197937,-0.055856719613075256,0.01845746859908104
1680006425056652178,16632,1680006425056487703,j2s6s300_link_base,-0.37577494978904724,-0.4904686510562897,-0.07272481918334961,0.4493638277053833,0.8912850618362427,-0.0578780397772789,0.018252763897180557
1680006425156611609,16633,1680006425156491249,j2s6s300_link_base,-0.37265846133232117,-0.4952199459075928,-0.07201018929481506,0.44534945487976074,0.8931591510772705,-0.06008439511060715,0.017905931919813156
1680006425256632797,16634,1680006425256493517,j2s6s300_link_base,-0.367050439119339,-0.5011967420578003,-0.07146894931793213,0.4394167959690094,0.8959808349609375,-0.06175043433904648,0.01783864200115204
1680006425356625839,16635,1680006425356488139,j2s6s300_link_base,-0.3636229634284973,-0.5080907940864563,-0.07070623338222504,0.4342188835144043,0.8981301188468933,-0.06740140914916992,0.016530681401491165
1680006425456657488,16636,1680006425456493228,j2s6s300_link_base,-0.36206063628196716,-0.5150661468505859,-0.06957373023033142,0.4300086796283722,0.8995887041091919,-0.07494600862264633,0.014687886461615562
1680006425556579795,16637,1680006425556452671,j2s6s300_link_base,-0.3595261871814728,-0.5215944051742554,-0.06840132176876068,0.42552176117897034,0.9012452960014343,-0.08065850287675858,0.013503320515155792
1680006425656649795,16638,1680006425656490049,j2s6s300_link_base,-0.35400426387786865,-0.5289850234985352,-0.06735056638717651,0.419050008058548,0.9039062857627869,-0.08474063128232956,0.013019545003771782
1680006425756693649,16639,1680006425756456143,j2s6s300_link_base,-0.3519408106803894,-0.5386582016944885,-0.06509685516357422,0.4134126305580139,0.9055160880088806,-0.09492751955986023,0.01092611439526081
1680006425856620493,16640,1680006425856494117,j2s6s300_link_base,-0.35136500000953674,-0.5481005311012268,-0.0624835342168808,0.40872976183891296,0.9064050316810608,-0.10628645122051239,0.008544117212295532
1680006425956648458,16641,1680006425956487113,j2s6s300_link_base,-0.34735971689224243,-0.5563544034957886,-0.060693979263305664,0.4028184711933136,0.9081969261169434,-0.11339990049600601,0.007487747818231583
1680006426056666417,16642,1680006426056493043,j2s6s300_link_base,-0.3393748104572296,-0.5649549961090088,-0.05948817729949951,0.3946667015552521,0.9111822247505188,-0.118026964366436,0.007399991154670715
1680006426156608501,16643,1680006426156506886,j2s6s300_link_base,-0.3327150046825409,-0.572555661201477,-0.05841132998466492,0.3876971900463104,0.9135162830352783,-0.12299706041812897,0.007118284702301025
1680006426256647914,16644,1680006426256492519,j2s6s300_link_base,-0.3278671205043793,-0.5777233839035034,-0.057693466544151306,0.3827988803386688,0.9151296019554138,-0.12630854547023773,0.00700179859995842
1680006426356622216,16645,1680006426356495394,j2s6s300_link_base,-0.3172757923603058,-0.5853767991065979,-0.057167068123817444,0.3736777901649475,0.9185371994972229,-0.12882260978221893,0.007674276828765869
1680006426456619102,16646,1680006426456491823,j2s6s300_link_base,-0.30455631017684937,-0.5931793451309204,-0.05712248384952545,0.3632832467556,0.922473132610321,-0.13035255670547485,0.008763760328292847
1680006426556608070,16647,1680006426556462257,j2s6s300_link_base,-0.2944231927394867,-0.5984892249107361,-0.057169556617736816,0.3553377389907837,0.9255136847496033,-0.13062697649002075,0.009803034365177155
1680006426656656887,16648,1680006426656495593,j2s6s300_link_base,-0.28709959983825684,-0.6020142436027527,-0.05724009871482849,0.3496951460838318,0.9276638031005859,-0.13054026663303375,0.010599277913570404
1680006426756625824,16649,1680006426756496895,j2s6s300_link_base,-0.2768356204032898,-0.606698215007782,-0.05744768679141998,0.3418451249599457,0.930604100227356,-0.130309596657753,0.011714208871126175
1680006426856657964,16650,1680006426856493395,j2s6s300_link_base,-0.2668255865573883,-0.6110221743583679,-0.05773043632507324,0.33424118161201477,0.9333886504173279,-0.1300176978111267,0.012796280905604362
1680006426956595705,16651,1680006426956453256,j2s6s300_link_base,-0.258204847574234,-0.6147130131721497,-0.05774693191051483,0.3276683986186981,0.935716450214386,-0.1299239844083786,0.013708679005503654
1680006427056657344,16652,1680006427056495532,j2s6s300_link_base,-0.2431928962469101,-0.6207685470581055,-0.057823896408081055,0.3162393569946289,0.9396478533744812,-0.1296987384557724,0.015257349237799644
1680006427156653121,16653,1680006427156490881,j2s6s300_link_base,-0.22825782001018524,-0.6259194016456604,-0.05875536799430847,0.3050138056278229,0.9434460401535034,-0.12882259488105774,0.016762102022767067
1680006427256626025,16654,1680006427256496014,j2s6s300_link_base,-0.21696972846984863,-0.6285172700881958,-0.061281636357307434,0.2969760298728943,0.9462636113166809,-0.12675665318965912,0.017975419759750366
1680006427356624175,16655,1680006427356493308,j2s6s300_link_base,-0.20750318467617035,-0.6303210258483887,-0.06369435787200928,0.29031288623809814,0.9485750198364258,-0.12475371360778809,0.018983587622642517
1680006427456625778,16656,1680006427456464198,j2s6s300_link_base,-0.19848650693893433,-0.6319514513015747,-0.06554003059864044,0.2839314341545105,0.9507116079330444,-0.12302009761333466,0.01990998163819313
1680006427556613381,16657,1680006427556464599,j2s6s300_link_base,-0.18924938142299652,-0.6332432627677917,-0.06684522330760956,0.2774418890476227,0.9528362154960632,-0.12122375518083572,0.02083037607371807
1680006427656627132,16658,1680006427656463497,j2s6s300_link_base,-0.1783623993396759,-0.6350516676902771,-0.06779247522354126,0.26963579654693604,0.9552491903305054,-0.11965344101190567,0.021877894178032875
1680006427756698516,16659,1680006427756457743,j2s6s300_link_base,-0.16572999954223633,-0.6374451518058777,-0.0684768557548523,0.26037314534187317,0.9579458236694336,-0.11838505417108536,0.02303604781627655
1680006427856584599,16660,1680006427856463907,j2s6s300_link_base,-0.15601904690265656,-0.6392620205879211,-0.06885461509227753,0.2532201111316681,0.9599395990371704,-0.11757320165634155,0.023917417973279953
1680006427956642920,16661,1680006427956463152,j2s6s300_link_base,-0.14564186334609985,-0.6407296061515808,-0.06943309307098389,0.24566267430782318,0.9620214700698853,-0.11639165133237839,0.02485021762549877
1680006428056630403,16662,1680006428056464400,j2s6s300_link_base,-0.13393139839172363,-0.6399598121643066,-0.07126671075820923,0.2376343011856079,0.9644315242767334,-0.11284554749727249,0.0258390624076128
1680006428156629300,16663,1680006428156496213,j2s6s300_link_base,-0.12357017397880554,-0.6384488940238953,-0.07319414615631104,0.2306073158979416,0.9665487408638,-0.10905702412128448,0.026651063933968544
1680006428256657902,16664,1680006428256497218,j2s6s300_link_base,-0.11207365989685059,-0.6382834911346436,-0.07440610229969025,0.2222992181777954,0.9687492847442627,-0.106541208922863,0.027509288862347603
1680006428356610093,16665,1680006428356496276,j2s6s300_link_base,-0.10135673731565475,-0.6389398574829102,-0.07500369846820831,0.21435795724391937,0.970661997795105,-0.10518062859773636,0.028338907286524773
1680006428456659863,16666,1680006428456501591,j2s6s300_link_base,-0.09378459304571152,-0.6395053863525391,-0.07531420886516571,0.20870615541934967,0.9719566702842712,-0.1044280081987381,0.02892860397696495
1680006428556650717,16667,1680006428556486368,j2s6s300_link_base,-0.08331401646137238,-0.6407755017280579,-0.07542458176612854,0.20068633556365967,0.9736596941947937,-0.1040627583861351,0.029712509363889694
1680006428656674119,16668,1680006428656502444,j2s6s300_link_base,-0.07246464490890503,-0.642047643661499,-0.07548061013221741,0.19243793189525604,0.9753190875053406,-0.10385570675134659,0.030569002032279968
1680006428756722061,16669,1680006428756489559,j2s6s300_link_base,-0.0633464902639389,-0.6429005265235901,-0.07555121183395386,0.18551072478294373,0.9766690135002136,-0.10356035083532333,0.031283531337976456
1680006428856623528,16670,1680006428856496342,j2s6s300_link_base,-0.05347065627574921,-0.6437584757804871,-0.07557667791843414,0.17794770002365112,0.9780791997909546,-0.10329258441925049,0.032036229968070984
1680006428956659404,16671,1680006428956499963,j2s6s300_link_base,-0.04257940128445625,-0.6445395946502686,-0.07559674978256226,0.16966095566749573,0.9795533418655396,-0.10299631953239441,0.0328960157930851
1680006429056661834,16672,1680006429056492909,j2s6s300_link_base,-0.02946990542113781,-0.6452691555023193,-0.07560399174690247,0.15953713655471802,0.9812540411949158,-0.10267777740955353,0.03385084867477417
1680006429156658700,16673,1680006429156494592,j2s6s300_link_base,-0.018582886084914207,-0.6456513404846191,-0.07561784982681274,0.15114444494247437,0.9825852513313293,-0.10237591713666916,0.03464997559785843
1680006429256644870,16674,1680006429256490687,j2s6s300_link_base,-0.008349167183041573,-0.6455914378166199,-0.07576385140419006,0.14330346882343292,0.98378986120224,-0.10182759165763855,0.03539327532052994
1680006429356655275,16675,1680006429356491781,j2s6s300_link_base,0.0007880385965108871,-0.6455114483833313,-0.07583467662334442,0.13634368777275085,0.9847928881645203,-0.1014411598443985,0.03609662503004074
1680006429456658886,16676,1680006429456501846,j2s6s300_link_base,0.00723433680832386,-0.6450685858726501,-0.07604746520519257,0.13144710659980774,0.9855015873908997,-0.10085493326187134,0.0365573912858963
1680006429556628342,16677,1680006429556498480,j2s6s300_link_base,0.017639966681599617,-0.6440927982330322,-0.07645733654499054,0.12349969148635864,0.9866119027137756,-0.09978032857179642,0.03726283088326454
1680006429656647576,16678,1680006429656489791,j2s6s300_link_base,0.02882317267358303,-0.6415047645568848,-0.0776035487651825,0.11498141288757324,0.9878695607185364,-0.09726566821336746,0.03784773498773575
1680006429756734564,16679,1680006429756485541,j2s6s300_link_base,0.03706151992082596,-0.6373762488365173,-0.07950937747955322,0.10869927704334259,0.9889548420906067,-0.09332658350467682,0.03798634931445122
1680006429856662197,16680,1680006429856498768,j2s6s300_link_base,0.04283673316240311,-0.6318754553794861,-0.08209207653999329,0.10427330434322357,0.9899243712425232,-0.08805620670318604,0.03772298991680145
1680006429956630387,16681,1680006429956461751,j2s6s300_link_base,0.04652760177850723,-0.6256237030029297,-0.08501976728439331,0.10141079127788544,0.990759551525116,-0.08203651010990143,0.03716762363910675
1680006430056686445,16682,1680006430056500856,j2s6s300_link_base,0.053724706172943115,-0.6199358105659485,-0.08742482960224152,0.09567153453826904,0.9917573928833008,-0.07681854814291,0.0369209460914135
1680006430156608911,16683,1680006430156437240,j2s6s300_link_base,0.06467991322278976,-0.615326464176178,-0.0890733152627945,0.08674967288970947,0.9928593635559082,-0.07302529364824295,0.03704329580068588
1680006430256620151,16684,1680006430256488912,j2s6s300_link_base,0.07425234466791153,-0.612102210521698,-0.09004972875118256,0.07886230945587158,0.9936793446540833,-0.07066211849451065,0.03726603463292122
1680006430356632508,16685,1680006430356491945,j2s6s300_link_base,0.08140849322080612,-0.6100245714187622,-0.09057661890983582,0.07263649255037308,0.9942405819892883,-0.06933056563138962,0.037456709891557693
1680006430456614186,16686,1680006430456458635,j2s6s300_link_base,0.08671729266643524,-0.6085444688796997,-0.09091226756572723,0.06788133829832077,0.9946311116218567,-0.06846115738153458,0.03760527819395065
1680006430556646799,16687,1680006430556449767,j2s6s300_link_base,0.09008778631687164,-0.6074337959289551,-0.09119114279747009,0.06477902084589005,0.9948828220367432,-0.06777085363864899,0.037670526653528214
1680006430656675843,16688,1680006430656458569,j2s6s300_link_base,0.09560473263263702,-0.6046348810195923,-0.0920567661523819,0.059345975518226624,0.9953612685203552,-0.06576061993837357,0.03754480183124542
1680006430756713524,16689,1680006430756451812,j2s6s300_link_base,0.10211773216724396,-0.6004384160041809,-0.09342342615127563,0.04691549763083458,0.9962400794029236,-0.06283636391162872,0.03682554140686989
1680006430856615801,16690,1680006430856450486,j2s6s300_link_base,0.10710190236568451,-0.5968499183654785,-0.09458960592746735,0.03355356305837631,0.996956467628479,-0.06042478233575821,0.03606715798377991
1680006430956623004,16691,1680006430956455431,j2s6s300_link_base,0.11221827566623688,-0.593896746635437,-0.09544159471988678,0.021054169163107872,0.9974251389503479,-0.05865011364221573,0.03549674153327942
1680006431056611810,16692,1680006431056462563,j2s6s300_link_base,0.1165791004896164,-0.5907633900642395,-0.09639886021614075,0.012292521074414253,0.9977096319198608,-0.05651896074414253,0.03507213667035103
1680006431156591578,16693,1680006431156459519,j2s6s300_link_base,0.11960501968860626,-0.5869786739349365,-0.09770557284355164,0.006642809137701988,0.9979459643363953,-0.05352076143026352,0.03457130119204521
1680006431256601684,16694,1680006431256506689,j2s6s300_link_base,0.12223190069198608,-0.581987738609314,-0.0994918942451477,0.0012906205374747515,0.9982064962387085,-0.04934520274400711,0.03386902064085007
1680006431356618420,16695,1680006431356483343,j2s6s300_link_base,0.12382465600967407,-0.5763766169548035,-0.10155448317527771,0.005930639803409576,-0.9984489679336548,0.04452917352318764,-0.032887477427721024
1680006431456596057,16696,1680006431456467017,j2s6s300_link_base,0.12517419457435608,-0.5721169114112854,-0.10306200385093689,0.017853206023573875,-0.9984847903251648,0.041116535663604736,-0.031917862594127655
1680006431556564067,16697,1680006431556469246,j2s6s300_link_base,0.1284942626953125,-0.568821907043457,-0.10401245951652527,0.03545234352350235,-0.9981217980384827,0.039093613624572754,-0.031108135357499123
1680006431656568463,16698,1680006431656467704,j2s6s300_link_base,0.13391606509685516,-0.5655745267868042,-0.10474652051925659,0.0515044629573822,-0.9975014328956604,0.037430308759212494,-0.030612902715802193
1680006431756595673,16699,1680006431756461191,j2s6s300_link_base,0.1376984566450119,-0.5613899827003479,-0.10593143105506897,0.062433816492557526,-0.9969990253448486,0.034505702555179596,-0.03007221221923828
1680006431856566668,16700,1680006431856468442,j2s6s300_link_base,0.13969826698303223,-0.557083785533905,-0.10727852582931519,0.06833970546722412,-0.9967413544654846,0.031033482402563095,-0.02955133281648159
1680006431956671328,16701,1680006431956471584,j2s6s300_link_base,0.1413148045539856,-0.5537223815917969,-0.1082955002784729,0.07208294421434402,-0.9965692162513733,0.028323763981461525,-0.02918151393532753
1680006432056657709,16702,1680006432056466917,j2s6s300_link_base,0.14323635399341583,-0.5512447357177734,-0.10896950960159302,0.07559981942176819,-0.9963657855987549,0.02649281732738018,-0.028947705402970314
1680006432156622481,16703,1680006432156462843,j2s6s300_link_base,0.14620168507099152,-0.5493426322937012,-0.10933998227119446,0.07937722653150558,-0.9961027503013611,0.025413841009140015,-0.02885657548904419
1680006432256597098,16704,1680006432256468090,j2s6s300_link_base,0.1497797966003418,-0.547835648059845,-0.10952040553092957,0.0833858847618103,-0.9957897067070007,0.02484358474612236,-0.028854187577962875
1680006432356621671,16705,1680006432356463026,j2s6s300_link_base,0.15383979678153992,-0.5464410185813904,-0.10960942506790161,0.08900890499353409,-0.9953098893165588,0.024547342211008072,-0.028861770406365395
1680006432456635421,16706,1680006432456467555,j2s6s300_link_base,0.15782126784324646,-0.5450378060340881,-0.109698086977005,0.09737084060907364,-0.9945337176322937,0.024335257709026337,-0.028801031410694122
1680006432556543083,16707,1680006432556457474,j2s6s300_link_base,0.16016645729541779,-0.5441436171531677,-0.10976853966712952,0.10380584746599197,-0.9938879609107971,0.02420540526509285,-0.028723252937197685
1680006432656627721,16708,1680006432656500514,j2s6s300_link_base,0.1612713634967804,-0.5436185002326965,-0.10983192920684814,0.1081252247095108,-0.9934324622154236,0.02409081906080246,-0.02864404022693634
1680006432756655558,16709,1680006432756495216,j2s6s300_link_base,0.16236793994903564,-0.5432325005531311,-0.1098473072052002,0.11135775595903397,-0.9930768013000488,0.024073120206594467,-0.028607532382011414
1680006432856670278,16710,1680006432856502001,j2s6s300_link_base,0.1632782518863678,-0.5429542660713196,-0.10984081029891968,0.11333571374416351,-0.9928531050682068,0.02407965436577797,-0.028600236400961876
1680006432956664838,16711,1680006432956499806,j2s6s300_link_base,0.16545838117599487,-0.5423053503036499,-0.10981863737106323,0.11595147103071213,-0.9925504922866821,0.02405620738863945,-0.02863560989499092
1680006433056627609,16712,1680006433056500272,j2s6s300_link_base,0.16885238885879517,-0.5412617921829224,-0.10981139540672302,0.11931242793798447,-0.9921519756317139,0.02397870644927025,-0.02870604582130909
1680006433156630771,16713,1680006433156503618,j2s6s300_link_base,0.17179863154888153,-0.5403415560722351,-0.10980579257011414,0.12228333204984665,-0.9917899966239929,0.023917583748698235,-0.028766367584466934
1680006433256629776,16714,1680006433256501159,j2s6s300_link_base,0.1737971305847168,-0.5397149920463562,-0.10979366302490234,0.1241631954908371,-0.9915558695793152,0.02388036623597145,-0.0288125891238451
1680006433356669988,16715,1680006433356502724,j2s6s300_link_base,0.1751658022403717,-0.5392814874649048,-0.10978767275810242,0.12542758882045746,-0.991396427154541,0.02385590597987175,-0.028844507411122322
1680006433456598932,16716,1680006433456469349,j2s6s300_link_base,0.1757243275642395,-0.5391151309013367,-0.1097671389579773,0.1259414404630661,-0.9913306832313538,0.02386023849248886,-0.028859440237283707
1680006433556606980,16717,1680006433556475550,j2s6s300_link_base,0.17605043947696686,-0.5390204787254333,-0.10974860191345215,0.12624113261699677,-0.9912921786308289,0.023866601288318634,-0.028868766501545906
1680006433656642298,16718,1680006433656482589,j2s6s300_link_base,0.17630115151405334,-0.538938045501709,-0.10974732041358948,0.12647318840026855,-0.9912625551223755,0.02386000007390976,-0.02887427806854248
1680006433756617599,16719,1680006433756458456,j2s6s300_link_base,0.17654253542423248,-0.538855254650116,-0.10974857211112976,0.12669578194618225,-0.9912342429161072,0.023849979043006897,-0.028879765421152115
1680006433856609508,16720,1680006433856473864,j2s6s300_link_base,0.17672130465507507,-0.5389320254325867,-0.10955917835235596,0.12683404982089996,-0.9912118315696716,0.02401137351989746,-0.028907684609293938
1680006433956626128,16721,1680006433956464197,j2s6s300_link_base,0.17691731452941895,-0.5393320322036743,-0.1089094877243042,0.1269206702709198,-0.9911844730377197,0.024576354771852493,-0.028993763029575348
1680006434056541768,16722,1680006434056430174,j2s6s300_link_base,0.17697133123874664,-0.5394599437713623,-0.10870397090911865,0.12694057822227478,-0.9911766052246094,0.0247543565928936,-0.02902090921998024
1680006434156609143,16723,1680006434156467418,j2s6s300_link_base,0.1770354062318802,-0.5396776795387268,-0.10836383700370789,0.1269499957561493,-0.9911667704582214,0.02504727430641651,-0.029065005481243134
1680006434256552914,16724,1680006434256461344,j2s6s300_link_base,0.17731326818466187,-0.5406519174575806,-0.10686063766479492,0.12698034942150116,-0.9911231994628906,0.026354191824793816,-0.02926132082939148
1680006434356547140,16725,1680006434356455725,j2s6s300_link_base,0.178122878074646,-0.5435008406639099,-0.10240328311920166,0.12706328928470612,-0.9909853339195251,0.03020774945616722,-0.029839985072612762
1680006434456575684,16726,1680006434456476124,j2s6s300_link_base,0.17912261188030243,-0.5469220876693726,-0.09692114591598511,0.1271844059228897,-0.9907938241958618,0.034911151975393295,-0.03054671920835972
1680006434556561842,16727,1680006434556468066,j2s6s300_link_base,0.1797943264245987,-0.5492633581161499,-0.09311160445213318,0.12725505232810974,-0.9906495213508606,0.038164228200912476,-0.031034870073199272
1680006434656599925,16728,1680006434656425804,j2s6s300_link_base,0.18021655082702637,-0.5507507920265198,-0.09066960215568542,0.1272970288991928,-0.9905519485473633,0.04024484008550644,-0.031346749514341354
1680006434756599683,16729,1680006434756472640,j2s6s300_link_base,0.18048721551895142,-0.5517042279243469,-0.08908292651176453,0.1273229718208313,-0.990486741065979,0.04158858582377434,-0.03154819458723068
1680006434856650378,16730,1680006434856468887,j2s6s300_link_base,0.18068359792232513,-0.552397608757019,-0.08788245916366577,0.12734170258045197,-0.9904376268386841,0.04257504269480705,-0.03169727697968483
1680006434956631291,16731,1680006434956470117,j2s6s300_link_base,0.18086332082748413,-0.553011417388916,-0.08668041229248047,0.12736448645591736,-0.9903936386108398,0.04341740161180496,-0.031837332993745804
1680006435056627932,16732,1680006435056480682,j2s6s300_link_base,0.1806040108203888,-0.551419734954834,-0.08578673005104065,0.1275164783000946,-0.9905128479003906,0.040231551975011826,-0.03170444443821907
1680006435156599938,16733,1680006435156464964,j2s6s300_link_base,0.18001171946525574,-0.5477844476699829,-0.08429807424545288,0.12785622477531433,-0.990755558013916,0.032741159200668335,-0.03137163817882538
1680006435256598253,16734,1680006435256469817,j2s6s300_link_base,0.1796124428510666,-0.5447534322738647,-0.08132505416870117,0.12824034690856934,-0.9909132719039917,0.02593264728784561,-0.031189287081360817
1680006435356603826,16735,1680006435356474341,j2s6s300_link_base,0.1796731799840927,-0.5439068078994751,-0.07734811305999756,0.1285332441329956,-0.9909405708312988,0.02313126251101494,-0.031319860368967056
1680006435456601730,16736,1680006435456473198,j2s6s300_link_base,0.17979931831359863,-0.5437890887260437,-0.07461756467819214,0.12870308756828308,-0.9909359216690063,0.02217111736536026,-0.03146443888545036
1680006435556568103,16737,1680006435556465175,j2s6s300_link_base,0.17982953786849976,-0.5434862971305847,-0.07278957962989807,0.12882214784622192,-0.9909390211105347,0.021219484508037567,-0.031533919274806976
1680006435656594386,16738,1680006435656467347,j2s6s300_link_base,0.17992956936359406,-0.5435894727706909,-0.07127562165260315,0.1289048194885254,-0.9909287691116333,0.021045949310064316,-0.031634483486413956
1680006435756575821,16739,1680006435756464378,j2s6s300_link_base,0.18024452030658722,-0.5443862676620483,-0.06830276548862457,0.12903203070163727,-0.9908866882324219,0.02182699926197529,-0.03190473094582558
1680006435856563593,16740,1680006435856470193,j2s6s300_link_base,0.18058669567108154,-0.5446695685386658,-0.06282782554626465,0.12934422492980957,-0.9908515810966492,0.02103067748248577,-0.0322614386677742
1680006435956555882,16741,1680006435956465676,j2s6s300_link_base,0.18083275854587555,-0.5444248914718628,-0.05711263418197632,0.12970677018165588,-0.9908301830291748,0.01925194263458252,-0.03257106989622116
1680006436056567348,16742,1680006436056471345,j2s6s300_link_base,0.18097417056560516,-0.544152021408081,-0.053236693143844604,0.12996073067188263,-0.9908158779144287,0.017899958416819572,-0.032769136130809784
1680006436156564303,16743,1680006436156463725,j2s6s300_link_base,0.18110409379005432,-0.5441796183586121,-0.050712376832962036,0.13011236488819122,-0.9907989501953125,0.017443299293518066,-0.032923609018325806
1680006436256600349,16744,1680006436256472077,j2s6s300_link_base,0.18126419186592102,-0.5445321202278137,-0.048837706446647644,0.13020233809947968,-0.9907763004302979,0.017760613933205605,-0.033079273998737335
1680006436356563785,16745,1680006436356472143,j2s6s300_link_base,0.1816984862089157,-0.5459299087524414,-0.04549790918827057,0.13030952215194702,-0.9907101392745972,0.01984773948788643,-0.0334518700838089
1680006436456599561,16746,1680006436456471287,j2s6s300_link_base,0.18242289125919342,-0.5483277440071106,-0.040058642625808716,0.13046954572200775,-0.9905862808227539,0.023563839495182037,-0.03407646343111992
1680006436556591059,16747,1680006436556469500,j2s6s300_link_base,0.18291045725345612,-0.5496443510055542,-0.03510583937168121,0.13067451119422913,-0.9904989004135132,0.025356926023960114,-0.034542687237262726
1680006436656534898,16748,1680006436656438211,j2s6s300_link_base,0.1827801614999771,-0.5483425855636597,-0.03237167000770569,0.13093368709087372,-0.9905343055725098,0.022457078099250793,-0.03455229848623276
1680006436756624088,16749,1680006436756494134,j2s6s300_link_base,0.1825876384973526,-0.5470249652862549,-0.030919089913368225,0.1311170905828476,-0.9905709624290466,0.01971273124217987,-0.03447962552309036
1680006436856590099,16750,1680006436856494696,j2s6s300_link_base,0.1824488341808319,-0.5461908578872681,-0.03036060929298401,0.13121084868907928,-0.9905931353569031,0.018025416880846024,-0.034410759806632996
1680006436956635193,16751,1680006436956464233,j2s6s300_link_base,0.18230484426021576,-0.5454341173171997,-0.03024551272392273,0.13127146661281586,-0.9906138777732849,0.016548510640859604,-0.03432378172874451
1680006437056617139,16752,1680006437056457353,j2s6s300_link_base,0.18220305442810059,-0.5448865294456482,-0.030187949538230896,0.13131655752658844,-0.9906273484230042,0.015484624542295933,-0.034259311854839325
1680006437156667664,16753,1680006437156457369,j2s6s300_link_base,0.18217617273330688,-0.5447483658790588,-0.0301801860332489,0.13132677972316742,-0.9906307458877563,0.015215670689940453,-0.03424255922436714
1680006437256667886,16754,1680006437256459477,j2s6s300_link_base,0.18227119743824005,-0.5446691513061523,-0.030171722173690796,0.13142183423042297,-0.9906195998191833,0.015124192461371422,-0.03424049913883209
1680006437356628078,16755,1680006437356458428,j2s6s300_link_base,0.18252401053905487,-0.5445476770401001,-0.030172884464263916,0.13165771961212158,-0.9905893802642822,0.015049035660922527,-0.03424126282334328
1680006437456661061,16756,1680006437456471974,j2s6s300_link_base,0.18265590071678162,-0.5444774627685547,-0.03017258644104004,0.13178260624408722,-0.9905736446380615,0.014996780082583427,-0.034240830689668655
1680006437556608790,16757,1680006437556476831,j2s6s300_link_base,0.18268050253391266,-0.5444547533988953,-0.030171990394592285,0.13180841505527496,-0.990570604801178,0.014969592913985252,-0.03423956036567688
1680006437656666023,16758,1680006437656499948,j2s6s300_link_base,0.1826900839805603,-0.5444241762161255,-0.03017285466194153,0.1318221390247345,-0.9905696511268616,0.01491951197385788,-0.03423728793859482
1680006437756636606,16759,1680006437756499929,j2s6s300_link_base,0.18268732726573944,-0.5443757176399231,-0.030173733830451965,0.13183127343654633,-0.9905700087547302,0.014829909428954124,-0.03423149511218071
1680006437856595008,16760,1680006437856477264,j2s6s300_link_base,0.18268150091171265,-0.5443282723426819,-0.030174240469932556,0.13183750212192535,-0.9905706644058228,0.014740439131855965,-0.03422567993402481
1680006437956690504,16761,1680006437956471845,j2s6s300_link_base,0.18267908692359924,-0.5442996621131897,-0.030175194144248962,0.131842240691185,-0.9905709028244019,0.014687227085232735,-0.03422219306230545
1680006438056652647,16762,1680006438056507606,j2s6s300_link_base,0.1826784759759903,-0.5442896485328674,-0.030175521969795227,0.13184408843517303,-0.9905710220336914,0.014668650925159454,-0.03422098606824875
1680006438156564332,16763,1680006438156433317,j2s6s300_link_base,0.18267837166786194,-0.5442835688591003,-0.030175700783729553,0.13184534013271332,-0.9905710220336914,0.014657560735940933,-0.034220267087221146
1680006438256600379,16764,1680006438256473603,j2s6s300_link_base,0.18268005549907684,-0.5442793965339661,-0.03017495572566986,0.1318478286266327,-0.9905707836151123,0.014650765806436539,-0.03421993553638458
1680006438356603170,16765,1680006438356475887,j2s6s300_link_base,0.18267953395843506,-0.5442768335342407,-0.03017507493495941,0.13184800744056702,-0.9905709028244019,0.014645807445049286,-0.03421958535909653
1680006438456567205,16766,1680006438456473690,j2s6s300_link_base,0.18268030881881714,-0.5442752242088318,-0.0301751047372818,0.1318489909172058,-0.9905707836151123,0.01464330218732357,-0.03421943634748459
1680006438556564649,16767,1680006438556473869,j2s6s300_link_base,0.18268005549907684,-0.5442739129066467,-0.030175164341926575,0.131849005818367,-0.9905707836151123,0.01464076153934002,-0.034219276160001755
1680006438656621584,16768,1680006438656474277,j2s6s300_link_base,0.18268084526062012,-0.5442723035812378,-0.030175194144248962,0.13185010850429535,-0.9905707240104675,0.014638381078839302,-0.03421911969780922
1680006438756566849,16769,1680006438756470350,j2s6s300_link_base,0.1826808750629425,-0.5442721247673035,-0.030174151062965393,0.1318502128124237,-0.9905707240104675,0.014637915417551994,-0.03421919792890549
1680006438856650393,16770,1680006438856508111,j2s6s300_link_base,0.18268179893493652,-0.5442712306976318,-0.03017418086528778,0.13185112178325653,-0.9905706644058228,0.014636736363172531,-0.03421911969780922
1680006438956653411,16771,1680006438956502531,j2s6s300_link_base,0.18268151581287384,-0.5442699193954468,-0.030174240469932556,0.13185127079486847,-0.9905706644058228,0.014634199440479279,-0.034218933433294296
1680006439056661320,16772,1680006439056513700,j2s6s300_link_base,0.1826813966035843,-0.5442692637443542,-0.030174240469932556,0.13185134530067444,-0.9905706644058228,0.014632990583777428,-0.03421885520219803
1680006439156586927,16773,1680006439156501918,j2s6s300_link_base,0.1826813966035843,-0.5442692637443542,-0.030174240469932556,0.13185134530067444,-0.9905706644058228,0.014632990583777428,-0.03421885520219803
1680006439256599108,16774,1680006439256505718,j2s6s300_link_base,0.18268230557441711,-0.5442682504653931,-0.030174270272254944,0.13185223937034607,-0.9905705451965332,0.014631696045398712,-0.03421880304813385
1680006439356608104,16775,1680006439356507982,j2s6s300_link_base,0.18268230557441711,-0.5442682504653931,-0.030174270272254944,0.13185223937034607,-0.9905705451965332,0.014631696045398712,-0.03421880304813385
1680006439456615654,16776,1680006439456501969,j2s6s300_link_base,0.18268218636512756,-0.5442676544189453,-0.030174270272254944,0.13185231387615204,-0.9905705451965332,0.014630606397986412,-0.03421870991587639
1680006439556581886,16777,1680006439556491620,j2s6s300_link_base,0.18268218636512756,-0.5442676544189453,-0.030174270272254944,0.13185231387615204,-0.9905705451965332,0.014630606397986412,-0.03421870991587639
1680006439656600742,16778,1680006439656503768,j2s6s300_link_base,0.18268243968486786,-0.5442668795585632,-0.03017430007457733,0.1318514347076416,-0.9905706644058228,0.014629222452640533,-0.03421937674283981
1680006439756677866,16779,1680006439756497859,j2s6s300_link_base,0.18268243968486786,-0.5442668795585632,-0.03017430007457733,0.1318514347076416,-0.9905706644058228,0.014629222452640533,-0.03421937674283981
1680006439856572225,16780,1680006439856475982,j2s6s300_link_base,0.18268243968486786,-0.5442668795585632,-0.03017430007457733,0.1318514347076416,-0.9905706644058228,0.014629222452640533,-0.03421937674283981
