%time,field.header.seq,field.header.stamp,field.header.frame_id,field.pose.position.x,field.pose.position.y,field.pose.position.z,field.pose.orientation.x,field.pose.orientation.y,field.pose.orientation.z,field.pose.orientation.w
1680007098160450125,23363,1680007098160238653,j2s6s300_link_base,-0.33476224541664124,-0.40294134616851807,-0.010541826486587524,-0.3398466408252716,0.9390259385108948,0.008973770774900913,0.05151841789484024
1680007098257335952,23364,1680007098257165637,j2s6s300_link_base,-0.33476224541664124,-0.40294134616851807,-0.010541826486587524,-0.3398466408252716,0.9390259385108948,0.008973770774900913,0.05151841789484024
1680007098357311225,23365,1680007098357140224,j2s6s300_link_base,-0.3347617983818054,-0.40294086933135986,-0.010541766881942749,-0.339846670627594,0.9390258193016052,0.008974265307188034,0.05151946842670441
1680007098457293381,23366,1680007098457163913,j2s6s300_link_base,-0.3347617983818054,-0.40294086933135986,-0.010541766881942749,-0.3398475646972656,0.9390254616737366,0.008974215015769005,0.051519475877285004
1680007098557310971,23367,1680007098557171427,j2s6s300_link_base,-0.3347617983818054,-0.40294086933135986,-0.010541766881942749,-0.3398475646972656,0.9390254616737366,0.008974215015769005,0.051519475877285004
1680007098657260004,23368,1680007098657101584,j2s6s300_link_base,-0.3347617983818054,-0.40294086933135986,-0.010541766881942749,-0.3398475646972656,0.9390254616737366,0.008974215015769005,0.051519475877285004
1680007098757294317,23369,1680007098757166753,j2s6s300_link_base,-0.3347617983818054,-0.40294086933135986,-0.010541766881942749,-0.3398475646972656,0.9390254616737366,0.008974215015769005,0.051519475877285004
1680007098857325092,23370,1680007098857165568,j2s6s300_link_base,-0.334761381149292,-0.40294042229652405,-0.010541707277297974,-0.339847594499588,0.9390254020690918,0.00897481944411993,0.05152059346437454
1680007098957275671,23371,1680007098957171009,j2s6s300_link_base,-0.334761381149292,-0.40294042229652405,-0.010541707277297974,-0.339847594499588,0.9390254020690918,0.00897481944411993,0.05152059346437454
1680007099057297274,23372,1680007099057170442,j2s6s300_link_base,-0.334761381149292,-0.40294042229652405,-0.010541707277297974,-0.339847594499588,0.9390254020690918,0.00897481944411993,0.05152059346437454
1680007099157313839,23373,1680007099157159748,j2s6s300_link_base,-0.334761381149292,-0.40294042229652405,-0.010541707277297974,-0.339847594499588,0.9390254020690918,0.00897481944411993,0.05152059346437454
1680007099257258217,23374,1680007099257132556,j2s6s300_link_base,-0.334761381149292,-0.40294042229652405,-0.010541707277297974,-0.339847594499588,0.9390254020690918,0.00897481944411993,0.05152059346437454
1680007099357283441,23375,1680007099357131819,j2s6s300_link_base,-0.33476191759109497,-0.4029410481452942,-0.010541379451751709,-0.3398476541042328,0.9390254616737366,0.008974459953606129,0.051519837230443954
1680007099457330587,23376,1680007099457171526,j2s6s300_link_base,-0.33476191759109497,-0.4029410481452942,-0.010541379451751709,-0.3398476541042328,0.9390254616737366,0.008974459953606129,0.051519837230443954
1680007099557258564,23377,1680007099557168185,j2s6s300_link_base,-0.33476191759109497,-0.4029410481452942,-0.010541379451751709,-0.33984899520874023,0.9390249252319336,0.008974384516477585,0.05151985213160515
1680007099657326057,23378,1680007099657165714,j2s6s300_link_base,-0.33476191759109497,-0.4029410481452942,-0.010541379451751709,-0.33984899520874023,0.9390249252319336,0.008974384516477585,0.05151985213160515
1680007099757285300,23379,1680007099757171536,j2s6s300_link_base,-0.33476191759109497,-0.4029410481452942,-0.010541379451751709,-0.33984899520874023,0.9390249252319336,0.008974384516477585,0.05151985213160515
1680007099857287286,23380,1680007099857123672,j2s6s300_link_base,-0.33476191759109497,-0.4029410481452942,-0.010541379451751709,-0.33984899520874023,0.9390249252319336,0.008974384516477585,0.05151985213160515
1680007099957292542,23381,1680007099957167566,j2s6s300_link_base,-0.33476191759109497,-0.4029410481452942,-0.010541379451751709,-0.33984899520874023,0.9390249252319336,0.008974384516477585,0.05151985213160515
1680007100057233198,23382,1680007100057126005,j2s6s300_link_base,-0.33476191759109497,-0.4029410481452942,-0.010541379451751709,-0.33984899520874023,0.9390249252319336,0.008974384516477585,0.05151985213160515
1680007100157271890,23383,1680007100157131614,j2s6s300_link_base,-0.33476144075393677,-0.4029405415058136,-0.010541319847106934,-0.33984890580177307,0.9390248656272888,0.008974974043667316,0.05152101814746857
1680007100257346709,23384,1680007100257170790,j2s6s300_link_base,-0.33476144075393677,-0.4029405415058136,-0.010541319847106934,-0.33984890580177307,0.9390248656272888,0.008974974043667316,0.05152101814746857
1680007100357261076,23385,1680007100357118369,j2s6s300_link_base,-0.33476144075393677,-0.4029405415058136,-0.010541319847106934,-0.33984890580177307,0.9390248656272888,0.008974974043667316,0.05152101814746857
1680007100457347873,23386,1680007100457125526,j2s6s300_link_base,-0.33476144075393677,-0.4029405415058136,-0.010541319847106934,-0.33984890580177307,0.9390248656272888,0.008974974043667316,0.05152101814746857
1680007100557311604,23387,1680007100557119741,j2s6s300_link_base,-0.33476144075393677,-0.4029405415058136,-0.010541319847106934,-0.33984890580177307,0.9390248656272888,0.008974974043667316,0.05152101814746857
1680007100657267928,23388,1680007100657121443,j2s6s300_link_base,-0.33476144075393677,-0.4029405415058136,-0.010541319847106934,-0.33984890580177307,0.9390248656272888,0.008974974043667316,0.05152101814746857
1680007100757288571,23389,1680007100757121307,j2s6s300_link_base,-0.3348693549633026,-0.4029039740562439,-0.010529965162277222,-0.3397561311721802,0.939060628414154,0.008951110765337944,0.051487334072589874
1680007100857272218,23390,1680007100857122351,j2s6s300_link_base,-0.33487018942832947,-0.40289998054504395,-0.010539531707763672,-0.33975300192832947,0.9390613436698914,0.008954220451414585,0.05149342864751816
1680007100957251795,23391,1680007100957108148,j2s6s300_link_base,-0.33491742610931396,-0.40286970138549805,-0.010549455881118774,-0.33970338106155396,0.9390793442726135,0.008951137773692608,0.05149327218532562
1680007101057322012,23392,1680007101057162757,j2s6s300_link_base,-0.3351307511329651,-0.402633398771286,-0.010637611150741577,-0.3394180238246918,0.9391781687736511,0.008975032716989517,0.05156746506690979
1680007101157270927,23393,1680007101157171046,j2s6s300_link_base,-0.3354853689670563,-0.4022226929664612,-0.010834932327270508,-0.3389320373535156,0.939344584941864,0.009030716493725777,0.05172274634242058
1680007101257246262,23394,1680007101257127532,j2s6s300_link_base,-0.3359259366989136,-0.40143197774887085,-0.011536777019500732,-0.3381459414958954,0.9395948648452759,0.009283466264605522,0.0522756390273571
1680007101357261843,23395,1680007101357107295,j2s6s300_link_base,-0.33880168199539185,-0.3977300226688385,-0.013646617531776428,-0.3339311480522156,0.940999448299408,0.009925367310643196,0.05395757034420967
1680007101457305885,23396,1680007101457159990,j2s6s300_link_base,-0.34154313802719116,-0.3935425579547882,-0.016610026359558105,-0.32945942878723145,0.9424254298210144,0.010893424972891808,0.05632181465625763
1680007101557304787,23397,1680007101557169993,j2s6s300_link_base,-0.34419333934783936,-0.39284753799438477,-0.01792539656162262,-0.32728782296180725,0.9432027339935303,0.010591477155685425,0.05602777749300003
1680007101657326660,23398,1680007101657161420,j2s6s300_link_base,-0.3491498529911041,-0.3958703875541687,-0.017228230834007263,-0.3260685205459595,0.9438973665237427,0.00822521187365055,0.05166616290807724
1680007101757300355,23399,1680007101757165814,j2s6s300_link_base,-0.35440289974212646,-0.40015196800231934,-0.016182124614715576,-0.32547351717948914,0.9444010853767395,0.005386124365031719,0.046309713274240494
1680007101857272952,23400,1680007101857130592,j2s6s300_link_base,-0.3563668131828308,-0.4021632671356201,-0.01870676875114441,-0.3254266381263733,0.9444677233695984,0.004840416833758354,0.04533105716109276
1680007101957270961,23401,1680007101957175294,j2s6s300_link_base,-0.35394829511642456,-0.4026287794113159,-0.02577589452266693,-0.3270966410636902,0.9436843395233154,0.006929095834493637,0.04919024556875229
1680007102057322341,23402,1680007102057161328,j2s6s300_link_base,-0.35008466243743896,-0.40379244089126587,-0.03310641646385193,-0.3301238715648651,0.9423825740814209,0.00929533876478672,0.053356580436229706
1680007102157257044,23403,1680007102157136023,j2s6s300_link_base,-0.3505187928676605,-0.4077920913696289,-0.03653609752655029,-0.33227285742759705,0.941696047782898,0.008816174231469631,0.05220724642276764
1680007102257287933,23404,1680007102257137074,j2s6s300_link_base,-0.3529731333255768,-0.41275012493133545,-0.037613436579704285,-0.33374330401420593,0.9413843750953674,0.006975676864385605,0.04860134795308113
1680007102357330593,23405,1680007102357169943,j2s6s300_link_base,-0.3547901511192322,-0.41655972599983215,-0.03798389434814453,-0.3349023759365082,0.9411287307739258,0.005477737635374069,0.04568449780344963
1680007102457336842,23406,1680007102457170999,j2s6s300_link_base,-0.35634011030197144,-0.4187668263912201,-0.03807879984378815,-0.3352605998516083,0.9411004781723022,0.004438336007297039,0.043708134442567825
1680007102557294496,23407,1680007102557136294,j2s6s300_link_base,-0.3567237854003906,-0.4192184507846832,-0.03961262106895447,-0.3352724611759186,0.941089928150177,0.004507487639784813,0.043838292360305786
1680007102657299183,23408,1680007102657134673,j2s6s300_link_base,-0.3563590347766876,-0.4189581871032715,-0.042753398418426514,-0.33529841899871826,0.941006064414978,0.005300474353134632,0.04532533884048462
1680007102757284610,23409,1680007102757139320,j2s6s300_link_base,-0.35502269864082336,-0.41793888807296753,-0.04643261432647705,-0.3354635536670685,0.9408107995986938,0.006684105843305588,0.0479007288813591
1680007102857295117,23410,1680007102857138166,j2s6s300_link_base,-0.3546242415904999,-0.4174984395503998,-0.04817405343055725,-0.33542290329933167,0.9407657384872437,0.007257003337144852,0.04897620156407356
1680007102957268091,23411,1680007102957137252,j2s6s300_link_base,-0.3546196520328522,-0.4175093472003937,-0.04863569140434265,-0.33542633056640625,0.9407553672790527,0.0073438044637441635,0.04913802817463875
1680007103057297810,23412,1680007103057131242,j2s6s300_link_base,-0.3544994592666626,-0.417584627866745,-0.048935964703559875,-0.33554336428642273,0.9407065510749817,0.0074175139889121056,0.049264173954725266
1680007103157296039,23413,1680007103157172351,j2s6s300_link_base,-0.3542211651802063,-0.41735753417015076,-0.04951019585132599,-0.33557313680648804,0.940667450428009,0.007685468532145023,0.049763478338718414
1680007103257262090,23414,1680007103257133077,j2s6s300_link_base,-0.3540964424610138,-0.4171220362186432,-0.04989258944988251,-0.33550533652305603,0.9406705498695374,0.007876260206103325,0.050129957497119904
1680007103357300406,23415,1680007103357169302,j2s6s300_link_base,-0.3545967936515808,-0.4165763854980469,-0.05007466673851013,-0.33486753702163696,0.9408900141716003,0.007915336638689041,0.05027022957801819
1680007103457302107,23416,1680007103457132149,j2s6s300_link_base,-0.3556787967681885,-0.4156688451766968,-0.05010421574115753,-0.333653062582016,0.9413212537765503,0.007851248607039452,0.050281740725040436
1680007103557315236,23417,1680007103557178801,j2s6s300_link_base,-0.3567217290401459,-0.41482943296432495,-0.05008001625537872,-0.3325057327747345,0.9417294859886169,0.007769150659441948,0.05025047808885574
1680007103657306185,23418,1680007103657137473,j2s6s300_link_base,-0.3570745587348938,-0.4144727885723114,-0.05015315115451813,-0.33207204937934875,0.9418792724609375,0.0077760349959135056,0.05031043663620949
1680007103757304442,23419,1680007103757173478,j2s6s300_link_base,-0.35743433237075806,-0.41414037346839905,-0.05018250644207001,-0.3316493034362793,0.9420268535614014,0.00776579137891531,0.05033712089061737
1680007103857309026,23420,1680007103857144741,j2s6s300_link_base,-0.35752370953559875,-0.4140450060367584,-0.050205737352371216,-0.33153635263442993,0.9420654773712158,0.007769663818180561,0.05035676062107086
1680007103957388113,23421,1680007103957138735,j2s6s300_link_base,-0.35765787959098816,-0.4139232039451599,-0.050212204456329346,-0.33138003945350647,0.9421201944351196,0.0077646346762776375,0.05036437511444092
1680007104057312834,23422,1680007104057171017,j2s6s300_link_base,-0.3577464520931244,-0.4138467013835907,-0.050212204456329346,-0.33127912878990173,0.942155659198761,0.007759219966828823,0.05036521703004837
1680007104157302954,23423,1680007104157138039,j2s6s300_link_base,-0.3578379154205322,-0.41376930475234985,-0.05021113157272339,-0.33117619156837463,0.942192018032074,0.007752898149192333,0.0503646619617939
1680007104257280993,23424,1680007104257139838,j2s6s300_link_base,-0.35789164900779724,-0.41372254490852356,-0.05021035671234131,-0.3311147689819336,0.9422134757041931,0.00774966087192297,0.05036510154604912
1680007104357246167,23425,1680007104357140390,j2s6s300_link_base,-0.3579140901565552,-0.4137161076068878,-0.05019719898700714,-0.33109840750694275,0.9422199130058289,0.007742268033325672,0.05035312846302986
1680007104457296671,23426,1680007104457135255,j2s6s300_link_base,-0.3579062819480896,-0.4137383997440338,-0.05018070340156555,-0.33111807703971863,0.9422138929367065,0.0077352579683065414,0.05033816397190094
1680007104557303339,23427,1680007104557141475,j2s6s300_link_base,-0.3579120635986328,-0.4137513041496277,-0.05015447735786438,-0.33112260699272156,0.942213237285614,0.007726619951426983,0.050321757793426514
1680007104657310850,23428,1680007104657139500,j2s6s300_link_base,-0.35815057158470154,-0.41346246004104614,-0.05022801458835602,-0.3308050036430359,0.9423202276229858,0.007755040191113949,0.05040464177727699
1680007104757277280,23429,1680007104757145318,j2s6s300_link_base,-0.3581444025039673,-0.4134524166584015,-0.050246477127075195,-0.33080238103866577,0.9423201680183411,0.007763354107737541,0.050420623272657394
1680007104857279127,23430,1680007104857102573,j2s6s300_link_base,-0.35817766189575195,-0.4133915305137634,-0.05024711787700653,-0.3307448923587799,0.9423381090164185,0.00777950044721365,0.0504603311419487
1680007104957279565,23431,1680007104957177469,j2s6s300_link_base,-0.3581363558769226,-0.4133513569831848,-0.050312429666519165,-0.3307473957538605,0.9423328042030334,0.00781961064785719,0.05053577944636345
1680007105057270532,23432,1680007105057139784,j2s6s300_link_base,-0.35812368988990784,-0.4132581949234009,-0.05043072998523712,-0.33069849014282227,0.9423438906669617,0.00787312164902687,0.05064079910516739
1680007105157258290,23433,1680007105157141648,j2s6s300_link_base,-0.35802561044692993,-0.4131346344947815,-0.05068257451057434,-0.33068037033081055,0.9423379302024841,0.00798363983631134,0.050851933658123016
1680007105257291658,23434,1680007105257140878,j2s6s300_link_base,-0.35802268981933594,-0.4130866527557373,-0.050744280219078064,-0.33065226674079895,0.9423447847366333,0.008009368553757668,0.05090378224849701
1680007105357333625,23435,1680007105357171769,j2s6s300_link_base,-0.35792115330696106,-0.4129672944545746,-0.05100099742412567,-0.3306388556957245,0.942337155342102,0.008119838312268257,0.05111401900649071
1680007105457301863,23436,1680007105457172265,j2s6s300_link_base,-0.35787346959114075,-0.41281941533088684,-0.05123580992221832,-0.33057528734207153,0.9423481822013855,0.008218054659664631,0.05130640044808388
1680007105557281556,23437,1680007105557133388,j2s6s300_link_base,-0.3580052852630615,-0.4126300811767578,-0.05133053660392761,-0.33037787675857544,0.942412793636322,0.008247853256762028,0.05138477683067322
1680007105657261014,23438,1680007105657138928,j2s6s300_link_base,-0.35792791843414307,-0.4125082492828369,-0.051565542817115784,-0.33034834265708923,0.9424118399620056,0.008347832597792149,0.05157729983329773
1680007105757268156,23439,1680007105757145010,j2s6s300_link_base,-0.35773777961730957,-0.41230854392051697,-0.052002549171447754,-0.3303379714488983,0.9423937797546387,0.008539586327970028,0.051940709352493286
1680007105857323680,23440,1680007105857140692,j2s6s300_link_base,-0.3561228811740875,-0.4105035066604614,-0.055401697754859924,-0.33018556237220764,0.9422590136528015,0.010138051584362984,0.05497876554727554
1680007105957277904,23441,1680007105957142803,j2s6s300_link_base,-0.35233426094055176,-0.4062143862247467,-0.06332923471927643,-0.3297799229621887,0.9419124126434326,0.013871472328901291,0.06208018958568573
1680007106057342996,23442,1680007106057179817,j2s6s300_link_base,-0.3477625548839569,-0.4012877643108368,-0.07312066853046417,-0.32941579818725586,0.9413718581199646,0.01830490492284298,0.07049272209405899
1680007106157303209,23443,1680007106157172058,j2s6s300_link_base,-0.3445702791213989,-0.3978796601295471,-0.07996498048305511,-0.32916802167892456,0.940942108631134,0.021362364292144775,0.07628946751356125
1680007106257299828,23444,1680007106257142045,j2s6s300_link_base,-0.34243258833885193,-0.39565297961235046,-0.084247887134552,-0.32903552055358887,0.9406321048736572,0.023331664502620697,0.08001561462879181
1680007106357311632,23445,1680007106357140173,j2s6s300_link_base,-0.34106045961380005,-0.39420285820961,-0.08689212799072266,-0.32893723249435425,0.9404308199882507,0.02457885816693306,0.08237731456756592
1680007106457288797,23446,1680007106457131549,j2s6s300_link_base,-0.3403290808200836,-0.393509179353714,-0.08832374215126038,-0.32893407344818115,0.9403076767921448,0.025225287303328514,0.08359146118164062
1680007106557229770,23447,1680007106557126184,j2s6s300_link_base,-0.3400063216686249,-0.39317137002944946,-0.08913451433181763,-0.3289105296134949,0.9402530193328857,0.025546636432409286,0.08419957756996155
1680007106657275504,23448,1680007106657148376,j2s6s300_link_base,-0.3398250937461853,-0.39310798048973083,-0.0897478461265564,-0.3289759159088135,0.9401974678039551,0.025719568133354187,0.08451113849878311
1680007106757285432,23449,1680007106757136198,j2s6s300_link_base,-0.3399674594402313,-0.39335155487060547,-0.08993259072303772,-0.3290395736694336,0.940191924571991,0.025639299303293228,0.08434812724590302
1680007106857273453,23450,1680007106857134957,j2s6s300_link_base,-0.33999356627464294,-0.3935425877571106,-0.08995136618614197,-0.3292383849620819,0.9401349425315857,0.025578850880265236,0.08422593027353287
1680007106957361947,23451,1680007106957129039,j2s6s300_link_base,-0.3397301733493805,-0.3941099941730499,-0.08988893032073975,-0.33160266280174255,0.9393265843391418,0.025351248681545258,0.08403875678777695
1680007107058294673,23452,1680007107058122619,j2s6s300_link_base,-0.33828145265579224,-0.39565521478652954,-0.08982932567596436,-0.3480319380760193,0.9333858489990234,0.02418636344373226,0.08413993567228317
1680007107157399541,23453,1680007107157136751,j2s6s300_link_base,-0.33682674169540405,-0.3978021740913391,-0.08964464068412781,-0.3794437348842621,0.9211264252662659,0.021465355530381203,0.08418875187635422
1680007107257367168,23454,1680007107257123827,j2s6s300_link_base,-0.33589327335357666,-0.3998217284679413,-0.0893951952457428,-0.4160454273223877,0.9052695035934448,0.018048711121082306,0.08406783640384674
1680007107357311991,23455,1680007107357130888,j2s6s300_link_base,-0.33443042635917664,-0.4016254246234894,-0.0892881453037262,-0.4418056607246399,0.8930206298828125,0.015819095075130463,0.08409356325864792
1680007107457341383,23456,1680007107457132836,j2s6s300_link_base,-0.332453191280365,-0.4035961627960205,-0.08923894166946411,-0.4560937285423279,0.8858307003974915,0.014812743291258812,0.0840412974357605
1680007107557275038,23457,1680007107557167266,j2s6s300_link_base,-0.33088919520378113,-0.4051951467990875,-0.08922502398490906,-0.4576888084411621,0.8850283026695251,0.014929965138435364,0.08380357176065445
1680007107657264959,23458,1680007107657142644,j2s6s300_link_base,-0.32795169949531555,-0.40761899948120117,-0.08929091691970825,-0.45517876744270325,0.8863223195075989,0.015767034143209457,0.08364440500736237
1680007107757274229,23459,1680007107757150839,j2s6s300_link_base,-0.3237021863460541,-0.4112609028816223,-0.08928775787353516,-0.45539674162864685,0.8862274289131165,0.0165704358369112,0.08330847322940826
1680007107857337206,23460,1680007107857172795,j2s6s300_link_base,-0.32021841406822205,-0.41400378942489624,-0.08930918574333191,-0.45601886510849,0.8859073519706726,0.01716628298163414,0.08318798989057541
1680007107957427366,23461,1680007107957183933,j2s6s300_link_base,-0.31531575322151184,-0.41772693395614624,-0.08932554721832275,-0.4594559669494629,0.8841261863708496,0.017798328772187233,0.0830916240811348
1680007108057322951,23462,1680007108057176242,j2s6s300_link_base,-0.3090018332004547,-0.42240217328071594,-0.08933407068252563,-0.4649297595024109,0.8812555074691772,0.018426133319735527,0.08300263434648514
1680007108157321872,23463,1680007108157184238,j2s6s300_link_base,-0.30043652653694153,-0.4287327826023102,-0.08923545479774475,-0.46495890617370605,0.8811113238334656,0.013977576047182083,0.08521021157503128
1680007108257285675,23464,1680007108257176693,j2s6s300_link_base,-0.2903193533420563,-0.4359912574291229,-0.0890524685382843,-0.45948126912117004,0.8836389183998108,0.005120370537042618,0.08962702751159668
1680007108357304523,23465,1680007108357177117,j2s6s300_link_base,-0.28146451711654663,-0.4408333897590637,-0.089154452085495,-0.4559212028980255,0.8850439190864563,-0.0009063370525836945,0.09398103505373001
1680007108457305281,23466,1680007108457143370,j2s6s300_link_base,-0.2743076682090759,-0.4428364336490631,-0.08964565396308899,-0.4543975293636322,0.8853712677955627,-0.003687724471092224,0.09811756759881973
1680007108557309403,23467,1680007108557173934,j2s6s300_link_base,-0.2652973532676697,-0.44551268219947815,-0.09022977948188782,-0.457741916179657,0.883262038230896,-0.004153646528720856,0.10150466114282608
1680007108657342192,23468,1680007108657179412,j2s6s300_link_base,-0.25528818368911743,-0.44775721430778503,-0.09099939465522766,-0.46274644136428833,0.8802280426025391,-0.0034649111330509186,0.10512998700141907
1680007108757320856,23469,1680007108757184169,j2s6s300_link_base,-0.24511565268039703,-0.44960474967956543,-0.09182199835777283,-0.4691196084022522,0.8764441013336182,-0.00177730992436409,0.10848717391490936
1680007108857297230,23470,1680007108857176567,j2s6s300_link_base,-0.23687970638275146,-0.4510616064071655,-0.09244993329048157,-0.4745534360408783,0.8731974959373474,-0.00026948750019073486,0.11101804673671722
1680007108957418277,23471,1680007108957181479,j2s6s300_link_base,-0.23089534044265747,-0.4521653354167938,-0.09286800026893616,-0.4785623252391815,0.8707849979400635,0.0008048899471759796,0.1127433329820633
1680007109057323628,23472,1680007109057181035,j2s6s300_link_base,-0.22335493564605713,-0.4546547532081604,-0.09313863515853882,-0.48491066694259644,0.8671302795410156,0.0021193698048591614,0.11376351118087769
1680007109157309162,23473,1680007109157177720,j2s6s300_link_base,-0.2161492556333542,-0.45719724893569946,-0.09333217144012451,-0.4909486472606659,0.8636184930801392,0.003201860934495926,0.114552341401577
1680007109257336693,23474,1680007109257170133,j2s6s300_link_base,-0.20983441174030304,-0.45932427048683167,-0.09349989891052246,-0.4964112937450409,0.8604041934013367,0.004278291016817093,0.11516176164150238
1680007109357312170,23475,1680007109357142683,j2s6s300_link_base,-0.2005927711725235,-0.4618033170700073,-0.09381279349327087,-0.503874659538269,0.8558604717254639,0.005938079208135605,0.11652430146932602
1680007109457270477,23476,1680007109457141958,j2s6s300_link_base,-0.18847154080867767,-0.4632682800292969,-0.09456369280815125,-0.5130763649940491,0.8499684929847717,0.008902870118618011,0.11927691847085953
1680007109557272200,23477,1680007109557143882,j2s6s300_link_base,-0.1766493171453476,-0.4622301161289215,-0.09568402171134949,-0.5185855031013489,0.8458502888679504,0.011540371924638748,0.12439204007387161
1680007109657297723,23478,1680007109657140307,j2s6s300_link_base,-0.16253210604190826,-0.46259012818336487,-0.09640905261039734,-0.5160447955131531,0.8461679220199585,0.008435826748609543,0.13276487588882446
1680007109757293621,23479,1680007109757130042,j2s6s300_link_base,-0.15009324252605438,-0.4639742076396942,-0.096625417470932,-0.5098852515220642,0.848624050617218,0.0029405318200588226,0.14087462425231934
1680007109857321208,23480,1680007109857177911,j2s6s300_link_base,-0.14073236286640167,-0.4652828276157379,-0.09666424989700317,-0.5061601400375366,0.8499196767807007,-0.0008088350296020508,0.1464168131351471
1680007109957384751,23481,1680007109957144448,j2s6s300_link_base,-0.13259533047676086,-0.46664848923683167,-0.09669968485832214,-0.5067015886306763,0.8490369319915771,-0.0022631660103797913,0.14961472153663635
1680007110057299308,23482,1680007110057141033,j2s6s300_link_base,-0.1237192302942276,-0.46933090686798096,-0.0964118242263794,-0.5061742067337036,0.8487736582756042,-0.005290552973747253,0.15278467535972595
1680007110157269882,23483,1680007110157142272,j2s6s300_link_base,-0.11255490779876709,-0.4733308255672455,-0.09584945440292358,-0.5041956901550293,0.8491578698158264,-0.010251011699438095,0.156884104013443
1680007110257298866,23484,1680007110257140962,j2s6s300_link_base,-0.10220843553543091,-0.4775991439819336,-0.09501577913761139,-0.49767619371414185,0.8519383668899536,-0.01711001619696617,0.16194655001163483
1680007110357271830,23485,1680007110357145977,j2s6s300_link_base,-0.09288784861564636,-0.48270952701568604,-0.09371766448020935,-0.48337170481681824,0.858668863773346,-0.026540260761976242,0.16833066940307617
1680007110457328479,23486,1680007110457166995,j2s6s300_link_base,-0.08480734378099442,-0.4871692657470703,-0.0924898236989975,-0.4710240662097931,0.8641137480735779,-0.034555140882730484,0.17392417788505554
1680007110557277576,23487,1680007110557183503,j2s6s300_link_base,-0.07637504488229752,-0.49049243330955505,-0.0916624367237091,-0.4660637080669403,0.8658249974250793,-0.039110973477363586,0.17776918411254883
1680007110657323438,23488,1680007110657181450,j2s6s300_link_base,-0.06859515607357025,-0.4929623007774353,-0.09110994637012482,-0.4653523862361908,0.8655909299850464,-0.04149722680449486,0.18021540343761444
1680007110757311438,23489,1680007110757179169,j2s6s300_link_base,-0.056296609342098236,-0.4951867461204529,-0.09083077311515808,-0.4723578691482544,0.8614705204963684,-0.041142359375953674,0.18180757761001587
1680007110857339624,23490,1680007110857183621,j2s6s300_link_base,-0.04500029981136322,-0.49666622281074524,-0.0906810462474823,-0.47966650128364563,0.8572207093238831,-0.0400984100997448,0.18298891186714172
1680007110957378393,23491,1680007110957143925,j2s6s300_link_base,-0.037793852388858795,-0.4974878430366516,-0.09057639539241791,-0.484363317489624,0.8544483780860901,-0.03944181278347969,0.18372419476509094
1680007111057266120,23492,1680007111057144764,j2s6s300_link_base,-0.03188430517911911,-0.49792197346687317,-0.09051334857940674,-0.4879593551158905,0.8522606492042542,-0.03883631154894829,0.1844968944787979
1680007111157247140,23493,1680007111157144780,j2s6s300_link_base,-0.02030479907989502,-0.49874696135520935,-0.09039531648159027,-0.4967080354690552,0.8470917344093323,-0.037277448922395706,0.185276061296463
1680007111257282293,23494,1680007111257144418,j2s6s300_link_base,-0.006764128804206848,-0.49998000264167786,-0.0900273323059082,-0.5037630200386047,0.8424867391586304,-0.037167295813560486,0.18723662197589874
1680007111357244083,23495,1680007111357151255,j2s6s300_link_base,0.0071826353669166565,-0.5037566423416138,-0.08843077719211578,-0.4979255199432373,0.8441501259803772,-0.04443597421050072,0.19366489350795746
1680007111457304428,23496,1680007111457139542,j2s6s300_link_base,0.020215921103954315,-0.5084421038627625,-0.08626483380794525,-0.48659688234329224,0.8482862114906311,-0.0543421134352684,0.20169521868228912
1680007111557302380,23497,1680007111557179187,j2s6s300_link_base,0.0308111310005188,-0.5104241371154785,-0.08493375778198242,-0.4793582856655121,0.8504559397697449,-0.060010407119989395,0.20818060636520386
1680007111657279169,23498,1680007111657184289,j2s6s300_link_base,0.03856377303600311,-0.5090425610542297,-0.08469067513942719,-0.4758334159851074,0.8510714173316956,-0.06106552481651306,0.21338000893592834
1680007111757308804,23499,1680007111757180128,j2s6s300_link_base,0.04508283734321594,-0.506683886051178,-0.08480331301689148,-0.47396382689476013,0.8510578274726868,-0.060477688908576965,0.217718243598938
1680007111857366662,23500,1680007111857141239,j2s6s300_link_base,0.054251596331596375,-0.5034968852996826,-0.08508080244064331,-0.47482913732528687,0.8496989607810974,-0.05801289901137352,0.22177328169345856
1680007111957283108,23501,1680007111957147729,j2s6s300_link_base,0.06705474108457565,-0.5005980730056763,-0.08513593673706055,-0.473318487405777,0.849703311920166,-0.05398941412568092,0.22596238553524017
1680007112057339205,23502,1680007112057177175,j2s6s300_link_base,0.07876330614089966,-0.5005184412002563,-0.08417452871799469,-0.4627576172351837,0.8539433479309082,-0.054099760949611664,0.23175261914730072
1680007112157306774,23503,1680007112157178124,j2s6s300_link_base,0.08820371329784393,-0.5024170279502869,-0.082505002617836,-0.4494290351867676,0.859190821647644,-0.05731460079550743,0.237738698720932
1680007112257282944,23504,1680007112257141862,j2s6s300_link_base,0.094247967004776,-0.5037325024604797,-0.08138087391853333,-0.4404207468032837,0.8625035285949707,-0.05979028716683388,0.24195510149002075
1680007112357305686,23505,1680007112357182119,j2s6s300_link_base,0.10230973362922668,-0.5046020746231079,-0.08033876121044159,-0.43648648262023926,0.8633338212966919,-0.06185523048043251,0.24557720124721527
1680007112457281983,23506,1680007112457146278,j2s6s300_link_base,0.11298279464244843,-0.504814863204956,-0.07929739356040955,-0.4352618455886841,0.8627702593803406,-0.06331846117973328,0.2493295967578888
1680007112557240832,23507,1680007112557145813,j2s6s300_link_base,0.1248994767665863,-0.5061408877372742,-0.07756328582763672,-0.42999908328056335,0.8634604215621948,-0.06724459677934647,0.25498080253601074
1680007112657307859,23508,1680007112657179122,j2s6s300_link_base,0.13623595237731934,-0.5069721341133118,-0.07595939934253693,-0.42588046193122864,0.8636451363563538,-0.07068765163421631,0.26028114557266235
1680007112757239378,23509,1680007112757146286,j2s6s300_link_base,0.14471544325351715,-0.5071825981140137,-0.07489323616027832,-0.42434266209602356,0.8632301688194275,-0.07251927256584167,0.26364368200302124
1680007112857322413,23510,1680007112857153383,j2s6s300_link_base,0.15243767201900482,-0.5069942474365234,-0.07403258979320526,-0.42364445328712463,0.8626272082328796,-0.07361169159412384,0.2664225697517395
1680007112957312819,23511,1680007112957146764,j2s6s300_link_base,0.16376006603240967,-0.5090317130088806,-0.07287362217903137,-0.4140520691871643,0.8659799098968506,-0.077095627784729,0.269621878862381
1680007113057260931,23512,1680007113057150625,j2s6s300_link_base,0.1785425990819931,-0.5141687393188477,-0.07194778323173523,-0.39769211411476135,0.872559130191803,-0.08469995856285095,0.2707534730434418
1680007113157257801,23513,1680007113157136101,j2s6s300_link_base,0.1904565840959549,-0.5208159685134888,-0.0736670196056366,-0.3875492215156555,0.8788005113601685,-0.09420200437307358,0.2619948387145996
1680007113257420468,23514,1680007113257180278,j2s6s300_link_base,0.19636864960193634,-0.5274403691291809,-0.07597541809082031,-0.38190996646881104,0.8837494254112244,-0.10310029983520508,0.2500039041042328
1680007113357245926,23515,1680007113357144501,j2s6s300_link_base,0.2007312774658203,-0.5311790108680725,-0.07720337808132172,0.3780529201030731,-0.8867817521095276,0.10821213573217392,-0.2428671270608902
1680007113457291056,23516,1680007113457132718,j2s6s300_link_base,0.20365110039710999,-0.5328533053398132,-0.07786235213279724,0.3738543391227722,-0.8893088698387146,0.10994739830493927,-0.23932039737701416
1680007113557296902,23517,1680007113557134113,j2s6s300_link_base,0.20964054763317108,-0.5323270559310913,-0.07840491831302643,0.37402597069740295,-0.8898137807846069,0.10995018482208252,-0.2371644824743271
1680007113657385008,23518,1680007113657134632,j2s6s300_link_base,0.216057687997818,-0.5309669375419617,-0.07864320278167725,0.37348538637161255,-0.8903080224990845,0.10883826017379761,-0.23667378723621368
1680007113758366247,23519,1680007113758134134,j2s6s300_link_base,0.2202841341495514,-0.5298278331756592,-0.07878388464450836,0.36342117190361023,-0.8946486115455627,0.10515796393156052,-0.2376357465982437
1680007113858405832,23520,1680007113858137392,j2s6s300_link_base,0.22281596064567566,-0.5295534729957581,-0.0791410505771637,0.352249413728714,-0.8994896411895752,0.10214229673147202,-0.2374991774559021
1680007113958283238,23521,1680007113958151797,j2s6s300_link_base,0.22334055602550507,-0.5304276943206787,-0.07969862222671509,0.3449474573135376,-0.9029111862182617,0.10147454589605331,-0.23551109433174133
1680007114057320873,23522,1680007114057178074,j2s6s300_link_base,0.2230607271194458,-0.5320276618003845,-0.08048437535762787,0.3402033746242523,-0.9055317640304565,0.10239621996879578,-0.23192448914051056
1680007114157262582,23523,1680007114157154500,j2s6s300_link_base,0.22431358695030212,-0.5329359769821167,-0.08117347955703735,0.3385724425315857,-0.9068789482116699,0.10344560444355011,-0.22855673730373383
1680007114257252882,23524,1680007114257150715,j2s6s300_link_base,0.22727230191230774,-0.5331805944442749,-0.08178198337554932,0.33963441848754883,-0.9071402549743652,0.10463325679302216,-0.22538191080093384
1680007114357295215,23525,1680007114357146433,j2s6s300_link_base,0.2274928241968155,-0.535692572593689,-0.08302183449268341,0.34003394842147827,-0.9082778692245483,0.10834398865699768,-0.21833407878875732
1680007114457341742,23526,1680007114457178473,j2s6s300_link_base,0.22545349597930908,-0.5403803586959839,-0.08470667898654938,0.3393354117870331,-0.9102970361709595,0.11445881426334381,-0.2076292783021927
1680007114557302723,23527,1680007114557147958,j2s6s300_link_base,0.2219024896621704,-0.5467279553413391,-0.08664368093013763,0.33796897530555725,-0.9128077626228333,0.12252886593341827,-0.1937669962644577
1680007114657347072,23528,1680007114657181567,j2s6s300_link_base,0.22181689739227295,-0.5505781173706055,-0.08790592849254608,0.33908092975616455,-0.913743793964386,0.1283522993326187,-0.18336309492588043
1680007114757311324,23529,1680007114757143393,j2s6s300_link_base,0.22382333874702454,-0.551958441734314,-0.08853965997695923,0.34129035472869873,-0.913614809513092,0.13136227428913116,-0.17768754065036774
1680007114857348103,23530,1680007114857184927,j2s6s300_link_base,0.225287064909935,-0.552596926689148,-0.08891190588474274,0.34285977482795715,-0.913404107093811,0.13303802907466888,-0.1744736284017563
1680007114957307827,23531,1680007114957175496,j2s6s300_link_base,0.22613248229026794,-0.5528780221939087,-0.08907313644886017,0.34373724460601807,-0.9132524132728577,0.13387297093868256,-0.1728949397802353
1680007115057344756,23532,1680007115057185505,j2s6s300_link_base,0.2273227423429489,-0.5527255535125732,-0.08911943435668945,0.34481173753738403,-0.9129313826560974,0.1342007964849472,-0.1721952110528946
1680007115157318389,23533,1680007115157150856,j2s6s300_link_base,0.22781136631965637,-0.5528225898742676,-0.0891977995634079,0.3453062176704407,-0.9128304719924927,0.13459473848342896,-0.17143060266971588
1680007115257276293,23534,1680007115257148448,j2s6s300_link_base,0.22848598659038544,-0.5528207421302795,-0.08918297290802002,0.34593912959098816,-0.9126479625701904,0.13490912318229675,-0.17087820172309875
1680007115357312668,23535,1680007115357178793,j2s6s300_link_base,0.22952407598495483,-0.5528289675712585,-0.088807612657547,0.3468649089336395,-0.9123023152351379,0.13535365462303162,-0.17049501836299896
1680007115457346306,23536,1680007115457177933,j2s6s300_link_base,0.2310684621334076,-0.5522299408912659,-0.0888439267873764,0.3482223451137543,-0.9118238091468811,0.1352255642414093,-0.17038962244987488
1680007115557314812,23537,1680007115557144618,j2s6s300_link_base,0.23265792429447174,-0.5513655543327332,-0.08890384435653687,0.34961870312690735,-0.9113587141036987,0.13491614162921906,-0.1702636182308197
1680007115657299089,23538,1680007115657139488,j2s6s300_link_base,0.23334737122058868,-0.5498285889625549,-0.08878090977668762,0.3503836393356323,-0.9112210273742676,0.1339511275291443,-0.17019027471542358
1680007115757348842,23539,1680007115757180162,j2s6s300_link_base,0.23290875554084778,-0.549027144908905,-0.08532673120498657,0.35532015562057495,-0.9096565246582031,0.13412503898143768,-0.16817578673362732
1680007115857272734,23540,1680007115857181335,j2s6s300_link_base,0.23012295365333557,-0.5458545684814453,-0.07991555333137512,0.36925533413887024,-0.9054513573646545,0.13211238384246826,-0.16234105825424194
1680007115957311546,23541,1680007115957182468,j2s6s300_link_base,0.22616557776927948,-0.5387076735496521,-0.07652051746845245,0.38012173771858215,-0.9026324152946472,0.12645390629768372,-0.1573902666568756
1680007116057353110,23542,1680007116057194394,j2s6s300_link_base,0.22298353910446167,-0.5333300232887268,-0.0739937424659729,0.3862876296043396,-0.9012116193771362,0.12264025211334229,-0.15348926186561584
1680007116157337595,23543,1680007116157176426,j2s6s300_link_base,0.2213808000087738,-0.5324100255966187,-0.06844322383403778,0.3902086019515991,-0.8999207615852356,0.1238635778427124,-0.15012560784816742
1680007116257307381,23544,1680007116257183469,j2s6s300_link_base,0.22062402963638306,-0.5348183512687683,-0.06076131761074066,0.3928409814834595,-0.8986834287643433,0.12893594801425934,-0.14635401964187622
1680007116357316259,23545,1680007116357189462,j2s6s300_link_base,0.22061440348625183,-0.5370909571647644,-0.05398762226104736,0.3945717513561249,-0.897606611251831,0.1334260106086731,-0.1442667841911316
1680007116457344345,23546,1680007116457183629,j2s6s300_link_base,0.22045643627643585,-0.5386765003204346,-0.04935351014137268,0.39589935541152954,-0.8968182802200317,0.13655534386634827,-0.142595112323761
1680007116557393981,23547,1680007116557203234,j2s6s300_link_base,0.2204417735338211,-0.5397869348526001,-0.0462660938501358,0.39672601222991943,-0.8962856531143188,0.13869479298591614,-0.1415775716304779
1680007116657314176,23548,1680007116657177669,j2s6s300_link_base,0.2202354073524475,-0.539697527885437,-0.04464183747768402,0.3974131941795349,-0.8959813714027405,0.13925309479236603,-0.1410275101661682
1680007116757300674,23549,1680007116757179074,j2s6s300_link_base,0.21864281594753265,-0.5381895899772644,-0.04330030083656311,0.4038618505001068,-0.8937650322914124,0.13795578479766846,-0.1380143016576767
1680007116857350816,23550,1680007116857179525,j2s6s300_link_base,0.21683019399642944,-0.538860023021698,-0.03741641342639923,0.41493573784828186,-0.8892489075660706,0.13967999815940857,-0.13249213993549347
1680007116957275103,23551,1680007116957145641,j2s6s300_link_base,0.2153446078300476,-0.5383205413818359,-0.030556142330169678,0.42228516936302185,-0.8860929012298584,0.1413135826587677,-0.12862853705883026
1680007117057345222,23552,1680007117057179202,j2s6s300_link_base,0.2132444530725479,-0.5324991941452026,-0.0278521329164505,0.4257529675960541,-0.8851808309555054,0.13752800226211548,-0.127574622631073
1680007117157385676,23553,1680007117157190977,j2s6s300_link_base,0.21164238452911377,-0.5273481607437134,-0.02649936079978943,0.4275098145008087,-0.8849245309829712,0.13393785059452057,-0.1272975355386734
1680007117257309414,23554,1680007117257179681,j2s6s300_link_base,0.21066604554653168,-0.5250824689865112,-0.024526894092559814,0.4287354350090027,-0.8845833539962769,0.1330242156982422,-0.12650202214717865
1680007117357317838,23555,1680007117357185698,j2s6s300_link_base,0.2097407579421997,-0.531575620174408,-0.01853722333908081,0.4291073977947235,-0.8839287161827087,0.14212217926979065,-0.11974236369132996
1680007117457332456,23556,1680007117457182898,j2s6s300_link_base,0.2072264850139618,-0.5497732162475586,-0.009630456566810608,0.4272914528846741,-0.8831960558891296,0.1641899049282074,-0.1021195501089096
1680007117557330801,23557,1680007117557196418,j2s6s300_link_base,0.20501795411109924,-0.5626502633094788,-0.0037436336278915405,0.42543816566467285,-0.8825066089630127,0.17985932528972626,-0.08851589262485504
1680007117657294946,23558,1680007117657152083,j2s6s300_link_base,0.2026454508304596,-0.5661624670028687,-0.001686200499534607,0.42400413751602173,-0.8827529549598694,0.18535083532333374,-0.08131951093673706
1680007117757320421,23559,1680007117757188695,j2s6s300_link_base,0.20014458894729614,-0.5632243156433105,-0.0027570873498916626,0.42296767234802246,-0.8838470578193665,0.1838027536869049,-0.07829028367996216
1680007117857355575,23560,1680007117857189711,j2s6s300_link_base,0.19830788671970367,-0.5597381591796875,-0.003935828804969788,0.42226067185401917,-0.8848124742507935,0.18133455514907837,-0.07694514095783234
1680007117957323429,23561,1680007117957165699,j2s6s300_link_base,0.19714759290218353,-0.5575916171073914,-0.004686638712882996,0.42181915044784546,-0.8854087591171265,0.17983604967594147,-0.07601924240589142
1680007118057311496,23562,1680007118057151544,j2s6s300_link_base,0.19651123881340027,-0.5559064149856567,-0.0054746270179748535,0.42168864607810974,-0.8857786059379578,0.17847084999084473,-0.07565136253833771
1680007118157342931,23563,1680007118157184960,j2s6s300_link_base,0.19608458876609802,-0.5548019409179688,-0.006068482995033264,0.4216567277908325,-0.8860043287277222,0.17752747237682343,-0.07540492713451385
1680007118257358292,23564,1680007118257197396,j2s6s300_link_base,0.1959104835987091,-0.5538839101791382,-0.006543830037117004,0.4220552444458008,-0.8859939575195312,0.17667435109615326,-0.07530124485492706
1680007118357351655,23565,1680007118357187606,j2s6s300_link_base,0.19567283987998962,-0.5531109571456909,-0.006941929459571838,0.4232519567012787,-0.8856214880943298,0.17581522464752197,-0.0749761089682579
1680007118457324042,23566,1680007118457173188,j2s6s300_link_base,0.19437900185585022,-0.5518674254417419,-0.007755905389785767,0.4304274618625641,-0.8828077912330627,0.1736985445022583,-0.07218918949365616
1680007118557308870,23567,1680007118557183919,j2s6s300_link_base,0.19274196028709412,-0.5509438514709473,-0.008383184671401978,0.4401787221431732,-0.8787261247634888,0.17155365645885468,-0.06820894777774811
1680007118657353085,23568,1680007118657188466,j2s6s300_link_base,0.19168584048748016,-0.5504034757614136,-0.008586153388023376,0.44626739621162415,-0.8760891556739807,0.17029380798339844,-0.06567515432834625
1680007118757337180,23569,1680007118757191589,j2s6s300_link_base,0.19113844633102417,-0.550349771976471,-0.008355855941772461,0.44980892539024353,-0.8744668364524841,0.16990870237350464,-0.06411471217870712
1680007118857360862,23570,1680007118857178932,j2s6s300_link_base,0.19084344804286957,-0.5501991510391235,-0.008399143815040588,0.4517088234424591,-0.8736175894737244,0.1695137321949005,-0.06337586045265198
1680007118957323098,23571,1680007118957185476,j2s6s300_link_base,0.19167745113372803,-0.5480585694313049,-0.008706197142601013,0.4533150792121887,-0.8731063604354858,0.1666828691959381,-0.06638802587985992
1680007119057305757,23572,1680007119057180308,j2s6s300_link_base,0.1931317150592804,-0.5445588231086731,-0.009132802486419678,0.4552743434906006,-0.8725292682647705,0.16213521361351013,-0.07162519544363022
1680007119157336907,23573,1680007119157179866,j2s6s300_link_base,0.19393277168273926,-0.5424666404724121,-0.00940045714378357,0.45630601048469543,-0.8722298741340637,0.1594630777835846,-0.07464174926280975
1680007119257320395,23574,1680007119257152472,j2s6s300_link_base,0.19441045820713043,-0.5413143038749695,-0.009512707591056824,0.45680147409439087,-0.8720861673355103,0.15797638893127441,-0.07643045485019684
1680007119357320566,23575,1680007119357152681,j2s6s300_link_base,0.1947634220123291,-0.540471076965332,-0.009600132703781128,0.45710116624832153,-0.8720069527626038,0.15690334141254425,-0.07774066925048828
1680007119457364433,23576,1680007119457209853,j2s6s300_link_base,0.19493764638900757,-0.5399578213691711,-0.009690508246421814,0.4572684168815613,-0.8719707727432251,0.15628215670585632,-0.07841232419013977
1680007119557327146,23577,1680007119557177554,j2s6s300_link_base,0.19501203298568726,-0.5396784543991089,-0.009745389223098755,0.45735135674476624,-0.871956467628479,0.1559404730796814,-0.07876680791378021
1680007119657297256,23578,1680007119657179525,j2s6s300_link_base,0.19503666460514069,-0.5395387411117554,-0.009777620434761047,0.4573860168457031,-0.8719537854194641,0.15577608346939087,-0.0789196789264679
1680007119757255171,23579,1680007119757145403,j2s6s300_link_base,0.1950683891773224,-0.5392618179321289,-0.009851917624473572,0.4574352204799652,-0.8719599843025208,0.15546631813049316,-0.07917693257331848
1680007119857267828,23580,1680007119857147821,j2s6s300_link_base,0.1950678527355194,-0.5391290783882141,-0.009895741939544678,0.4574521780014038,-0.8719679713249207,0.15532495081424713,-0.07926875352859497
1680007119957320498,23581,1680007119957137818,j2s6s300_link_base,0.19507543742656708,-0.5390976071357727,-0.009901627898216248,0.4574638605117798,-0.871965229511261,0.1552870273590088,-0.07930554449558258
1680007120057312815,23582,1680007120057135125,j2s6s300_link_base,0.1950789988040924,-0.5390833616256714,-0.009904175996780396,0.457470566034317,-0.8719633221626282,0.1552695333957672,-0.07932228595018387
1680007120158367370,23583,1680007120158146812,j2s6s300_link_base,0.19508084654808044,-0.5390722751617432,-0.009907200932502747,0.4574759900569916,-0.8719619512557983,0.15525595843791962,-0.07933345437049866
1680007120257299910,23584,1680007120257139098,j2s6s300_link_base,0.1950843334197998,-0.5390622615814209,-0.009908482432365417,0.4574809968471527,-0.8719602823257446,0.1552431732416153,-0.07934724539518356
1680007120357340215,23585,1680007120357162658,j2s6s300_link_base,0.19509220123291016,-0.5390421152114868,-0.009910628199577332,0.4574885368347168,-0.8719580769538879,0.15521791577339172,-0.07937689125537872
1680007120457293452,23586,1680007120457134611,j2s6s300_link_base,0.1950942426919937,-0.5390357375144958,-0.00991155207157135,0.45749136805534363,-0.8719573020935059,0.1552099883556366,-0.07938529551029205
